#----------------------------------------------------------------------------
~VERSION INFORMATION
VERS.            2.0                  :CWLS LOG ASCII STANDARD -VERSION 2.0
WRAP.            NO                   :ONE LINE PER DEPTH STEP
#
#--------------------------------------------------------------------
~WELL INFORMATION
#MNEM .UNIT      DATA                 :DESCRIPTION OF MNEMONIC
#----------      ------------         -------------------------------
STRT  .m         3166.1892            :START DEPTH
STEP  .m         0.2                  :STEP DEPTH
STOP  .m         3426.1892            :STOP DEPTH
NULL  .          -999.25              :NULL VALUE
COMP  .                               :COMPANY
WELL  .                               :WELL
LOC   .                               :LOCATION - AREA
FLD   .          	              :FIELD
CTRY  .                               :COUNTRY
DATE  .                               :WELL DATE
UWI   .            	              :UWI
ZSTK  .          TVDss                :Z-STICK
XWELL .m         	              :X POS
YWELL .m         	              :Y POS
EDF   .          14.0                 :DERRICK FLOOR ELEVATION
#
#----------------------------------------------------------------------------
~CURVE INFORMATION
#MNEM.UNIT                                              : CURVE DESCRIPTION
#----------                                             -------------------------------
DEPT                    .m                              : 1      DEPTH
MD                      .m                              : 2      Depth
GR                      .API                            : 3      GR
CALIPER                 .m                              : 4      Cal
VP                      .km/s                           : 5      Vp
Vs_calculado_de_VPVS    .km/s                           : 6      Vs
RHO                     .g/cm3                          : 7      Rho
Porosidade              .fract                          : 8      Por
Argilosidade            .fract                          : 9      Volume
Saturacao               .fract                          : 10     Sat
#
#----------------------------------------------------------------------------
~A                      MD                      GR                      CALIPER                 VP                      Vs_calculado_de_VPVS    RHO                     Porosidade              Argilosidade            Saturacao               
# ...
3213.7892               3227.7892               97.2251                 0.3217                  2.7759                  1.0199                  2.3532                  0.0372                  0.8643                  1.0                     
3213.9892               3227.9892               98.2684                 0.3215                  2.7883                  1.0157                  2.355                   0.0301                  0.8721                  1.0                     
3214.1892               3228.1892               100.4663                0.3208                  2.8022                  1.0402                  2.3583                  0.0232                  0.8884                  1.0                     
3214.3892               3228.3892               104.3115                0.3209                  2.8101                  1.0796                  2.3612                  0.0162                  0.918                   1.0                     
3214.5892               3228.5892               108.1553                0.3235                  2.8065                  1.0857                  2.361                   0.0081                  0.9546                  1.0                     
3214.7892               3228.7892               108.0761                0.3238                  2.7893                  1.0767                  2.3552                  0.0104                  0.957                   0.8393                  
3214.9892               3228.9892               105.4512                0.3216                  2.7587                  1.0705                  2.3422                  0.0144                  0.9558                  0.5969                  
3215.1892               3229.1892               103.0247                0.3195                  2.7166                  1.0467                  2.3215                  0.045                   0.8703                  0.4043                  
3215.3892               3229.3892               103.3024                0.3175                  2.6661                  1.0026                  2.2934                  0.12                    0.6377                  0.2656                  
3215.5892               3229.5892               103.0124                0.3166                  2.6119                  0.9743                  2.2604                  0.2075                  0.3653                  0.1175                  
3215.7892               3229.7892               100.5953                0.3173                  2.5593                  0.9691                  2.2275                  0.2546                  0.2175                  0.1155                  
3215.9892               3229.9892               94.5578                 0.3174                  2.5141                  0.9753                  2.1999                  0.2996                  0.0763                  0.1331                  
3216.1892               3230.1892               89.4301                 0.3164                  2.48                    0.9835                  2.1807                  0.3001                  0.0652                  0.1561                  
3216.3892               3230.3892               89.304                  0.3148                  2.457                   0.9821                  2.1707                  0.2597                  0.162                   0.1878                  
3216.5892               3230.5892               90.5524                 0.3141                  2.4414                  0.9704                  2.1677                  0.1975                  0.3206                  0.2259                  
3216.7892               3230.7892               91.5426                 0.3145                  2.4273                  0.9521                  2.1673                  0.2116                  0.3077                  0.2023                  
3216.9892               3230.9892               91.5755                 0.3154                  2.4092                  0.9429                  2.165                   0.2414                  0.2676                  0.1616                  
3217.1892               3231.1892               91.1775                 0.3151                  2.3846                  0.9817                  2.1578                  0.2643                  0.227                   0.129                   
3217.3892               3231.3892               91.1735                 0.3142                  2.3541                  1.0817                  2.1462                  0.2796                  0.1831                  0.1053                  
3217.5892               3231.5892               92.4304                 0.3138                  2.3218                  1.1723                  2.1328                  0.2936                  0.1379                  0.0801                  
3217.7892               3231.7892               95.1176                 0.3143                  2.2931                  1.198                   2.12                    0.3085                  0.1016                  0.0769                  
3217.9892               3231.9892               96.526                  0.3157                  2.273                   1.1699                  2.1097                  0.3245                  0.066                   0.0761                  
3218.1892               3232.1892               97.3725                 0.3169                  2.2643                  1.1091                  2.1034                  0.333                   0.0422                  0.0803                  
3218.3892               3232.3892               98.3514                 0.3169                  2.2672                  1.0825                  2.1021                  0.3317                  0.0357                  0.0925                  
3218.5892               3232.5892               100.407                 0.3158                  2.2798                  1.095                   2.1051                  0.3291                  0.0306                  0.1068                  
3218.7892               3232.7892               102.038                 0.3141                  2.2979                  1.1105                  2.1112                  0.3173                  0.0471                  0.116                   
3218.9892               3232.9892               101.5118                0.3142                  2.3167                  1.1236                  2.1185                  0.3014                  0.0715                  0.1242                  
3219.1892               3233.1892               98.2737                 0.3154                  2.3317                  1.1322                  2.125                   0.2888                  0.1049                  0.1315                  
3219.3892               3233.3892               94.1054                 0.3154                  2.3401                  1.1346                  2.1287                  0.2802                  0.1526                  0.1376                  
3219.5892               3233.5892               90.0152                 0.3144                  2.3407                  1.1368                  2.1282                  0.2711                  0.2099                  0.1442                  
3219.7892               3233.7892               89.8558                 0.3127                  2.3342                  1.1358                  2.1235                  0.292                   0.1621                  0.1427                  
3219.9892               3233.9892               92.6286                 0.3129                  2.3231                  1.1239                  2.1157                  0.3262                  0.0782                  0.1397                  
3220.1892               3234.1892               100.1926                0.314                   2.3101                  1.0872                  2.1067                  0.3406                  0.0438                  0.1341                  
3220.3892               3234.3892               101.2799                0.3139                  2.2974                  1.0398                  2.0986                  0.3337                  0.0618                  0.1243                  
