#----------------------------------------------------------------------------
~VERSION INFORMATION
VERS.            2.0                  :CWLS LOG ASCII STANDARD -VERSION 2.0
WRAP.            NO                   :ONE LINE PER DEPTH STEP
#
#--------------------------------------------------------------------
~WELL INFORMATION
#MNEM .UNIT      DATA                 :DESCRIPTION OF MNEMONIC
#----------      ------------         -------------------------------
STRT  .m         2910.0               :START DEPTH
STEP  .m         0.2                  :STEP DEPTH
STOP  .m         3110.0               :STOP DEPTH
NULL  .          -999.25              :NULL VALUE
COMP  .                               :COMPANY
WELL  .                               :WELL
LOC   .                               :LOCATION - AREA
FLD   .                               :FIELD
CTRY  .                               :COUNTRY
DATE  .                               :WELL DATE
UWI   .                               :UWI
ZSTK  .          TVDss                :Z-STICK
XWELL .m         	              :X POS
YWELL .m         	              :Y POS
EDF   .          14.0                 :DERRICK FLOOR ELEVATION
#
#----------------------------------------------------------------------------
~CURVE INFORMATION
#MNEM.UNIT                                  : CURVE DESCRIPTION
#----------                                 -------------------------------
DEPT        .m                              : 1      DEPTH
MD          .m                              : 2      Depth
GR          .API                            : 3      GR
CALIPER     .m                              : 4      Cal
VP          .km/s                           : 5      Vp
VS          .km/s                           : 6      Vs
RHO         .g/cm3                          : 7      Rho
Porosidade  .fract                          : 8      Por
Argilosidade.fract                          : 9      Volume
Saturacao   .fract                          : 10     Sat
#
#----------------------------------------------------------------------------
~A          MD          GR          CALIPER     VP          VS          RHO         Porosidade  Argilosidade Saturacao   
# ...
2923.4      2936.4941   100.955     0.3412      2.6762      1.1042      2.3351      0.0         1.0         0.9896      
2923.6      2936.6938   96.948      0.3402      2.7216      1.1143      2.3443      0.001       0.9805      0.9962      
2923.8      2936.8936   95.2883     0.34        2.7574      1.1152      2.3293      0.0226      0.8752      1.0         
2924.0      2937.0934   97.7486     0.3411      2.7101      1.0979      2.3062      0.0489      0.8041      0.9995      
2924.2      2937.2932   101.6757    0.3428      2.6414      1.0656      2.2896      0.0595      0.81        0.9997      
2924.4      2937.493    104.7186    0.3446      2.5874      1.0401      2.2855      0.0574      0.8304      1.0         
2924.6      2937.6928   107.2218    0.3447      2.5871      1.0366      2.2935      0.0442      0.8699      0.9996      
2924.8      2937.8926   107.8111    0.3433      2.636       1.0452      2.3054      0.0218      0.9438      1.0         
2925.0      2938.0924   108.4392    0.343       2.6981      1.0862      2.3119      0.0119      0.9728      0.9999      
2925.2      2938.2922   112.6353    0.3439      2.7219      1.1263      2.306       0.0268      0.9205      0.9997      
2925.4      2938.492    118.2293    0.3456      2.686       1.1177      2.2815      0.0638      0.8204      1.0         
2925.6      2938.6918   124.1869    0.348       2.634       1.1207      2.2477      0.0967      0.7482      0.9991      
2925.8      2938.8916   128.7223    0.3501      2.5848      1.0926      2.2198      0.1032      0.7421      1.0         
2926.0      2939.0913   131.192     0.3528      2.5306      1.0427      2.1996      0.1052      0.7376      1.0         
2926.2      2939.2911   134.6042    0.3564      2.4842      1.0342      2.1916      0.1217      0.6949      0.9911      
2926.4      2939.4909   137.8679    0.3576      2.4707      1.0252      2.1957      0.127       0.6829      0.987       
2926.6      2939.6907   137.1309    0.3584      2.4804      0.9878      2.2035      0.1012      0.7469      0.9976      
2926.8      2939.8905   133.3662    0.3604      2.4899      0.9921      2.2076      0.0528      0.8677      1.0         
2927.0      2940.0903   128.2449    0.3596      2.5201      1.0111      2.2132      0.0098      0.9756      0.9992      
2927.2      2940.2901   123.6133    0.3569      2.5291      1.0272      2.2215      0.0         1.0         0.9999      
2927.4      2940.4899   121.8086    0.3548      2.5357      1.0433      2.2312      0.0018      0.9955      1.0         
2927.6      2940.6897   120.4078    0.3512      2.5604      1.0587      2.2508      0.01        0.9752      0.9998      
2927.8      2940.8894   121.3352    0.348       2.5738      1.0586      2.2691      0.0218      0.9454      0.9999      
2928.0      2941.0893   127.862     0.3487      2.5731      1.0436      2.2681      0.0308      0.9229      1.0         
2928.2      2941.289    134.0424    0.3507      2.5729      1.0382      2.2536      0.0292      0.927       1.0         
2928.4      2941.4888   135.8935    0.3504      2.5732      1.0453      2.24        0.0278      0.9306      0.9994      
2928.6      2941.6886   135.9602    0.3484      2.576       1.041       2.2325      0.0343      0.9141      1.0         
2928.8      2941.8884   133.8457    0.3474      2.5809      1.0467      2.231       0.036       0.91        1.0         
2929.0      2942.0882   130.8372    0.3487      2.5802      1.0594      2.2285      0.0293      0.9267      0.9984      
2929.2      2942.288    128.8367    0.351       2.5576      1.0681      2.2283      0.0274      0.9314      1.0         
2929.4      2942.4878   126.3064    0.351       2.5489      1.0738      2.2281      0.0293      0.9271      1.0         
2929.6      2942.6876   127.8101    0.3494      2.5591      1.0452      2.223       0.0318      0.9203      0.9959      
2929.8      2942.8874   132.2539    0.3481      2.5581      1.0141      2.2105      0.0532      0.8666      1.0         
2930.0      2943.0871   131.1608    0.3478      2.5492      1.0224      2.1947      0.1016      0.7471      0.9804      
2930.2      2943.2869   126.1893    0.3487      2.5494      1.0504      2.1904      0.1466      0.6323      0.8808      
2930.4      2943.4867   124.8206    0.3493      2.5684      1.0728      2.2053      0.1526      0.6132      0.8512      
2930.6      2943.6865   125.5794    0.349       2.5699      1.0785      2.2195      0.1264      0.6814      0.9365      
2930.8      2943.8863   123.3614    0.35        2.5717      1.0588      2.2179      0.1118      0.7214      1.0         
2931.0      2944.0861   121.9446    0.3519      2.5419      1.0493      2.2067      0.1193      0.7015      1.0         
2931.2      2944.2859   126.6359    0.3523      2.5089      1.0421      2.1928      0.1125      0.7184      0.9982      
2931.4      2944.4857   131.3242    0.3522      2.5005      1.0397      2.1918      0.0744      0.8144      1.0         
2931.6      2944.6855   132.7726    0.351       2.5115      1.013       2.203       0.0432      0.8914      0.9995      
2931.8      2944.8853   134.3428    0.3484      2.5259      0.9619      2.2072      0.0365      0.9092      0.9992      
2932.0      2945.0851   134.6408    0.3476      2.5501      0.9548      2.2007      0.0378      0.9056      1.0         
2932.2      2945.2848   133.6358    0.3487      2.5589      1.0078      2.1976      0.048       0.8793      1.0         
2932.4      2945.4846   133.5805    0.3489      2.5478      1.0408      2.1953      0.0698      0.8265      0.9984      
2932.6      2945.6844   133.0076    0.3472      2.5375      1.0544      2.1942      0.0873      0.781       1.0         
2932.8      2945.8842   131.2694    0.3454      2.5256      1.0589      2.2065      0.0986      0.7531      1.0         
2933.0      2946.084    132.168     0.3453      2.5174      1.0273      2.2258      0.1116      0.7237      0.987       
2933.2      2946.2838   133.2969    0.3456      2.519       1.0307      2.231       0.124       0.6746      0.9658      
2933.4      2946.4836   132.6264    0.345       2.5364      1.0428      2.2209      0.1448      0.5984      0.9139      
2933.6      2946.6834   136.6819    0.3447      2.5203      1.056       2.2036      0.1659      0.5579      0.8662      
2933.8      2946.8831   144.3398    0.3453      2.4917      1.0433      2.1899      0.1453      0.6312      0.9232      
2934.0      2947.0829   142.4707    0.3461      2.4636      1.0091      2.1943      0.1005      0.7534      1.0         
2934.2      2947.2827   128.2542    0.3463      2.4756      0.9984      2.2118      0.1043      0.7403      0.962       
2934.4      2947.4825   115.5539    0.3434      2.5206      1.0536      2.2333      0.1312      0.6285      0.8667      
2934.6      2947.6823   110.9213    0.3378      2.5734      1.1187      2.2579      0.1245      0.5946      0.8946      
2934.8      2947.8821   113.4883    0.3357      2.6677      1.1228      2.2669      0.1142      0.6116      0.9543      
2935.0      2948.0819   118.6271    0.3399      2.6925      1.1076      2.255       0.1235      0.603       0.934       
2935.2      2948.2817   120.4989    0.3445      2.6603      1.0984      2.242       0.1286      0.6145      0.8643      
2935.4      2948.4815   120.5174    0.3403      2.6486      1.0967      2.2277      0.1349      0.6286      0.7616      
2935.6      2948.6812   120.947     0.3283      2.6559      1.0806      2.2083      0.1583      0.5675      0.648       
2935.8      2948.881    118.5797    0.3204      2.6842      1.0545      2.2101      0.1635      0.5344      0.6655      
2936.0      2949.0808   113.6568    0.3208      2.7023      1.0659      2.2414      0.1201      0.6599      0.8512      
2936.2      2949.2806   110.5525    0.3251      2.688       1.0816      2.2776      0.0571      0.8527      1.0         
2936.4      2949.4804   112.4928    0.3297      2.6506      1.0801      2.2878      0.032       0.9219      1.0         
2936.6      2949.6802   117.2633    0.3332      2.6247      1.0723      2.2722      0.0525      0.8669      0.9943      
