#----------------------------------------------------------------------------
~VERSION INFORMATION
VERS.            2.0                  :CWLS LOG ASCII STANDARD -VERSION 2.0
WRAP.            NO                   :ONE LINE PER DEPTH STEP
#
#--------------------------------------------------------------------
~WELL INFORMATION
#MNEM .UNIT      DATA                 :DESCRIPTION OF MNEMONIC
#----------      ------------         -------------------------------
STRT  .m         2910.0               :START DEPTH
STEP  .m         0.2                  :STEP DEPTH
STOP  .m         3110.0               :STOP DEPTH
NULL  .          -999.25              :NULL VALUE
COMP  .                               :COMPANY
WELL  .                               :WELL
LOC   .                               :LOCATION - AREA
FLD   .                               :FIELD
CTRY  .                               :COUNTRY
DATE  .                               :WELL DATE
UWI   .                               :UWI
ZSTK  .          TVDss                :Z-STICK
XWELL .m         	              :X POS
YWELL .m         	              :Y POS
EDF   .          14.0                 :DERRICK FLOOR ELEVATION
#
#----------------------------------------------------------------------------
~CURVE INFORMATION
#MNEM.UNIT                                  : CURVE DESCRIPTION
#----------                                 -------------------------------
DEPT        .m                              : 1      DEPTH
MD          .m                              : 2      Depth
GR          .API                            : 3      GR
CALIPER     .m                              : 4      Cal
VP          .km/s                           : 5      Vp
VS          .km/s                           : 6      Vs
RHO         .g/cm3                          : 7      Rho
Porosidade  .fract                          : 8      Por
Argilosidade.fract                          : 9      Volume
Saturacao   .fract                          : 10     Sat
#
#----------------------------------------------------------------------------
~A          MD          GR          CALIPER     VP          VS          RHO         Porosidade  Argilosidade Saturacao   
# ...
2936.8      2949.88     121.9148    0.3346      2.6057      1.0608      2.2444      0.0924      0.7703      1.0         
2937.0      2950.0798   127.4878    0.3346      2.575       1.0563      2.2178      0.1266      0.6834      0.9389      
2937.2      2950.2796   130.5888    0.3344      2.5544      1.0636      2.2053      0.1505      0.6184      0.8557      
2937.4      2950.4794   128.1586    0.3343      2.5442      1.0723      2.2079      0.1451      0.6327      0.8893      
2937.6      2950.6792   128.42      0.3355      2.5389      1.0504      2.2193      0.1032      0.7417      0.9813      
2937.8      2950.8789   131.6698    0.3377      2.5292      1.0068      2.2208      0.0708      0.8233      1.0         
2938.0      2951.0787   134.4241    0.3389      2.5244      0.9824      2.2093      0.0801      0.7994      0.9974      
2938.2      2951.2785   137.3136    0.3383      2.5206      0.9801      2.2009      0.0934      0.7666      1.0         
2938.4      2951.4783   136.8148    0.3361      2.5245      0.9735      2.2006      0.0788      0.803       1.0         
2938.6      2951.6781   133.5771    0.3351      2.5317      0.9801      2.1956      0.0671      0.8322      1.0         
2938.8      2951.8779   135.994     0.3375      2.5252      1.012       2.1817      0.0899      0.7755      0.9992      
2939.0      2952.0777   142.1233    0.3404      2.5075      1.015       2.1649      0.1247      0.6884      0.985       
2939.2      2952.2775   146.4421    0.3399      2.4975      1.0314      2.1511      0.1309      0.6726      0.9801      
2939.4      2952.4773   147.0746    0.3391      2.5007      1.0593      2.1416      0.1159      0.7102      0.9971      
2939.6      2952.677    145.3743    0.341       2.5015      1.0546      2.1324      0.1131      0.7173      1.0         
2939.8      2952.8768   140.2527    0.3423      2.4972      1.0684      2.1301      0.1314      0.6715      0.9639      
2940.0      2953.0766   131.3903    0.3409      2.4973      1.0662      2.1332      0.1591      0.6022      0.8627      
2940.2      2953.2764   125.6122    0.3401      2.5184      1.0564      2.1379      0.1885      0.5288      0.7625      
2940.4      2953.4762   125.5792    0.3388      2.5467      1.0436      2.1474      0.2033      0.4917      0.7114      
2940.6      2953.676    129.6145    0.3372      2.5619      1.0317      2.1619      0.1889      0.5278      0.7321      
2940.8      2953.8758   136.757     0.3379      2.5579      1.0254      2.1727      0.1595      0.6014      0.8099      
2941.0      2954.0756   142.2187    0.3391      2.5187      1.0278      2.1625      0.1382      0.6545      0.8699      
2941.2      2954.2754   139.9066    0.34        2.5118      1.0635      2.149       0.1121      0.7197      0.886       
2941.4      2954.4751   133.3868    0.3392      2.5419      1.1476      2.1615      0.0799      0.8003      0.8699      
2941.6      2954.6749   130.0041    0.33        2.573       1.1921      2.1945      0.071       0.8225      0.799       
2941.8      2954.8747   129.7012    0.3172      2.603       1.1745      2.2055      0.0904      0.7739      0.6971      
2942.0      2955.0745   131.0842    0.3117      2.6223      1.1498      2.1902      0.1233      0.6919      0.6115      
2942.2      2955.2743   130.6096    0.3111      2.5971      1.0742      2.1733      0.1564      0.6088      0.5571      
2942.4      2955.4741   129.0937    0.3104      2.5679      0.9994      2.1702      0.1785      0.5538      0.5607      
2942.6      2955.6739   129.2351    0.3102      2.5303      1.0214      2.1727      0.1818      0.5459      0.6149      
2942.8      2955.8737   128.2186    0.311       2.5242      1.0565      2.1716      0.1726      0.5676      0.6666      
2943.0      2956.0734   126.6589    0.3136      2.5439      1.0547      2.1741      0.1648      0.5891      0.6983      
2943.2      2956.2732   126.0246    0.3154      2.5587      1.0732      2.1868      0.1644      0.5883      0.7291      
2943.4      2956.473    124.9488    0.3155      2.5501      1.1119      2.1981      0.165       0.5715      0.7609      
2943.6      2956.6728   124.7122    0.3188      2.5808      1.1038      2.2047      0.1594      0.5786      0.7916      
2943.8      2956.8726   126.395     0.3268      2.6072      1.0877      2.211       0.1446      0.629       0.841       
2944.0      2957.0724   129.5537    0.3334      2.594       1.0919      2.2004      0.1345      0.6649      0.8902      
2944.2      2957.2722   133.0858    0.3379      2.5775      1.1006      2.1803      0.1424      0.6439      0.8828      
2944.4      2957.472    133.0459    0.342       2.5821      1.0732      2.1826      0.1517      0.6206      0.856       
2944.6      2957.6718   129.0118    0.3428      2.5715      1.0601      2.2004      0.1445      0.6392      0.8789      
2944.8      2957.8716   126.591     0.3423      2.5894      1.0599      2.2043      0.1351      0.6619      0.9177      
2945.0      2958.0713   130.9563    0.3447      2.6108      1.0514      2.1955      0.1325      0.6691      0.9342      
2945.2      2958.2711   138.0932    0.3463      2.5932      1.0262      2.1794      0.1251      0.6873      0.9662      
2945.4      2958.4709   140.1186    0.3444      2.5553      1.0071      2.1592      0.1185      0.7034      0.9736      
2945.6      2958.6707   135.7278    0.3452      2.5416      1.0235      2.1431      0.1287      0.6793      0.8945      
2945.8      2958.8705   132.7623    0.3516      2.5309      1.0856      2.1346      0.1517      0.6197      0.7981      
2946.0      2959.0703   137.8763    0.3484      2.559       1.0953      2.1448      0.1636      0.5915      0.75        
2946.2      2959.27     146.2537    0.3315      2.5729      1.0783      2.1773      0.1572      0.6094      0.7202      
2946.4      2959.4698   147.9895    0.3169      2.6034      1.0743      2.211       0.1472      0.6166      0.7119      
2946.6      2959.6697   142.0245    0.3143      2.636       1.0773      2.2199      0.1462      0.6054      0.7296      
2946.8      2959.8694   134.9772    0.3164      2.6232      1.0699      2.2129      0.1417      0.6314      0.7404      
2947.0      2960.0692   132.7213    0.3205      2.6135      1.0361      2.2154      0.1248      0.6902      0.7626      
2947.2      2960.269    132.5732    0.3252      2.6202      1.0177      2.2257      0.1117      0.7204      0.8361      
2947.4      2960.4688   128.3007    0.3297      2.6233      1.0255      2.2205      0.1238      0.6894      0.8792      
2947.6      2960.6686   124.1964    0.3368      2.6062      1.0276      2.1791      0.1765      0.5598      0.7937      
2947.8      2960.8684   125.6444    0.343       2.5748      1.0418      2.1136      0.2536      0.3658      0.63        
2948.0      2961.0682   131.2527    0.3425      2.5551      1.0578      2.0762      0.2976      0.256       0.549       
2948.2      2961.2679   136.5702    0.3407      2.5564      1.0652      2.0878      0.2794      0.3019      0.5756      
2948.4      2961.4677   137.8513    0.3427      2.5845      1.0861      2.1247      0.2349      0.4124      0.6417      
2948.6      2961.6675   136.4809    0.3457      2.5916      1.0951      2.14        0.2037      0.4907      0.7075      
2948.8      2961.8673   134.9418    0.3466      2.5959      1.0821      2.1401      0.1724      0.5692      0.7928      
2949.0      2962.0671   133.6648    0.346       2.599       1.0         2.1574      0.1264      0.6839      0.9107      
2949.2      2962.2669   133.6054    0.3431      2.5994      0.9595      2.1737      0.0972      0.757       1.0         
2949.4      2962.4667   131.0857    0.3416      2.5691      0.9676      2.1567      0.1151      0.7124      0.9836      
2949.6      2962.6665   126.8582    0.3459      2.5378      1.0356      2.1377      0.1538      0.6156      0.8451      
2949.8      2962.8663   125.0359    0.3489      2.5387      1.1034      2.1612      0.1514      0.6215      0.7813      
2950.0      2963.066    123.8563    0.3449      2.5647      1.1139      2.2077      0.1179      0.7053      0.8443      
