#----------------------------------------------------------------------------
~VERSION INFORMATION
VERS.            2.0                  :CWLS LOG ASCII STANDARD -VERSION 2.0
WRAP.            NO                   :ONE LINE PER DEPTH STEP
#
#--------------------------------------------------------------------
~WELL INFORMATION
#MNEM .UNIT      DATA                 :DESCRIPTION OF MNEMONIC
#----------      ------------         -------------------------------
STRT  .m         2796.1109            :START DEPTH
STEP  .m         0.2                  :STEP DEPTH
STOP  .m         3026.1109            :STOP DEPTH
NULL  .          -999.25              :NULL VALUE
COMP  .          	              :COMPANY
WELL  .                               :WELL
LOC   .                               :LOCATION - AREA
FLD   .                               :FIELD
CTRY  .                               :COUNTRY
DATE  .                               :WELL DATE
UWI   .          	              :UWI
ZSTK  .          TVDss                :Z-STICK
XWELL .m                              :X POS
YWELL .m                              :Y POS
EDF   .          30.0                 :DERRICK FLOOR ELEVATION
#
#----------------------------------------------------------------------------
~CURVE INFORMATION
#MNEM.UNIT                                  : CURVE DESCRIPTION
#----------                                 -------------------------------
DEPT        .m                              : 1      DEPTH
MD          .m                              : 2      Depth
Depth_TVDkb .m                              : 3      Depth
COTA        .m                              : 4      Depth
GR          .API                            : 5      GR
CALIPER     .m                              : 6      Cal
VP          .km/s                           : 7      Vp
VS          .km/s                           : 8      Vs
RHO         .g/cm3                          : 9      Rho
Porosidade  .fract                          : 10     Por
Argilosidade.fract                          : 11     Volume
Saturacao   .fract                          : 12     Sat
#
#----------------------------------------------------------------------------
~A          MD          Depth_TVDkb COTA        GR          CALIPER     VP          VS          RHO         Porosidade  Argilosidade Saturacao   
# ...
2930.5109   2976.5448   2960.5109   -2946.5448  121.3573    0.3184      2.4556      1.1077      2.1727      0.155       0.5758      0.2211      
2930.7109   2976.7251   2960.7109   -2946.7251  127.965     0.3185      2.4335      1.0827      2.1773      0.1335      0.6683      0.2084      
2930.9109   2976.9054   2960.9109   -2946.9054  123.7456    0.3185      2.3924      1.0661      2.1602      0.1463      0.6186      0.201       
2931.1109   2977.0857   2961.1109   -2947.0857  112.6248    0.319       2.3667      1.057       2.1339      0.2409      0.234       0.1972      
2931.3109   2977.266    2961.3109   -2947.266   105.3714    0.3196      2.3583      1.0567      2.1476      0.2679      0.0993      0.1963      
2931.5109   2977.4462   2961.5109   -2947.4462  95.8848     0.3201      2.3558      1.0646      2.1724      0.2707      0.0687      0.1961      
2931.7109   2977.6265   2961.7109   -2947.6265  102.1073    0.3206      2.3574      1.0819      2.1802      0.259       0.0963      0.1911      
2931.9109   2977.8067   2961.9109   -2947.8067  112.116     0.3212      2.3652      1.1021      2.1954      0.2065      0.2458      0.1679      
2932.1109   2977.9869   2962.1109   -2947.9869  111.8193    0.3215      2.3776      1.1173      2.2097      0.1902      0.3333      0.1514      
2932.3109   2978.1671   2962.3109   -2948.1671  107.3575    0.3214      2.3915      1.1232      2.2036      0.1862      0.3846      0.1396      
2932.5109   2978.3472   2962.5109   -2948.3472  104.978     0.3213      2.3949      1.1236      2.1921      0.1871      0.3885      0.1375      
2932.7109   2978.5274   2962.7109   -2948.5274  100.2812    0.3211      2.391       1.1218      2.1909      0.1942      0.3719      0.1372      
2932.9109   2978.7076   2962.9109   -2948.7076  100.1183    0.321       2.3811      1.1178      2.1876      0.2076      0.321       0.1411      
2933.1109   2978.8877   2963.1109   -2948.8877  100.8801    0.321       2.3748      1.1127      2.1848      0.2287      0.2163      0.1541      
2933.3109   2979.0678   2963.3109   -2949.0678  105.9842    0.3212      2.3701      1.1073      2.1858      0.2269      0.2285      0.1502      
2933.5109   2979.2479   2963.5109   -2949.2479  109.9039    0.3215      2.3615      1.1016      2.184       0.2128      0.3107      0.1328      
2933.7109   2979.428    2963.7109   -2949.428   109.991     0.3215      2.3494      1.0961      2.1766      0.216       0.3033      0.1331      
2933.9109   2979.608    2963.9109   -2949.608   114.0571    0.3213      2.3409      1.0945      2.1725      0.2304      0.252       0.1403      
2934.1109   2979.7881   2964.1109   -2949.7881  110.8376    0.3214      2.3394      1.0972      2.176       0.2235      0.2585      0.1391      
2934.3109   2979.9682   2964.3109   -2949.9682  106.9473    0.3216      2.3424      1.1064      2.1939      0.2013      0.291       0.1337      
2934.5109   2980.1482   2964.5109   -2950.1482  108.8379    0.3216      2.354       1.1136      2.2058      0.2037      0.2857      0.1339      
2934.7109   2980.3282   2964.7109   -2950.3282  107.2616    0.3216      2.3704      1.1122      2.1995      0.2212      0.2517      0.1371      
2934.9109   2980.5082   2964.9109   -2950.5082  105.1694    0.3216      2.3745      1.1006      2.1782      0.2517      0.1777      0.1424      
2935.1109   2980.6882   2965.1109   -2950.6882  107.0095    0.3216      2.3666      1.0856      2.156       0.2888      0.0775      0.1488      
2935.3109   2980.8682   2965.3109   -2950.8682  104.5597    0.3216      2.34        1.08        2.1426      0.2857      0.0787      0.1494      
2935.5109   2981.0481   2965.5109   -2951.0481  98.5352     0.3215      2.3263      1.0829      2.1498      0.269       0.1056      0.1494      
2935.7109   2981.228    2965.7109   -2951.228   94.07       0.3218      2.3322      1.094       2.182       0.2517      0.1474      0.1442      
2935.9109   2981.408    2965.9109   -2951.408   93.4467     0.3223      2.3557      1.1054      2.1956      0.2368      0.1916      0.134       
2936.1109   2981.5879   2966.1109   -2951.5879  96.168      0.3226      2.3668      1.1134      2.1887      0.2403      0.1831      0.1381      
2936.3109   2981.7677   2966.3109   -2951.7677  97.6629     0.3228      2.362       1.1194      2.1788      0.2487      0.1595      0.1486      
2936.5109   2981.9476   2966.5109   -2951.9476  101.7987    0.3233      2.3539      1.1247      2.1786      0.2507      0.149       0.1542      
2936.7109   2982.1275   2966.7109   -2952.1275  100.5079    0.3237      2.3554      1.1269      2.1806      0.252       0.1402      0.1585      
2936.9109   2982.3074   2966.9109   -2952.3074  105.8237    0.3239      2.366       1.1256      2.1797      0.2602      0.1151      0.1631      
2937.1109   2982.4872   2967.1109   -2952.4872  106.4804    0.3239      2.3814      1.1198      2.1739      0.2706      0.0891      0.1678      
2937.3109   2982.667    2967.3109   -2952.667   104.1701    0.3238      2.384       1.1112      2.1681      0.2703      0.0983      0.1738      
2937.5109   2982.8469   2967.5109   -2952.8469  102.5735    0.3239      2.3742      1.1013      2.1635      0.2689      0.1224      0.1788      
2937.7109   2983.0273   2967.7109   -2953.0273  100.51      0.3238      2.357       1.0911      2.1602      0.2633      0.1587      0.1797      
2937.9109   2983.208    2967.9109   -2953.208   104.0055    0.3237      2.3474      1.0831      2.1565      0.2573      0.1888      0.1804      
2938.1109   2983.3888   2968.1109   -2953.3888  116.4188    0.3235      2.3494      1.0785      2.1408      0.2775      0.1838      0.1879      
2938.3109   2983.5693   2968.3109   -2953.5693  126.0935    0.3234      2.3694      1.0777      2.1039      0.3027      0.1772      0.1963      
2938.5109   2983.7492   2968.5109   -2953.7492  134.0481    0.3233      2.4082      1.0789      2.0885      0.2787      0.2364      0.178       
2938.7109   2983.9288   2968.7109   -2953.9288  124.4835    0.323       2.4337      1.0828      2.1036      0.2511      0.3044      0.157       
2938.9109   2984.1085   2968.9109   -2954.1085  111.3666    0.3228      2.4416      1.0883      2.1411      0.2525      0.2455      0.1587      
2939.1109   2984.2883   2969.1109   -2954.2883  104.0413    0.3227      2.4617      1.0985      2.1573      0.254       0.183       0.1605      
2939.3109   2984.4679   2969.3109   -2954.4679  99.8426     0.3226      2.4806      1.1189      2.1621      0.2441      0.2104      0.1489      
2939.5109   2984.6476   2969.5109   -2954.6476  102.8286    0.3224      2.4753      1.1451      2.1667      0.2344      0.2372      0.1376      
2939.7109   2984.8272   2969.7109   -2954.8272  100.2296    0.3221      2.4649      1.1674      2.1708      0.2447      0.1834      0.1459      
2939.9109   2985.0069   2969.9109   -2955.0069  97.9362     0.3218      2.4593      1.1805      2.1742      0.2539      0.135       0.1534      
2940.1109   2985.1865   2970.1109   -2955.1865  98.3446     0.3216      2.4515      1.1891      2.18        0.2396      0.1741      0.1443      
2940.3109   2985.3661   2970.3109   -2955.3661  99.2222     0.3213      2.4458      1.1973      2.1917      0.2279      0.2063      0.1368      
2940.5109   2985.5457   2970.5109   -2955.5457  99.9783     0.3208      2.4457      1.2076      2.2045      0.2346      0.1661      0.151       
2940.7109   2985.7253   2970.7109   -2955.7253  101.5651    0.3204      2.4503      1.2196      2.2052      0.2395      0.1361      0.1619      
2940.9109   2985.9048   2970.9109   -2955.9048  101.0238    0.3202      2.461       1.2308      2.2028      0.2182      0.2115      0.154       
2941.1109   2986.0844   2971.1109   -2956.0844  101.482     0.3198      2.4752      1.2347      2.2079      0.2033      0.2648      0.1484      
2941.3109   2986.264    2971.3109   -2956.264   100.8476    0.3193      2.4804      1.2283      2.2104      0.2163      0.2416      0.1525      
2941.5109   2986.4435   2971.5109   -2956.4435  106.4039    0.3187      2.4748      1.2032      2.1986      0.2345      0.2076      0.1579      
