#----------------------------------------------------------------------------
~VERSION INFORMATION
VERS.            2.0                  :CWLS LOG ASCII STANDARD -VERSION 2.0
WRAP.            NO                   :ONE LINE PER DEPTH STEP
#
#--------------------------------------------------------------------
~WELL INFORMATION
#MNEM .UNIT      DATA                 :DESCRIPTION OF MNEMONIC
#----------      ------------         -------------------------------
STRT  .m         2796.1109            :START DEPTH
STEP  .m         0.2                  :STEP DEPTH
STOP  .m         3026.1109            :STOP DEPTH
NULL  .          -999.25              :NULL VALUE
COMP  .          	              :COMPANY
WELL  .                               :WELL
LOC   .                               :LOCATION - AREA
FLD   .                               :FIELD
CTRY  .                               :COUNTRY
DATE  .                               :WELL DATE
UWI   .          	              :UWI
ZSTK  .          TVDss                :Z-STICK
XWELL .m                              :X POS
YWELL .m                              :Y POS
EDF   .          30.0                 :DERRICK FLOOR ELEVATION
#
#----------------------------------------------------------------------------
~CURVE INFORMATION
#MNEM.UNIT                                  : CURVE DESCRIPTION
#----------                                 -------------------------------
DEPT        .m                              : 1      DEPTH
MD          .m                              : 2      Depth
Depth_TVDkb .m                              : 3      Depth
COTA        .m                              : 4      Depth
GR          .API                            : 5      GR
CALIPER     .m                              : 6      Cal
VP          .km/s                           : 7      Vp
VS          .km/s                           : 8      Vs
RHO         .g/cm3                          : 9      Rho
Porosidade  .fract                          : 10     Por
Argilosidade.fract                          : 11     Volume
Saturacao   .fract                          : 12     Sat
#
#----------------------------------------------------------------------------
~A          MD          Depth_TVDkb COTA        GR          CALIPER     VP          VS          RHO         Porosidade  Argilosidade Saturacao   
# ...
2885.7109   2935.5025   2915.7109   -2905.5025  94.912      0.3189      2.3679      1.1084      2.1913      0.2243      0.2251      0.099       
2885.9109   2935.6907   2915.9109   -2905.6907  97.9793     0.3196      2.4184      1.1244      2.1916      0.2266      0.1863      0.1182      
2886.1109   2935.8789   2916.1109   -2905.8789  97.5946     0.3209      2.4607      1.14        2.2038      0.2313      0.1532      0.1328      
2886.3109   2936.0669   2916.3109   -2906.0669  96.5464     0.3225      2.4717      1.1456      2.2103      0.2402      0.1247      0.1442      
2886.5109   2936.255    2916.5109   -2906.255   95.9761     0.3234      2.4608      1.1435      2.1994      0.2447      0.114       0.1461      
2886.7109   2936.443    2916.7109   -2906.443   97.802      0.3235      2.4233      1.1339      2.1864      0.2469      0.1095      0.1461      
2886.9109   2936.631    2916.9109   -2906.631   94.0162     0.3234      2.39        1.1215      2.1949      0.2427      0.1221      0.1457      
2887.1109   2936.8188   2917.1109   -2906.8188  94.9271     0.3234      2.369       1.1097      2.2122      0.224       0.1775      0.1439      
2887.3109   2937.0067   2917.3109   -2907.0067  95.7318     0.3231      2.3447      1.1017      2.2111      0.2271      0.1685      0.1458      
2887.5109   2937.1945   2917.5109   -2907.1945  91.6504     0.3226      2.338       1.1004      2.1974      0.2558      0.0849      0.1552      
2887.7109   2937.3823   2917.7109   -2907.3823  93.4271     0.3221      2.3497      1.1018      2.1947      0.2561      0.0868      0.1538      
2887.9109   2937.5699   2917.9109   -2907.5699  94.4002     0.3215      2.3762      1.103       2.199       0.2345      0.1609      0.1408      
2888.1109   2937.7575   2918.1109   -2907.7575  93.4342     0.3211      2.3868      1.1016      2.1934      0.2334      0.1774      0.1398      
2888.3109   2937.9452   2918.3109   -2907.9452  99.1254     0.321       2.3926      1.0961      2.1756      0.2449      0.1785      0.1452      
2888.5109   2938.1327   2918.5109   -2908.1327  99.4307     0.3209      2.4072      1.0841      2.1714      0.2415      0.2133      0.1375      
2888.7109   2938.3201   2918.7109   -2908.3201  91.7132     0.3208      2.4184      1.0611      2.1665      0.2214      0.3312      0.1063      
2888.9109   2938.5076   2918.9109   -2908.5076  92.6431     0.3208      2.4184      1.0334      2.1525      0.2241      0.32        0.1052      
2889.1109   2938.695    2919.1109   -2908.695   90.3028     0.3208      2.4111      1.0122      2.1531      0.2493      0.1951      0.1218      
2889.3109   2938.8824   2919.3109   -2908.8824  88.8901     0.3208      2.3873      1.0039      2.1592      0.2654      0.1315      0.128       
2889.5109   2939.0696   2919.5109   -2909.0696  88.135      0.3207      2.3598      1.0056      2.1575      0.2763      0.0971      0.1304      
2889.7109   2939.2568   2919.7109   -2909.2568  85.3264     0.3208      2.356       1.0157      2.1573      0.2854      0.0531      0.1334      
2889.9109   2939.4441   2919.9109   -2909.4441  88.3657     0.3211      2.3697      1.0266      2.1618      0.2927      0.006       0.1365      
2890.1109   2939.6312   2920.1109   -2909.6312  90.1872     0.321       2.4124      1.0311      2.1657      0.2911      0.0118      0.1336      
2890.3109   2939.8182   2920.3109   -2909.8182  93.4454     0.3207      2.4479      1.0345      2.1671      0.2794      0.063       0.1205      
2890.5109   2940.0053   2920.5109   -2910.0053  92.4841     0.3207      2.4404      1.0443      2.1685      0.2582      0.1317      0.1073      
2890.7109   2940.1923   2920.7109   -2910.1923  94.7072     0.3212      2.3972      1.0629      2.1779      0.2264      0.2151      0.0946      
2890.9109   2940.3792   2920.9109   -2910.3792  95.3974     0.3217      2.39        1.0831      2.1944      0.2197      0.2325      0.0932      
2891.1109   2940.5661   2921.1109   -2910.5661  97.7672     0.3224      2.4213      1.1028      2.1978      0.2182      0.2367      0.0935      
2891.3109   2940.7529   2921.3109   -2910.7529  100.4605    0.3233      2.4494      1.1214      2.2011      0.2086      0.2493      0.0941      
2891.5109   2940.9397   2921.5109   -2910.9397  97.6106     0.324       2.4562      1.1388      2.2174      0.1892      0.2687      0.0951      
2891.7109   2941.1264   2921.7109   -2911.1264  93.8531     0.3247      2.4631      1.1521      2.2313      0.1893      0.2636      0.0971      
2891.9109   2941.313    2921.9109   -2911.313   98.0097     0.3253      2.473       1.1635      2.2305      0.1974      0.2442      0.1003      
2892.1109   2941.4997   2922.1109   -2911.4997  103.2537    0.3261      2.4786      1.1682      2.2226      0.2027      0.2463      0.1025      
2892.3109   2941.6863   2922.3109   -2911.6863  105.7285    0.3274      2.7547      1.247       2.222       0.2071      0.2573      0.1045      
2892.5109   2941.8728   2922.5109   -2911.8728  100.4831    0.3285      3.0729      1.3473      2.2287      0.2151      0.2488      0.1092      
2892.7109   2942.0592   2922.7109   -2912.0592  96.953      0.3294      3.2234      1.4028      2.2389      0.2266      0.21        0.1183      
2892.9109   2942.2456   2922.9109   -2912.2456  96.6203     0.3305      3.3878      1.4635      2.2507      0.2368      0.1269      0.1354      
2893.1109   2942.4321   2923.1109   -2912.4321  95.886      0.3315      3.5488      1.5238      2.2638      0.2451      0.01        0.157       
2893.3109   2942.6184   2923.3109   -2912.6184  91.6539     0.3312      3.6959      1.5803      2.2758      0.1754      0.1182      0.1279      
2893.5109   2942.8046   2923.5109   -2912.8046  83.3133     0.3295      3.818       1.6297      2.2838      0.0138      0.3902      0.0568      
2893.7109   2942.9907   2923.7109   -2912.9907  81.5512     0.3273      3.9054      1.6684      2.2844      0.0798      0.2977      0.0777      
2893.9109   2943.177    2923.9109   -2913.177   82.6027     0.3247      3.9483      1.6938      2.2785      0.2567      0.0417      0.1372      
2894.1109   2943.3637   2924.1109   -2913.3637  88.4477     0.3225      3.9461      1.7003      2.264       0.2699      0.0423      0.1351      
2894.3109   2943.5505   2924.3109   -2913.5505  92.6075     0.3205      3.9024      1.6943      2.2442      0.2684      0.0907      0.1204      
2894.5109   2943.7373   2924.5109   -2913.7373  93.6907     0.3181      3.8155      1.67        2.2223      0.2707      0.1029      0.1209      
2894.7109   2943.924    2924.7109   -2913.924   89.6809     0.3159      3.6958      1.6315      2.2014      0.2758      0.1089      0.124       
2894.9109   2944.1102   2924.9109   -2914.1102  92.4939     0.3156      3.5532      1.5817      2.1831      0.2751      0.1266      0.1224      
2895.1109   2944.2959   2925.1109   -2914.2959  89.6566     0.3163      3.3976      1.524       2.1673      0.2732      0.148       0.1188      
2895.3109   2944.4817   2925.3109   -2914.4817  91.5441     0.3168      3.2382      1.4627      2.1558      0.2814      0.1293      0.1241      
2895.5109   2944.6675   2925.5109   -2914.6675  91.5154     0.3173      3.0837      1.4014      2.1518      0.2974      0.0914      0.1346      
2895.7109   2944.8532   2925.7109   -2914.8532  93.1082     0.3181      2.94        1.3429      2.1526      0.2762      0.1282      0.1312      
2895.9109   2945.0387   2925.9109   -2915.0387  101.83      0.3188      2.8123      1.2892      2.1563      0.2357      0.1995      0.1239      
2896.1109   2945.2243   2926.1109   -2915.2243  111.2288    0.3193      2.7047      1.2425      2.1614      0.2523      0.1608      0.1301      
2896.3109   2945.4099   2926.3109   -2915.4099  110.9658    0.3199      2.618       1.2045      2.1675      0.2848      0.0865      0.1416      
2896.5109   2945.5953   2926.5109   -2915.5953  102.9539    0.3204      2.5528      1.1758      2.1742      0.2629      0.1295      0.1376      
2896.7109   2945.7807   2926.7109   -2915.7807  93.3947     0.3208      2.5082      1.156       2.181       0.2234      0.2079      0.1275      
