#----------------------------------------------------------------------------
~VERSION INFORMATION
VERS.            2.0                  :CWLS LOG ASCII STANDARD -VERSION 2.0
WRAP.            NO                   :ONE LINE PER DEPTH STEP
#
#--------------------------------------------------------------------
~WELL INFORMATION
#MNEM .UNIT      DATA                 :DESCRIPTION OF MNEMONIC
#----------      ------------         -------------------------------
STRT  .m         2910.0               :START DEPTH
STEP  .m         0.2                  :STEP DEPTH
STOP  .m         3110.0               :STOP DEPTH
NULL  .          -999.25              :NULL VALUE
COMP  .                               :COMPANY
WELL  .                               :WELL
LOC   .                               :LOCATION - AREA
FLD   .                               :FIELD
CTRY  .                               :COUNTRY
DATE  .                               :WELL DATE
UWI   .                               :UWI
ZSTK  .          TVDss                :Z-STICK
XWELL .m         	              :X POS
YWELL .m         	              :Y POS
EDF   .          14.0                 :DERRICK FLOOR ELEVATION
#
#----------------------------------------------------------------------------
~CURVE INFORMATION
#MNEM.UNIT                                  : CURVE DESCRIPTION
#----------                                 -------------------------------
DEPT        .m                              : 1      DEPTH
MD          .m                              : 2      Depth
GR          .API                            : 3      GR
CALIPER     .m                              : 4      Cal
VP          .km/s                           : 5      Vp
VS          .km/s                           : 6      Vs
RHO         .g/cm3                          : 7      Rho
Porosidade  .fract                          : 8      Por
Argilosidade.fract                          : 9      Volume
Saturacao   .fract                          : 10     Sat
#
#----------------------------------------------------------------------------
~A          MD          GR          CALIPER     VP          VS          RHO         Porosidade  Argilosidade Saturacao   
# ...
2963.6      2976.6516   98.8431     0.3184      2.7183      1.2575      2.223       0.163       0.5013      0.126       
2963.8      2976.8513   100.5948    0.3151      2.735       1.2719      2.2338      0.1468      0.5507      0.1297      
2964.0      2977.0511   103.1604    0.3108      2.7404      1.2871      2.2352      0.159       0.4897      0.1537      
2964.2      2977.2509   104.4161    0.3089      2.7331      1.2958      2.2233      0.185       0.3935      0.1725      
2964.4      2977.4507   104.1535    0.3087      2.7184      1.3064      2.2116      0.2079      0.3169      0.1771      
2964.6      2977.6505   105.7425    0.3087      2.686       1.3071      2.205       0.222       0.2669      0.1776      
2964.8      2977.8503   105.6253    0.3087      2.6805      1.301       2.2027      0.2205      0.2806      0.1689      
2965.0      2978.0501   101.3604    0.3088      2.6983      1.2957      2.2021      0.2082      0.3465      0.1476      
2965.2      2978.2498   97.4949     0.3092      2.6903      1.3051      2.1948      0.205       0.3856      0.1281      
2965.4      2978.4497   94.9116     0.3095      2.6923      1.3134      2.1815      0.217       0.3633      0.1165      
2965.6      2978.6494   92.9404     0.3096      2.6539      1.288       2.1721      0.2366      0.2953      0.1101      
2965.8      2978.8492   90.6009     0.3098      2.6058      1.2785      2.1664      0.2602      0.1989      0.1098      
2966.0      2979.049    88.2096     0.3102      2.5782      1.3019      2.1579      0.2787      0.1325      0.1121      
2966.2      2979.2488   88.6825     0.3103      2.5325      1.2984      2.1484      0.2843      0.1339      0.1132      
2966.4      2979.4486   88.9413     0.3123      2.5046      1.2728      2.1392      0.2888      0.1403      0.1142      
2966.6      2979.6484   86.8167     0.3198      2.465       1.26        2.1282      0.2999      0.1198      0.1143      
2966.8      2979.8481   86.1249     0.3288      2.4238      1.2721      2.1137      0.3137      0.0946      0.1122      
2967.0      2980.0479   90.4981     0.3329      2.4112      1.2663      2.0991      0.3319      0.0505      0.1091      
2967.2      2980.2477   93.7726     0.3333      2.4446      1.253       2.0944      0.3427      0.0016      0.1067      
2967.4      2980.4475   92.9502     0.3322      2.5109      1.2636      2.1178      0.3255      0.0207      0.1067      
2967.6      2980.6473   91.8496     0.3294      2.5992      1.2724      2.1561      0.2889      0.0931      0.1096      
2967.8      2980.8471   90.2934     0.3297      2.6552      1.2837      2.1834      0.2582      0.1543      0.1131      
2968.0      2981.0468   87.9358     0.3371      2.6873      1.3145      2.2023      0.2349      0.2168      0.1155      
2968.2      2981.2466   89.6979     0.3492      2.7384      1.3556      2.2135      0.2017      0.3382      0.1163      
2968.4      2981.4465   93.8678     0.3584      2.8041      1.3894      2.2383      0.1518      0.5099      0.1173      
2968.6      2981.6462   95.4561     0.3605      2.826       1.4222      2.259       0.1233      0.6006      0.1241      
2968.8      2981.846    94.2737     0.3566      2.8542      1.4306      2.2377      0.1515      0.519       0.1388      
2969.0      2982.0458   95.3057     0.3481      2.8749      1.4393      2.2065      0.1904      0.409       0.1528      
2969.2      2982.2456   100.0891    0.3361      2.8405      1.4218      2.2153      0.1759      0.4624      0.1603      
2969.4      2982.4454   106.0259    0.3241      2.8004      1.3995      2.231       0.1436      0.5817      0.1748      
2969.6      2982.6451   110.6992    0.318       2.8017      1.3462      2.217       0.1559      0.5554      0.2095      
2969.8      2982.8449   111.9526    0.3185      2.8026      1.3074      2.1991      0.202       0.3826      0.2474      
2970.0      2983.0447   109.2014    0.3219      2.7595      1.2722      2.1925      0.2451      0.1951      0.2647      
2970.2      2983.2445   107.3513    0.3226      2.7194      1.2778      2.1788      0.271       0.1072      0.2689      
2970.4      2983.4443   107.251     0.3193      2.693       1.2822      2.1569      0.2714      0.171       0.2759      
2970.6      2983.6441   107.3352    0.3177      2.6732      1.2936      2.1453      0.2447      0.3354      0.2827      
2970.8      2983.8439   108.1559    0.3204      2.658       1.2989      2.141       0.2164      0.4606      0.2787      
2971.0      2984.0436   108.2378    0.3209      2.6825      1.287       2.1422      0.2163      0.4582      0.2577      
2971.2      2984.2434   104.3945    0.3179      2.6863      1.2878      2.1516      0.2328      0.3781      0.2238      
2971.4      2984.4432   98.4517     0.315       2.7023      1.3336      2.1644      0.2412      0.2995      0.1951      
2971.6      2984.643    96.0955     0.3132      2.7064      1.384       2.1804      0.2415      0.245       0.185       
2971.8      2984.8428   98.9512     0.3121      2.7257      1.404       2.1944      0.2416      0.2052      0.1886      
2972.0      2985.0426   103.1168    0.3118      2.7488      1.4075      2.2029      0.2397      0.1881      0.1968      
2972.2      2985.2424   104.2964    0.3122      2.7784      1.4031      2.2099      0.2303      0.2109      0.2054      
2972.4      2985.4421   103.9543    0.3135      2.7953      1.3941      2.2167      0.2104      0.2907      0.2081      
2972.6      2985.6419   105.7639    0.3143      2.7621      1.3908      2.214       0.1871      0.4189      0.2062      
2972.8      2985.8417   108.2871    0.3145      2.6762      1.4063      2.19        0.1816      0.5148      0.2002      
2973.0      2986.0415   105.1312    0.3154      2.6184      1.4085      2.1557      0.2         0.5051      0.1749      
2973.2      2986.2413   95.8429     0.319       2.5869      1.3936      2.1477      0.2191      0.4435      0.133       
2973.4      2986.4411   88.2959     0.3254      2.5797      1.4346      2.1666      0.2183      0.4063      0.1056      
2973.6      2986.6409   85.5828     0.3299      2.6008      1.4088      2.1865      0.2071      0.3986      0.1006      
2973.8      2986.8406   85.8894     0.3299      2.6337      1.3233      2.2068      0.1879      0.4278      0.1004      
2974.0      2987.0404   88.8473     0.3288      2.7065      1.3273      2.2333      0.1557      0.5086      0.0978      
2974.2      2987.2402   91.8006     0.3299      2.8047      1.4149      2.2555      0.128       0.58        0.0959      
2974.4      2987.44     94.1289     0.3299      2.8847      1.4898      2.2631      0.1267      0.5631      0.0989      
2974.6      2987.6398   96.4567     0.3244      2.8871      1.5016      2.2567      0.1505      0.4646      0.1068      
2974.8      2987.8395   96.7065     0.317       2.8545      1.5237      2.2385      0.1856      0.3453      0.1145      
2975.0      2988.0394   95.4175     0.313       2.7869      1.6116      2.2184      0.2146      0.2603      0.1212      
2975.2      2988.2392   96.0593     0.3119      2.7863      1.6194      2.2124      0.2234      0.2356      0.1299      
2975.4      2988.4389   97.2273     0.3111      2.8397      1.6335      2.2208      0.2116      0.2691      0.1381      
2975.6      2988.6387   99.4005     0.3105      2.9158      1.6456      2.2326      0.1937      0.3243      0.1402      
2975.8      2988.8385   101.1376    0.3102      3.005       1.6266      2.2383      0.1824      0.3619      0.1371      
2976.0      2989.0383   97.9166     0.3103      3.0528      1.6131      2.2457      0.1692      0.3988      0.1293      
2976.2      2989.238    92.3622     0.3112      3.0138      1.6133      2.2682      0.1484      0.4383      0.1161      
2976.4      2989.4378   87.675      0.3121      2.8714      1.6098      2.2882      0.1405      0.4195      0.1094      
2976.6      2989.6376   85.7851     0.3127      2.7905      1.5691      2.2873      0.1602      0.326       0.1208      
2976.8      2989.8374   86.9932     0.3129      2.7977      1.4952      2.2644      0.1943      0.2221      0.1364      
