#----------------------------------------------------------------------------
~VERSION INFORMATION
VERS.            2.0                  :CWLS LOG ASCII STANDARD -VERSION 2.0
WRAP.            NO                   :ONE LINE PER DEPTH STEP
#
#--------------------------------------------------------------------
~WELL INFORMATION
#MNEM .UNIT      DATA                 :DESCRIPTION OF MNEMONIC
#----------      ------------         -------------------------------
STRT  .m         1761.0               :START DEPTH
STEP  .m         0.2                  :STEP DEPTH
STOP  .m         3172.6718            :STOP DEPTH
NULL  .          -999.25              :NULL VALUE
COMP  .          Petrobras            :COMPANY
WELL  .          RO82                 :WELL
LOC   .                               :LOCATION - AREA
FLD   .                               :FIELD
CTRY  .                               :COUNTRY
DATE  .                               :WELL DATE
UWI   .          742810331400         :UWI
ZSTK  .          TVDss                :Z-STICK
XWELL .m         421843.59            :X POS
YWELL .m         7571342              :Y POS
EDF   .          25.0                 :DERRICK FLOOR ELEVATION
#
#----------------------------------------------------------------------------
~CURVE INFORMATION
#MNEM.UNIT                                  : CURVE DESCRIPTION
#----------                                 -------------------------------
DEPT        .m                              : 1      DEPTH
Depth_TVDkb .m                              : 2      Depth
Depth_MD    .m                              : 3      Depth
GR          .API                            : 4      GR
CALIPER     .m                              : 5      Cal
VP          .km/s                           : 6      Vp
VS          .km/s                           : 7      Vs
RHO         .g/cm3                          : 8      Rho
Porosidade  .fract                          : 9      Por
Argilosidade.fract                          : 10     Volume
Saturacao   .fract                          : 11     Sat
#
#----------------------------------------------------------------------------
~A          Depth_TVDkb Depth_MD    GR          CALIPER     VP          VS          RHO         Porosidade  Argilosidade Saturacao   
# ...
2944.8      2969.8      2969.8      109.3043    0.3218      2.428       1.2636      2.1031      0.328       0.1503      0.1235      
2945.0      2970.0      2970.0      111.1293    0.3225      2.4167      1.2748      2.0949      0.3098      0.2254      0.119       
2945.2      2970.2      2970.2      110.3361    0.322       2.3938      1.2698      2.0765      0.3378      0.1555      0.1214      
2945.4      2970.4      2970.4      109.047     0.3216      2.373       1.2582      2.0559      0.3658      0.0855      0.1238      
2945.6      2970.6      2970.6      110.1061    0.3208      2.3674      1.2574      2.0527      0.3487      0.1126      0.1261      
2945.8      2970.8      2970.8      111.875     0.3199      2.3737      1.2591      2.0721      0.3317      0.1397      0.1284      
2946.0      2971.0      2971.0      113.1578    0.3191      2.3928      1.2607      2.0967      0.3146      0.1668      0.1307      
2946.2      2971.2      2971.2      114.5465    0.3188      2.4056      1.2614      2.1049      0.3315      0.0834      0.14        
2946.4      2971.4      2971.4      115.3469    0.3185      2.4094      1.2444      2.0948      0.3484      0.0         0.1494      
2946.6      2971.6      2971.6      115.0543    0.3193      2.4284      1.2286      2.0883      0.3506      0.0         0.1529      
2946.8      2971.8      2971.8      114.1756    0.32        2.4466      1.1853      2.1016      0.3529      0.0         0.1565      
2947.0      2972.0      2972.0      114.0137    0.3207      2.442       1.158       2.1192      0.3551      0.0         0.16        
2947.2      2972.2      2972.2      115.5519    0.3215      2.4043      1.1509      2.119       0.3322      0.1133      0.1785      
2947.4      2972.4      2972.4      117.886     0.3223      2.3475      1.1425      2.074       0.3093      0.2266      0.1969      
2947.6      2972.6      2972.6      120.1119    0.3214      2.2847      1.1284      2.0142      0.2765      0.3087      0.2135      
2947.8      2972.8      2972.8      122.9635    0.3206      2.2425      1.1145      1.9607      0.2437      0.3907      0.2302      
2948.0      2973.0      2973.0      124.8061    0.3197      2.2229      1.1031      1.9568      0.2109      0.4727      0.2468      
2948.2      2973.2      2973.2      123.9557    0.3193      2.2228      1.1021      1.9956      0.2492      0.377       0.2686      
2948.4      2973.4      2973.4      123.4068    0.3188      2.2395      1.106       2.0279      0.2874      0.2814      0.2905      
2948.6      2973.6      2973.6      125.6674    0.3187      2.2702      1.111       2.0512      0.2274      0.4316      0.362       
2948.8      2973.8      2973.8      129.6679    0.3186      2.2997      1.1026      2.0656      0.1673      0.5817      0.4335      
2949.0      2974.0      2974.0      131.0259    0.3184      2.3186      1.0943      2.0919      0.1072      0.7319      0.505       
2949.2      2974.2      2974.2      128.5094    0.3188      2.3288      1.0926      2.1343      0.1185      0.7023      0.4745      
2949.4      2974.4      2974.4      122.7867    0.3191      2.3366      1.0935      2.1623      0.1298      0.6728      0.4439      
2949.6      2974.6      2974.6      115.2434    0.3195      2.3256      1.0944      2.1466      0.1944      0.5121      0.3688      
2949.8      2974.8      2974.8      105.8263    0.3199      2.3007      1.0953      2.1171      0.2591      0.3514      0.2937      
2950.0      2975.0      2975.0      98.9844     0.3203      2.2842      1.0961      2.092       0.3237      0.1908      0.2186      
2950.2      2975.2      2975.2      97.6135     0.3204      2.2874      1.0975      2.0648      0.3562      0.0985      0.2029      
2950.4      2975.4      2975.4      97.6834     0.3205      2.2924      1.1009      2.0549      0.3887      0.0063      0.1871      
2950.6      2975.6      2975.6      96.7001     0.3202      2.2983      1.1047      2.0687      0.3856      0.0042      0.1743      
2950.8      2975.8      2975.8      95.2044     0.3198      2.3033      1.1085      2.0762      0.3825      0.0021      0.1616      
2951.0      2976.0      2976.0      94.905      0.3195      2.3088      1.1117      2.073       0.3794      0.0         0.1488      
2951.2      2976.2      2976.2      96.5459     0.3195      2.3125      1.1129      2.084       0.3784      0.0         0.142       
2951.4      2976.4      2976.4      98.8636     0.3195      2.3132      1.1138      2.0882      0.3775      0.0         0.1352      
2951.6      2976.6      2976.6      99.7614     0.3195      2.3149      1.1149      2.0828      0.3722      0.0179      0.1333      
2951.8      2976.8      2976.8      100.2439    0.3195      2.3213      1.1159      2.0844      0.367       0.0358      0.1314      
2952.0      2977.0      2977.0      100.884     0.3195      2.3301      1.1169      2.0891      0.3618      0.0538      0.1295      
2952.2      2977.2      2977.2      101.368     0.3195      2.3417      1.1109      2.0869      0.3715      0.0269      0.1293      
2952.4      2977.4      2977.4      101.5512    0.3195      2.3497      1.108       2.0867      0.3813      0.0         0.1292      
2952.6      2977.6      2977.6      100.9864    0.3201      2.3528      1.1173      2.079       0.3618      0.0643      0.1267      
2952.8      2977.8      2977.8      99.9781     0.3207      2.35        1.122       2.0694      0.3423      0.1285      0.1242      
2953.0      2978.0      2978.0      99.1756     0.3214      2.3369      1.1209      2.0683      0.3229      0.1928      0.1217      
2953.2      2978.2      2978.2      97.8963     0.3214      2.3343      1.1165      2.07        0.2687      0.3284      0.1147      
2953.4      2978.4      2978.4      96.4724     0.3214      2.337       1.1114      2.0723      0.2144      0.4639      0.1077      
2953.6      2978.6      2978.6      95.5497     0.3206      2.3397      1.1079      2.0741      0.208       0.4245      0.1156      
2953.8      2978.8      2978.8      94.1092     0.3199      2.3495      1.1074      2.1032      0.2017      0.3851      0.1235      
2954.0      2979.0      2979.0      94.0998     0.3192      2.3739      1.1127      2.1643      0.1953      0.3456      0.1313      
2954.2      2979.2      2979.2      99.0286     0.3191      2.4035      1.1241      2.2         0.244       0.2673      0.1295      
2954.4      2979.4      2979.4      104.0947    0.3191      2.4283      1.143       2.1737      0.2928      0.189       0.1277      
2954.6      2979.6      2979.6      104.8756    0.3193      2.4576      1.1698      2.1272      0.3275      0.126       0.1271      
2954.8      2979.8      2979.8      104.644     0.3195      2.4475      1.1996      2.0963      0.3623      0.063       0.1266      
2955.0      2980.0      2980.0      104.6712    0.3196      2.4121      1.2231      2.073       0.3971      0.0         0.1261      
2955.2      2980.2      2980.2      103.3167    0.3196      2.4044      1.2298      2.0529      0.3629      0.0891      0.1233      
2955.4      2980.4      2980.4      101.6739    0.3196      2.3883      1.2189      2.0647      0.3287      0.1783      0.1204      
2955.6      2980.6      2980.6      100.5982    0.3197      2.3749      1.2021      2.0718      0.3507      0.1188      0.1206      
2955.8      2980.8      2980.8      99.3029     0.3197      2.3979      1.1905      2.0686      0.3727      0.0594      0.1208      
2956.0      2981.0      2981.0      98.3297     0.3197      2.4186      1.1905      2.0645      0.3948      0.0         0.121       
2956.2      2981.2      2981.2      98.2165     0.3193      2.4403      1.1973      2.0607      0.3821      0.0         0.1233      
2956.4      2981.4      2981.4      98.1665     0.3189      2.4661      1.2052      2.0716      0.3695      0.0         0.1257      
2956.6      2981.6      2981.6      97.6435     0.319       2.4897      1.2092      2.0967      0.3506      0.0598      0.1218      
2956.8      2981.8      2981.8      96.8507     0.3191      2.5077      1.2127      2.11        0.3318      0.1196      0.118       
