#----------------------------------------------------------------------------
~VERSION INFORMATION
VERS.            2.0                  :CWLS LOG ASCII STANDARD -VERSION 2.0
WRAP.            NO                   :ONE LINE PER DEPTH STEP
#
#--------------------------------------------------------------------
~WELL INFORMATION
#MNEM .UNIT      DATA                 :DESCRIPTION OF MNEMONIC
#----------      ------------         -------------------------------
STRT  .m         3166.0               :START DEPTH
STEP  .m         0.2                  :STEP DEPTH
STOP  .m         3406.0               :STOP DEPTH
NULL  .          -999.25              :NULL VALUE
COMP  .          	              :COMPANY
WELL  .                               :WELL
LOC   .                               :LOCATION - AREA
FLD   .                               :FIELD
CTRY  .                               :COUNTRY
DATE  .                               :WELL DATE
UWI   .          	              :UWI
ZSTK  .          TVDss                :Z-STICK
XWELL .m         		      :X POS
YWELL .m         	              :Y POS
EDF   .          24.0                 :DERRICK FLOOR ELEVATION
#
#----------------------------------------------------------------------------
~CURVE INFORMATION
#MNEM.UNIT                                  : CURVE DESCRIPTION
#----------                                 -------------------------------
DEPT        .m                              : 1      DEPTH
MD          .m                              : 2      Depth
GR          .API                            : 3      GR
CALIPER     .m                              : 4      Cal
VP          .km/s                           : 5      Vp
VS          .km/s                           : 6      Vs
RHO         .g/cm3                          : 7      Rho
Porosidade  .fract                          : 8      Por
Argilosidade.fract                          : 9      Volume
Saturacao   .fract                          : 10     Sat
#
#----------------------------------------------------------------------------
~A          MD          GR          CALIPER     VP          VS          RHO         Porosidade  Argilosidade Saturacao   
# ...
3380.4      3404.4      100.9197    0.3189      2.7292      1.1198      2.3647      1.0E-4      1.0         1.0         
3380.6      3404.6      101.4338    0.3187      2.7177      1.1135      2.3749      0.0         0.9998      1.0         
3380.8      3404.8      100.318     0.3185      2.7141      1.1122      2.3858      1.0E-4      1.0         1.0         
3381.0      3405.0      100.7268    0.3183      2.7154      1.114       2.3821      0.0         0.9996      1.0         
3381.2      3405.2      103.2315    0.3181      2.7182      1.1175      2.3708      0.0         1.0         1.0         
3381.4      3405.4      106.7999    0.318       2.7189      1.1201      2.3538      0.0         0.9994      1.0         
3381.6      3405.6      109.7547    0.3181      2.7167      1.12        2.3294      0.0         1.0         1.0         
3381.8      3405.8      107.8587    0.3182      2.7131      1.1173      2.3162      0.0016      0.9524      1.0         
3382.0      3406.0      104.6649    0.3183      2.7124      1.1137      2.324       0.003       0.9171      1.0         
3382.2      3406.2      102.3756    0.3184      2.7172      1.1126      2.3388      5.0E-4      0.972       1.0         
3382.4      3406.4      102.0182    0.3183      2.7291      1.1153      2.3469      0.0         0.9871      1.0         
3382.6      3406.6      102.0783    0.3186      2.7458      1.1225      2.352       0.0         0.9962      1.0         
3382.8      3406.8      101.0212    0.3196      2.7635      1.1326      2.3626      0.0         1.0         1.0         
3383.0      3407.0      100.2244    0.3214      2.7793      1.1433      2.379       0.0         0.9991      0.9953      
3383.2      3407.2      99.9176     0.3228      2.7908      1.1527      2.3905      0.0         1.0         0.9656      
3383.4      3407.4      99.2325     0.3235      2.7969      1.1592      2.386       0.0         0.9994      0.9315      
3383.6      3407.6      98.6859     0.3241      2.798       1.1615      2.3683      0.0         1.0         0.921       
3383.8      3407.8      98.9328     0.3243      2.7967      1.16        2.3516      0.0         0.9996      0.921       
3384.0      3408.0      100.971     0.3236      2.7951      1.1548      2.3503      0.0         1.0         0.9284      
3384.2      3408.2      102.7667    0.3229      2.795       1.1474      2.3645      0.0         0.9997      0.9485      
3384.4      3408.4      101.8405    0.3229      2.797       1.1399      2.3717      0.0         1.0         0.9732      
3384.6      3408.6      100.3737    0.323       2.801       1.1343      2.363       0.0         0.9998      0.9811      
3384.8      3408.8      101.7559    0.3227      2.8066      1.1335      2.3649      0.0         1.0         0.9812      
3385.0      3409.0      105.6559    0.3226      2.8135      1.1383      2.3907      0.0         0.9999      0.9899      
3385.2      3409.2      104.6058    0.3228      2.8217      1.15        2.4118      0.0         1.0         0.9937      
3385.4      3409.4      98.0149     0.3228      2.8321      1.1667      2.4139      0.0         0.9999      0.9644      
3385.6      3409.6      93.2974     0.3229      2.8447      1.1847      2.412       0.0         1.0         0.9191      
3385.8      3409.8      90.3938     0.3232      2.8575      1.1997      2.4091      0.0         0.9999      0.883       
3386.0      3410.0      92.3887     0.3232      2.8665      1.2077      2.4006      0.0         1.0         0.8635      
3386.2      3410.2      98.1274     0.3221      2.8687      1.2072      2.3916      0.0         0.9999      0.8615      
3386.4      3410.4      98.0402     0.32        2.8641      1.1992      2.3852      0.0         1.0         0.8692      
3386.6      3410.6      97.3601     0.3177      2.8543      1.1871      2.38        0.0         0.9999      0.8854      
3386.8      3410.8      98.9178     0.3169      2.843       1.1752      2.3762      0.0         1.0         0.9118      
3387.0      3411.0      100.0834    0.3173      2.8331      1.1666      2.3735      0.0         0.9999      0.9295      
3387.2      3411.2      101.2774    0.3176      2.8265      1.1633      2.3672      0.0         1.0         0.9366      
3387.4      3411.4      102.4967    0.3176      2.8244      1.1652      2.3532      0.0         0.9694      0.9602      
3387.6      3411.6      101.7908    0.3175      2.8264      1.172       2.3453      0.0         0.9239      0.9947      
3387.8      3411.8      96.5494     0.3171      2.8324      1.1819      2.3625      0.0         0.9321      0.9945      
3388.0      3412.0      92.8353     0.3148      2.8415      1.1924      2.3915      0.0         0.9763      0.965       
3388.2      3412.2      93.2131     0.3111      2.8517      1.2007      2.3995      0.0         0.9972      0.9092      
3388.4      3412.4      93.8558     0.312       2.8606      1.2051      2.3856      0.0         0.9766      0.8971      
3388.6      3412.6      95.7328     0.3149      2.8653      1.2045      2.372       0.0         0.9576      0.8989      
3388.8      3412.8      98.3817     0.3153      2.8651      1.1977      2.371       0.0         0.9921      0.8725      
3389.0      3413.0      101.2051    0.3155      2.8606      1.1831      2.3743      0.0         1.0         0.8733      
3389.2      3413.2      104.2173    0.3156      2.853       1.162       2.3681      0.0         0.9998      0.8904      
3389.4      3413.4      105.2746    0.3154      2.8422      1.1374      2.3555      0.0         1.0         0.907       
3389.6      3413.6      104.502     0.3152      2.8277      1.1139      2.3328      0.0         0.9998      0.9268      
3389.8      3413.8      104.1963    0.3153      2.811       1.0975      2.2903      0.0         1.0         0.9484      
3390.0      3414.0      106.4799    0.3151      2.796       1.0921      2.2677      0.0032      0.9823      0.9798      
3390.2      3414.2      111.5749    0.315       2.7871      1.0976      2.2997      0.0054      0.9207      0.9986      
3390.4      3414.4      113.7278    0.3149      2.7864      1.1145      2.3387      0.001       0.9148      1.0         
3390.6      3414.6      108.8006    0.3148      2.7927      1.1383      2.343       0.0         0.9233      0.9998      
3390.8      3414.8      103.1136    0.3149      2.8041      1.1633      2.346       0.0         0.9351      0.9773      
3391.0      3415.0      98.0713     0.3159      2.8144      1.1838      2.3683      0.0         0.9895      0.9009      
3391.2      3415.2      93.7679     0.3172      2.8181      1.1954      2.3832      0.0         0.9663      0.9094      
3391.4      3415.4      93.449      0.3161      2.814       1.1973      2.3805      0.0         0.9289      0.9368      
3391.6      3415.6      95.7634     0.314       2.8036      1.1918      2.3738      0.0         0.9695      0.9245      
3391.8      3415.8      100.3098    0.3134      2.7935      1.1822      2.3689      0.0         0.998       0.9515      
3392.0      3416.0      107.9237    0.3134      2.7896      1.1728      2.3684      0.0         1.0         0.9946      
3392.2      3416.2      115.8038    0.3134      2.7932      1.1661      2.3695      0.0         1.0         0.9869      
3392.4      3416.4      115.3181    0.3134      2.8046      1.1626      2.3664      0.0         1.0         0.9286      
3392.6      3416.6      107.3269    0.3136      2.8192      1.1614      2.3696      0.0         1.0         0.8815      
3392.8      3416.8      104.6072    0.3138      2.8322      1.161       2.3808      0.0         0.9833      0.8875      
3393.0      3417.0      106.7867    0.314       2.84        1.1607      2.378       0.0         0.9721      0.9001      
3393.2      3417.2      105.6153    0.3144      2.8423      1.1609      2.3661      0.0         0.9939      0.8912      
3393.4      3417.4      105.2433    0.3153      2.8416      1.1628      2.368       0.0         1.0         0.9004      
3393.6      3417.6      108.9237    0.3158      2.8403      1.1663      2.3767      0.0         0.9998      0.9121      
