#----------------------------------------------------------------------------
~VERSION INFORMATION
VERS.            2.0                  :CWLS LOG ASCII STANDARD -VERSION 2.0
WRAP.            NO                   :ONE LINE PER DEPTH STEP
#
#--------------------------------------------------------------------
~WELL INFORMATION
#MNEM .UNIT      DATA                 :DESCRIPTION OF MNEMONIC
#----------      ------------         -------------------------------
STRT  .m         2796.1109            :START DEPTH
STEP  .m         0.2                  :STEP DEPTH
STOP  .m         3026.1109            :STOP DEPTH
NULL  .          -999.25              :NULL VALUE
COMP  .          	              :COMPANY
WELL  .                               :WELL
LOC   .                               :LOCATION - AREA
FLD   .                               :FIELD
CTRY  .                               :COUNTRY
DATE  .                               :WELL DATE
UWI   .          	              :UWI
ZSTK  .          TVDss                :Z-STICK
XWELL .m                              :X POS
YWELL .m                              :Y POS
EDF   .          30.0                 :DERRICK FLOOR ELEVATION
#
#----------------------------------------------------------------------------
~CURVE INFORMATION
#MNEM.UNIT                                  : CURVE DESCRIPTION
#----------                                 -------------------------------
DEPT        .m                              : 1      DEPTH
MD          .m                              : 2      Depth
Depth_TVDkb .m                              : 3      Depth
COTA        .m                              : 4      Depth
GR          .API                            : 5      GR
CALIPER     .m                              : 6      Cal
VP          .km/s                           : 7      Vp
VS          .km/s                           : 8      Vs
RHO         .g/cm3                          : 9      Rho
Porosidade  .fract                          : 10     Por
Argilosidade.fract                          : 11     Volume
Saturacao   .fract                          : 12     Sat
#
#----------------------------------------------------------------------------
~A          MD          Depth_TVDkb COTA        GR          CALIPER     VP          VS          RHO         Porosidade  Argilosidade Saturacao   
# ...
3020.1109   3055.8241   3050.1109   -3025.8241  111.8363    0.3185      2.5546      1.0395      2.3291      0.0         0.9655      0.383       
3020.3109   3056.0015   3050.3109   -3026.0015  111.3078    0.3186      2.5627      1.0469      2.3507      0.0         0.9996      0.3615      
3020.5109   3056.1789   3050.5109   -3026.1789  125.3961    0.3191      2.5784      1.0569      2.3508      0.0         0.9304      0.3904      
3020.7109   3056.3563   3050.7109   -3026.3563  122.2405    0.3195      2.5957      1.0737      2.3341      0.0         0.8795      0.4118      
3020.9109   3056.5338   3050.9109   -3026.5338  109.2244    0.3194      2.6096      1.0909      2.3219      0.0         0.9397      0.3954      
3021.1109   3056.7114   3051.1109   -3026.7114  104.3637    0.3201      2.6102      1.0992      2.3135      0.0         0.9771      0.3858      
3021.3109   3056.8889   3051.3109   -3026.8889  102.6287    0.323       2.6059      1.1004      2.3052      0.0         0.9338      0.4152      
3021.5109   3057.0665   3051.5109   -3027.0665  106.8402    0.3263      2.603       1.0995      2.3058      0.0         0.9028      0.4312      
3021.7109   3057.2442   3051.7109   -3027.2442  113.6469    0.3291      2.5951      1.096       2.3098      0.0         0.8977      0.4249      
3021.9109   3057.4219   3051.9109   -3027.4219  117.7252    0.332       2.6028      1.0904      2.3126      0.0013      0.8836      0.4245      
3022.1109   3057.5995   3052.1109   -3027.5995  112.3212    0.3345      2.6344      1.0843      2.3173      0.017       0.8065      0.4565      
3022.3109   3057.7773   3052.3109   -3027.7773  102.7109    0.337       2.6472      1.08        2.3168      0.0232      0.7791      0.4693      
3022.5109   3057.9551   3052.5109   -3027.9551  105.9832    0.3401      2.6459      1.0846      2.3025      0.02        0.8118      0.4635      
3022.7109   3058.133    3052.7109   -3028.133   112.1848    0.3412      2.6364      1.1053      2.2982      0.0141      0.858       0.4485      
3022.9109   3058.3108   3052.9109   -3028.3108  108.68      0.3401      2.6018      1.1335      2.3182      0.0029      0.9249      0.4047      
3023.1109   3058.4888   3053.1109   -3028.4888  92.5958     0.3389      2.5891      1.1522      2.3369      0.0035      0.9192      0.4035      
3023.3109   3058.6667   3053.3109   -3028.6667  84.9227     0.3382      2.6323      1.1672      2.3271      0.0232      0.7938      0.4646      
3023.5109   3058.8447   3053.5109   -3028.8447  94.9774     0.3371      2.6836      1.1942      2.3118      0.0238      0.7665      0.4717      
3023.7109   3059.0227   3053.7109   -3029.0227  97.8502     0.3361      2.699       1.2408      2.3204      0.004       0.7835      0.4351      
3023.9109   3059.2008   3053.9109   -3029.2008  91.8116     0.3352      2.7611      1.2918      2.3431      0.0138      0.7443      0.4344      
3024.1109   3059.379    3054.1109   -3029.379   83.5042     0.3342      2.8488      1.3057      2.3414      0.066       0.5835      0.4653      
3024.3109   3059.5571   3054.3109   -3029.5571  86.9128     0.3337      2.8385      1.2929      2.3092      0.0716      0.578       0.4923      
3024.5109   3059.7353   3054.5109   -3029.7353  96.5195     0.3334      2.7294      1.2574      2.2837      0.0576      0.6672      0.5152      
3024.7109   3059.9135   3054.7109   -3029.9135  104.1903    0.3325      2.6172      1.2298      2.2916      0.0338      0.7706      0.4849      
3024.9109   3060.0918   3054.9109   -3030.0918  104.9806    0.3309      2.6028      1.213       2.3278      0.0028      0.8759      0.3972      
3025.1109   3060.2701   3055.1109   -3030.2701  94.3737     0.3286      2.6313      1.2042      2.3356      0.0027      0.8829      0.4025      
3025.3109   3060.4484   3055.3109   -3030.4484  95.5077     0.3259      2.6591      1.1987      2.3125      0.0123      0.8747      0.4409      
3025.5109   3060.6268   3055.5109   -3030.6268  96.1779     0.3246      2.6624      1.198       2.2883      0.0251      0.8373      0.4593      
3025.7109   3060.8053   3055.7109   -3030.8053  93.3289     0.3244      2.6574      1.2029      2.2869      0.0442      0.7523      0.4735      
3025.9109   3060.9837   3055.9109   -3030.9837  89.8695     0.324       2.6591      1.2131      2.2782      0.0776      0.6531      0.5125      
3026.1109   3061.1622   3056.1109   -3031.1622  98.6215     0.3241      2.6708      1.2151      2.2516      0.1097      0.5703      0.5546      
