#----------------------------------------------------------------------------
~VERSION INFORMATION
VERS.            2.0                  :CWLS LOG ASCII STANDARD -VERSION 2.0
WRAP.            NO                   :ONE LINE PER DEPTH STEP
#
#--------------------------------------------------------------------
~WELL INFORMATION
#MNEM .UNIT      DATA                 :DESCRIPTION OF MNEMONIC
#----------      ------------         -------------------------------
STRT  .m         2796.1109            :START DEPTH
STEP  .m         0.2                  :STEP DEPTH
STOP  .m         3026.1109            :STOP DEPTH
NULL  .          -999.25              :NULL VALUE
COMP  .          	              :COMPANY
WELL  .                               :WELL
LOC   .                               :LOCATION - AREA
FLD   .                               :FIELD
CTRY  .                               :COUNTRY
DATE  .                               :WELL DATE
UWI   .          	              :UWI
ZSTK  .          TVDss                :Z-STICK
XWELL .m                              :X POS
YWELL .m                              :Y POS
EDF   .          30.0                 :DERRICK FLOOR ELEVATION
#
#----------------------------------------------------------------------------
~CURVE INFORMATION
#MNEM.UNIT                                  : CURVE DESCRIPTION
#----------                                 -------------------------------
DEPT        .m                              : 1      DEPTH
MD          .m                              : 2      Depth
Depth_TVDkb .m                              : 3      Depth
COTA        .m                              : 4      Depth
GR          .API                            : 5      GR
CALIPER     .m                              : 6      Cal
VP          .km/s                           : 7      Vp
VS          .km/s                           : 8      Vs
RHO         .g/cm3                          : 9      Rho
Porosidade  .fract                          : 10     Por
Argilosidade.fract                          : 11     Volume
Saturacao   .fract                          : 12     Sat
#
#----------------------------------------------------------------------------
~A          MD          Depth_TVDkb COTA        GR          CALIPER     VP          VS          RHO         Porosidade  Argilosidade Saturacao   
# ...
2807.3109   2862.2823   2837.3109   -2832.2823  102.3884    0.3759      2.5725      1.027       2.2989      0.0205      0.8299      0.3641      
2807.5109   2862.4632   2837.5109   -2832.4632  98.1343     0.3739      2.5789      1.0301      2.3209      0.0021      0.8867      0.3327      
2807.7109   2862.6442   2837.7109   -2832.6442  98.0326     0.373       2.6136      1.0531      2.3215      0.0         0.8899      0.3127      
2807.9109   2862.8252   2837.9109   -2832.8252  100.7611    0.3732      2.6891      1.1044      2.3242      0.0         0.8809      0.2972      
2808.1109   2863.0062   2838.1109   -2833.0062  105.9475    0.3731      2.7501      1.1594      2.3489      0.0         0.909       0.275       
2808.3109   2863.1872   2838.3109   -2833.1872  103.3697    0.373       2.7477      1.1821      2.3718      0.0         0.9895      0.2507      
2808.5109   2863.3683   2838.5109   -2833.3683  95.2962     0.3731      2.6877      1.1669      2.3758      0.0         0.9839      0.2661      
2808.7109   2863.5495   2838.7109   -2833.5495  94.9324     0.3731      2.5912      1.1081      2.3704      0.0         0.9308      0.3213      
2808.9109   2863.7306   2838.9109   -2833.7306  96.8571     0.3727      2.5271      1.0368      2.3478      0.0         0.901       0.3386      
2809.1109   2863.9117   2839.1109   -2833.9117  96.9715     0.3718      2.5182      1.0121      2.3229      0.0         0.8824      0.3451      
2809.3109   2864.0929   2839.3109   -2834.0929  100.6218    0.3712      2.5373      1.0127      2.3102      0.0         0.8921      0.3388      
2809.5109   2864.2742   2839.5109   -2834.2742  104.4242    0.3715      2.5927      1.0196      2.3026      0.0         0.9361      0.314       
2809.7109   2864.4555   2839.7109   -2834.4555  102.6799    0.3716      2.6319      1.0239      2.2981      0.0         0.9698      0.2986      
2809.9109   2864.6368   2839.9109   -2834.6368  101.2776    0.3725      2.6363      1.0215      2.3042      0.0         0.9966      0.2884      
2810.1109   2864.8181   2840.1109   -2834.8181  103.4319    0.3738      2.5933      1.0039      2.3094      0.0052      0.9902      0.2914      
2810.3109   2864.9995   2840.3109   -2834.9995  104.3111    0.3749      2.4963      0.9704      2.2858      0.0291      0.9409      0.3129      
2810.5109   2865.181    2840.5109   -2835.181   120.407     0.3828      2.4372      0.9377      2.217       0.0616      0.8417      0.3581      
2810.7109   2865.3625   2840.7109   -2835.3625  132.7729    0.3959      2.4246      0.914       2.2009      0.103       0.6731      0.4369      
2810.9109   2865.5439   2840.9109   -2835.5439  132.4847    0.3972      2.4428      0.8945      2.2111      0.104       0.6861      0.4354      
2811.1109   2865.7255   2841.1109   -2835.7255  132.5561    0.3894      2.4972      0.877       2.213       0.0793      0.8322      0.3837      
2811.3109   2865.907    2841.3109   -2835.907   134.3862    0.3814      2.5265      0.8734      2.2009      0.0576      0.8574      0.3754      
2811.5109   2866.0886   2841.5109   -2836.0886  131.8382    0.3739      2.5288      0.8782      2.2078      0.0378      0.8496      0.3808      
2811.7109   2866.2702   2841.7109   -2836.2702  128.899     0.3762      2.5284      0.8933      2.26        0.0195      0.8728      0.3668      
2811.9109   2866.4519   2841.9109   -2836.4519  118.6692    0.3879      2.5453      0.9109      2.3132      0.0027      0.9683      0.3087      
2812.1109   2866.6336   2842.1109   -2836.6336  109.7048    0.3926      2.5974      0.9181      2.3218      0.0041      0.9677      0.3054      
2812.3109   2866.8153   2842.3109   -2836.8153  106.8464    0.3911      2.5959      0.9162      2.3171      0.0259      0.8698      0.3456      
2812.5109   2866.9971   2842.5109   -2836.9971  113.9629    0.3878      2.5307      0.9089      2.2794      0.0556      0.779       0.3753      
2812.7109   2867.179    2842.7109   -2837.179   124.787     0.3828      2.4623      0.9068      2.2193      0.0953      0.6941      0.3972      
2812.9109   2867.3608   2842.9109   -2837.3608  125.7963    0.3804      2.4454      0.9066      2.2107      0.1017      0.6804      0.4088      
2813.1109   2867.5426   2843.1109   -2837.5426  129.8627    0.3811      2.4516      0.9049      2.2198      0.0953      0.6882      0.4158      
2813.3109   2867.7246   2843.3109   -2837.7246  134.5693    0.3865      2.4725      0.9013      2.226       0.0895      0.7011      0.4155      
2813.5109   2867.9065   2843.5109   -2837.9065  134.2853    0.3974      2.4877      0.9006      2.2359      0.0843      0.7224      0.409       
2813.7109   2868.0885   2843.7109   -2838.0885  135.8678    0.3965      2.4982      0.9061      2.2285      0.0872      0.7163      0.4084      
2813.9109   2868.2705   2843.9109   -2838.2705  131.6205    0.3819      2.5175      0.9251      2.1974      0.1056      0.6664      0.4126      
2814.1109   2868.4526   2844.1109   -2838.4526  125.7416    0.3748      2.5414      0.9487      2.2043      0.0946      0.6992      0.4009      
2814.3109   2868.6347   2844.3109   -2838.6347  123.8985    0.3759      2.5508      0.9623      2.2557      0.0193      0.9194      0.3384      
2814.5109   2868.8168   2844.5109   -2838.8168  122.6416    0.3746      2.5516      0.9639      2.2734      0.0059      0.9676      0.3253      
2814.7109   2868.9989   2844.7109   -2838.9989  122.7129    0.3717      2.5495      0.9636      2.262       0.0413      0.9124      0.3446      
2814.9109   2869.1811   2844.9109   -2839.1811  128.3487    0.3714      2.5406      0.9657      2.2254      0.0723      0.8364      0.3696      
2815.1109   2869.3634   2845.1109   -2839.3634  134.2022    0.3724      2.5381      0.9749      2.2033      0.0989      0.7282      0.4027      
2815.3109   2869.5456   2845.3109   -2839.5456  123.6897    0.3752      2.544       0.9872      2.2083      0.0991      0.72        0.4042      
2815.5109   2869.7278   2845.5109   -2839.7278  122.9322    0.3797      2.553       0.9928      2.2263      0.0642      0.8263      0.3661      
2815.7109   2869.9108   2845.7109   -2839.9108  125.4724    0.3814      2.563       0.992       2.2345      0.0331      0.9019      0.34        
2815.9109   2870.0946   2845.9109   -2840.0946  122.3424    0.3793      2.576       0.987       2.2458      0.006       0.9514      0.3237      
2816.1109   2870.2784   2846.1109   -2840.2784  123.7512    0.3819      2.5816      0.9813      2.2776      0.0036      0.9467      0.3251      
2816.3109   2870.4621   2846.3109   -2840.4621  127.2204    0.391       2.5786      0.9767      2.2954      0.0294      0.8501      0.3566      
2816.5109   2870.6454   2846.5109   -2840.6454  131.9395    0.3919      2.5525      0.975       2.2797      0.0546      0.7938      0.378       
2816.7109   2870.8279   2846.7109   -2840.8279  127.6104    0.3821      2.5039      0.9727      2.2336      0.0767      0.773       0.3898      
2816.9109   2871.0104   2846.9109   -2841.0104  126.0013    0.3769      2.4742      0.9583      2.2037      0.1025      0.7264      0.398       
2817.1109   2871.193    2847.1109   -2841.193   135.5023    0.3767      2.4693      0.927       2.1842      0.1352      0.6117      0.4047      
2817.3109   2871.3756   2847.3109   -2841.3756  139.6333    0.3799      2.4737      0.8975      2.1851      0.1332      0.6061      0.3989      
2817.5109   2871.5583   2847.5109   -2841.5583  139.7569    0.3875      2.494       0.8853      2.2213      0.0629      0.7945      0.3497      
2817.7109   2871.7411   2847.7109   -2841.7411  140.001     0.3887      2.5125      0.8848      2.2506      0.0434      0.8481      0.3367      
2817.9109   2871.9238   2847.9109   -2841.9238  135.175     0.3797      2.5066      0.8967      2.2448      0.0725      0.7757      0.363       
2818.1109   2872.1066   2848.1109   -2842.1066  138.2456    0.3752      2.4849      0.9225      2.2268      0.0929      0.7144      0.3837      
2818.3109   2872.2895   2848.3109   -2842.2895  139.2683    0.3766      2.496       0.926       2.2197      0.1046      0.6681      0.3978      
