#----------------------------------------------------------------------------
~VERSION INFORMATION
VERS.            2.0                  :CWLS LOG ASCII STANDARD -VERSION 2.0
WRAP.            NO                   :ONE LINE PER DEPTH STEP
#
#--------------------------------------------------------------------
~WELL INFORMATION
#MNEM .UNIT      DATA                 :DESCRIPTION OF MNEMONIC
#----------      ------------         -------------------------------
STRT  .m         3166.1892            :START DEPTH
STEP  .m         0.2                  :STEP DEPTH
STOP  .m         3426.1892            :STOP DEPTH
NULL  .          -999.25              :NULL VALUE
COMP  .                               :COMPANY
WELL  .                               :WELL
LOC   .                               :LOCATION - AREA
FLD   .          	              :FIELD
CTRY  .                               :COUNTRY
DATE  .                               :WELL DATE
UWI   .            	              :UWI
ZSTK  .          TVDss                :Z-STICK
XWELL .m         	              :X POS
YWELL .m         	              :Y POS
EDF   .          14.0                 :DERRICK FLOOR ELEVATION
#
#----------------------------------------------------------------------------
~CURVE INFORMATION
#MNEM.UNIT                                              : CURVE DESCRIPTION
#----------                                             -------------------------------
DEPT                    .m                              : 1      DEPTH
MD                      .m                              : 2      Depth
GR                      .API                            : 3      GR
CALIPER                 .m                              : 4      Cal
VP                      .km/s                           : 5      Vp
Vs_calculado_de_VPVS    .km/s                           : 6      Vs
RHO                     .g/cm3                          : 7      Rho
Porosidade              .fract                          : 8      Por
Argilosidade            .fract                          : 9      Volume
Saturacao               .fract                          : 10     Sat
#
#----------------------------------------------------------------------------
~A                      MD                      GR                      CALIPER                 VP                      Vs_calculado_de_VPVS    RHO                     Porosidade              Argilosidade            Saturacao               
# ...
3336.1892               3350.1892               74.4328                 0.3149                  2.6839                  1.1586                  2.1558                  0.2809                  0.1119                  0.1152                  
3336.3892               3350.3892               74.7527                 0.3184                  2.6609                  1.1919                  2.1469                  0.2987                  0.0709                  0.1125                  
3336.5892               3350.5892               73.0355                 0.3186                  2.6546                  1.2136                  2.1425                  0.32                    0.0214                  0.11                    
3336.7892               3350.7892               69.1521                 0.3156                  2.6636                  1.2204                  2.1416                  0.3094                  0.0449                  0.1098                  
3336.9892               3350.9892               67.2749                 0.3138                  2.6821                  1.2044                  2.144                   0.2949                  0.077                   0.1096                  
3337.1892               3351.1892               69.5246                 0.3139                  2.7038                  1.1637                  2.149                   0.2839                  0.1                     0.1109                  
3337.3892               3351.3892               73.1509                 0.3141                  2.7234                  1.1218                  2.155                   0.2766                  0.1128                  0.1141                  
3337.5892               3351.5892               78.0958                 0.3148                  2.7385                  1.0986                  2.1606                  0.2687                  0.1261                  0.1174                  
3337.7892               3351.7892               84.2436                 0.3142                  2.7495                  1.1011                  2.1652                  0.2706                  0.1224                  0.1235                  
3337.9892               3351.9892               87.8401                 0.3137                  2.759                   1.1196                  2.1689                  0.2734                  0.1167                  0.1302                  
3338.1892               3352.1892               85.4105                 0.3147                  2.7694                  1.1251                  2.1725                  0.2706                  0.1222                  0.1332                  
3338.3892               3352.3892               83.3618                 0.3156                  2.7814                  1.1025                  2.177                   0.2612                  0.1402                  0.1318                  
3338.5892               3352.5892               83.6892                 0.3171                  2.7934                  1.0671                  2.1829                  0.2508                  0.1602                  0.1301                  
3338.7892               3352.7892               87.7617                 0.3183                  2.8022                  1.0654                  2.1898                  0.2418                  0.1779                  0.1267                  
3338.9892               3352.9892               86.6673                 0.3177                  2.805                   1.1003                  2.1969                  0.2324                  0.1974                  0.1226                  
3339.1892               3353.1892               81.6741                 0.3175                  2.8002                  1.124                   2.2028                  0.2308                  0.195                   0.1232                  
3339.3892               3353.3892               76.7165                 0.3179                  2.7883                  1.1069                  2.2066                  0.2365                  0.1722                  0.1287                  
3339.5892               3353.5892               76.5462                 0.3177                  2.772                   1.0755                  2.2081                  0.2442                  0.143                   0.1344                  
3339.7892               3353.7892               78.7652                 0.3179                  2.755                   1.0698                  2.2081                  0.2435                  0.1497                  0.1621                  
3339.9892               3353.9892               79.9096                 0.3186                  2.7406                  1.0779                  2.2079                  0.2425                  0.1586                  0.1924                  
3340.1892               3354.1892               80.1926                 0.3184                  2.7308                  1.0762                  2.2083                  0.2341                  0.1959                  0.2756                  
3340.3892               3354.3892               81.0535                 0.3169                  2.7262                  1.0761                  2.2102                  0.2161                  0.2705                  0.4265                  
3340.5892               3354.5892               81.5681                 0.3169                  2.7258                  1.0946                  2.2138                  0.1967                  0.3488                  0.593                   
3340.7892               3354.7892               81.4218                 0.3185                  2.7278                  1.1207                  2.2186                  0.1809                  0.4348                  0.6592                  
3340.9892               3354.9892               80.9652                 0.3203                  2.7294                  1.1315                  2.2235                  0.1651                  0.524                   0.7188                  
3341.1892               3355.1892               80.6251                 0.3189                  2.728                   1.1261                  2.2278                  0.1538                  0.5861                  0.7572                  
3341.3892               3355.3892               77.7374                 0.316                   2.722                   1.1135                  2.2309                  0.1477                  0.6157                  0.7688                  
3341.5892               3355.5892               74.3268                 0.317                   2.7106                  1.1038                  2.2327                  0.1422                  0.6432                  0.7786                  
3341.7892               3355.7892               73.3139                 0.3178                  2.694                   1.0983                  2.2328                  0.1349                  0.663                   0.7899                  
3341.9892               3355.9892               73.7373                 0.3167                  2.6731                  1.0968                  2.2301                  0.1264                  0.6839                  0.8025                  
3342.1892               3356.1892               73.7067                 0.3157                  2.6491                  1.0953                  2.2243                  0.1327                  0.6683                  0.7651                  
3342.3892               3356.3892               74.3012                 0.315                   2.6232                  1.0911                  2.2157                  0.1552                  0.612                   0.6644                  
3342.5892               3356.5892               75.4402                 0.3161                  2.5968                  1.084                   2.2041                  0.1803                  0.5493                  0.5489                  
3342.7892               3356.7892               76.0334                 0.3156                  2.5714                  1.0758                  2.1904                  0.1999                  0.5004                  0.5178                  
