#----------------------------------------------------------------------------
~VERSION INFORMATION
VERS.            2.0                  :CWLS LOG ASCII STANDARD -VERSION 2.0
WRAP.            NO                   :ONE LINE PER DEPTH STEP
#
#--------------------------------------------------------------------
~WELL INFORMATION
#MNEM .UNIT      DATA                 :DESCRIPTION OF MNEMONIC
#----------      ------------         -------------------------------
STRT  .m         2775.191             :START DEPTH
STEP  .m         0.2                  :STEP DEPTH
STOP  .m         3093.191             :STOP DEPTH
NULL  .          -999.25              :NULL VALUE
COMP  .                               :COMPANY
WELL  .                               :WELL
LOC   .                               :LOCATION - AREA
FLD   .                               :FIELD
CTRY  .                               :COUNTRY
DATE  .                               :WELL DATE
UWI   .                               :UWI
ZSTK  .          TVDss                :Z-STICK
XWELL .m         	              :X POS
YWELL .m         	              :Y POS
EDF   .          24.0                 :DERRICK FLOOR ELEVATION
#
#----------------------------------------------------------------------------
~CURVE INFORMATION
#MNEM.UNIT                                  : CURVE DESCRIPTION
#----------                                 -------------------------------
DEPT        .m                              : 1      DEPTH
COTA        .m                              : 2      Depth
Depth_TVDkb .m                              : 3      Depth
TVD         .m                              : 4      Depth
GR          .API                            : 5      GR
CALIPER     .m                              : 6      Cal
VP          .km/s                           : 7      Vp
VS          .km/s                           : 8      Vs
RHO         .g/cm3                          : 9      Rho
Porosidade  .fract                          : 10     Por
Argilosidade.fract                          : 11     Volume
Saturacao   .fract                          : 12     Sat
#
#----------------------------------------------------------------------------
~A          COTA        Depth_TVDkb TVD         GR          CALIPER     VP          VS          RHO         Porosidade  Argilosidade Saturacao   
# ...
2819.991    -2819.9816  2843.991    2843.9816   81.2206     0.4369      2.2382      0.7932      2.0485      0.0252      0.9369      0.9843      
2820.191    -2820.1816  2844.191    2844.1816   87.708      0.4344      2.3515      0.7993      2.0752      0.0183      0.954       0.9907      
2820.391    -2820.3815  2844.391    2844.3815   90.7657     0.4516      2.4954      0.8055      2.04        0.0115      0.9713      0.9972      
2820.591    -2820.5815  2844.591    2844.5815   94.8267     0.4696      2.5161      0.8118      2.0014      0.0081      0.9799      0.9981      
2820.791    -2820.7815  2844.791    2844.7815   100.3864    0.4657      2.5453      0.8182      2.1184      0.0046      0.9884      0.9991      
2820.991    -2820.9815  2844.991    2844.9815   106.7658    0.43        2.5404      0.8247      2.1173      0.0012      0.9969      1.0         
2821.191    -2821.1815  2845.191    2845.1815   116.883     0.3888      2.5278      0.8313      2.1146      0.0178      0.9555      0.9851      
2821.391    -2821.3814  2845.391    2845.3814   120.6332    0.394       2.5572      0.838       2.121       0.0345      0.9137      0.97        
2821.591    -2821.5814  2845.591    2845.5814   121.4206    0.4248      2.5752      0.8448      2.1249      0.0231      0.9424      0.9799      
2821.791    -2821.7814  2845.791    2845.7814   119.6537    0.4234      2.5619      0.8517      2.122       0.0116      0.9711      0.9899      
2821.991    -2821.9814  2845.991    2845.9814   121.796     0.3986      2.5218      0.8587      2.1133      0.0         1.0         1.0         
2822.191    -2822.1813  2846.191    2846.1813   126.3629    0.3983      2.4486      0.8659      2.0971      0.0         1.0         1.0         
2822.391    -2822.3813  2846.391    2846.3813   119.7084    0.4262      2.4171      0.8731      2.09        0.0         1.0         1.0         
2822.591    -2822.5813  2846.591    2846.5813   117.4057    0.4401      2.3647      0.8805      2.0781      0.0037      0.991       0.9992      
2822.791    -2822.7813  2846.791    2846.7813   120.9144    0.4443      2.3673      0.888       2.0787      0.0073      0.9818      0.9983      
2822.991    -2822.9813  2846.991    2846.9813   120.2343    0.4591      2.4056      0.8957      2.0874      0.011       0.9727      0.9975      
2823.191    -2823.1812  2847.191    2847.1812   127.923     0.4454      2.3881      0.9035      2.0834      0.0691      0.8274      0.8499      
2823.391    -2823.3812  2847.391    2847.3812   131.4469    0.4056      2.396       0.9114      2.0853      0.1279      0.6804      0.7005      
2823.591    -2823.5812  2847.591    2847.5812   135.8251    0.3849      2.43        0.9194      2.0327      0.13        0.6694      0.6925      
2823.791    -2823.7812  2847.791    2847.7812   141.7316    0.3659      2.484       0.9276      2.0818      0.1322      0.6585      0.6845      
2823.991    -2823.9812  2847.991    2847.9812   144.664     0.3356      2.5056      0.936       2.1352      0.1344      0.6474      0.6766      
2824.191    -2824.1811  2848.191    2848.1811   137.889     0.3237      2.4521      0.9445      2.1667      0.0841      0.7813      0.8235      
2824.391    -2824.3811  2848.391    2848.3811   124.6618    0.3291      2.3679      0.9531      2.1828      0.0332      0.9169      0.9722      
2824.591    -2824.5811  2848.591    2848.5811   122.7062    0.3295      2.2675      0.9619      2.1751      0.0685      0.8288      0.8702      
2824.791    -2824.7811  2848.791    2848.7811   124.1511    0.33        2.2342      0.9709      2.0614      0.104       0.7401      0.7675      
2824.991    -2824.9811  2848.991    2848.9811   112.8168    0.3472      2.2475      0.9801      2.0507      0.1395      0.6514      0.6647      
2825.191    -2825.181   2849.191    2849.181    120.8635    0.3619      2.3108      0.9894      2.0657      0.1646      0.5704      0.5891      
2825.391    -2825.381   2849.391    2849.381    115.2031    0.3478      2.3693      0.9989      2.0178      0.1898      0.4893      0.5133      
2825.591    -2825.581   2849.591    2849.581    123.8043    0.3301      2.3824      1.0085      2.1436      0.2037      0.4576      0.4794      
2825.791    -2825.781   2849.791    2849.781    128.6567    0.3315      2.3274      1.0276      2.1471      0.2176      0.4259      0.4455      
2825.991    -2825.981   2849.991    2849.981    121.6572    0.3341      2.1875      1.0331      2.1149      0.2315      0.394       0.4115      
2826.191    -2826.181   2850.191    2850.181    119.0372    0.3334      2.0595      1.0325      2.0724      0.2206      0.435       0.4435      
2826.391    -2826.3809  2850.391    2850.3809   125.4598    0.336       1.9781      1.0236      2.0455      0.2095      0.4762      0.4756      
2826.591    -2826.5809  2850.591    2850.5809   122.3845    0.3363      1.989       1.0198      2.0492      0.1796      0.5262      0.5535      
2826.791    -2826.7809  2850.791    2850.7809   115.2952    0.335       2.0409      1.0026      2.0963      0.1497      0.5763      0.6317      
2826.991    -2826.9809  2850.991    2850.9809   111.6097    0.3352      2.1284      0.9863      2.162       0.1197      0.6263      0.7099      
2827.191    -2827.1809  2851.191    2851.1809   114.3726    0.3344      2.2345      0.9759      2.1937      0.0921      0.7321      0.8041      
2827.391    -2827.3809  2851.391    2851.3809   120.299     0.3353      2.2932      0.9612      2.187       0.0644      0.8391      0.8992      
2827.591    -2827.5809  2851.591    2851.5809   117.8298    0.3372      2.292       0.9482      2.1016      0.089       0.7775      0.8222      
2827.791    -2827.7808  2851.791    2851.7808   114.5868    0.3364      2.2381      0.9237      2.0485      0.1138      0.7155      0.7446      
2827.991    -2827.9808  2851.991    2851.9808   110.8855    0.3342      2.2421      0.9225      2.0494      0.1388      0.6529      0.6664      
2828.191    -2828.1807  2852.191    2852.1807   111.7908    0.3311      2.3311      0.9564      2.071       0.1238      0.6522      0.7062      
2828.391    -2828.3807  2852.391    2852.3807   117.4188    0.3286      2.4037      0.9919      2.1849      0.1085      0.6514      0.7465      
2828.591    -2828.5807  2852.591    2852.5807   118.6593    0.3303      2.3337      0.9818      2.2019      0.1067      0.6816      0.7574      
2828.791    -2828.7807  2852.791    2852.7807   121.098     0.331       2.231       0.958       2.1961      0.1048      0.712       0.7683      
2828.991    -2828.9807  2852.991    2852.9807   115.8854    0.3342      2.2551      0.9675      2.183       0.103       0.7426      0.7792      
2829.191    -2829.1807  2853.191    2853.1807   111.6453    0.3474      2.2331      0.9319      2.1356      0.1496      0.6023      0.6358      
2829.391    -2829.3806  2853.391    2853.3806   117.4209    0.3511      2.2643      0.9066      2.1054      0.1968      0.4606      0.491       
2829.591    -2829.5806  2853.591    2853.5806   122.2772    0.3368      2.3342      0.8999      2.1436      0.2265      0.3524      0.3912      
2829.791    -2829.7806  2853.791    2853.7806   124.5976    0.3286      2.3761      0.9079      2.2066      0.2561      0.2443      0.2915      
2829.991    -2829.9806  2853.991    2853.9806   115.9529    0.33        2.3291      0.918       2.2107      0.2859      0.1356      0.1913      
2830.191    -2830.1806  2854.191    2854.1806   105.066     0.328       2.2004      0.9296      2.1268      0.2875      0.1167      0.1756      
2830.391    -2830.3806  2854.391    2854.3806   99.7969     0.3258      2.0955      0.9602      2.0457      0.2891      0.0977      0.1598      
2830.591    -2830.5806  2854.591    2854.5806   91.636      0.3261      2.0444      1.0053      2.0544      0.2844      0.1005      0.1644      
2830.791    -2830.7806  2854.791    2854.7806   86.3604     0.3248      2.0318      1.0473      2.0975      0.2798      0.1033      0.1691      
2830.991    -2830.9806  2854.991    2854.9806   90.0047     0.3238      2.0453      1.083       2.1082      0.2751      0.1061      0.1737      
