#----------------------------------------------------------------------------
~VERSION INFORMATION
VERS.            2.0                  :CWLS LOG ASCII STANDARD -VERSION 2.0
WRAP.            NO                   :ONE LINE PER DEPTH STEP
#
#--------------------------------------------------------------------
~WELL INFORMATION
#MNEM .UNIT      DATA                 :DESCRIPTION OF MNEMONIC
#----------      ------------         -------------------------------
STRT  .m         2775.191             :START DEPTH
STEP  .m         0.2                  :STEP DEPTH
STOP  .m         3093.191             :STOP DEPTH
NULL  .          -999.25              :NULL VALUE
COMP  .                               :COMPANY
WELL  .                               :WELL
LOC   .                               :LOCATION - AREA
FLD   .                               :FIELD
CTRY  .                               :COUNTRY
DATE  .                               :WELL DATE
UWI   .                               :UWI
ZSTK  .          TVDss                :Z-STICK
XWELL .m         	              :X POS
YWELL .m         	              :Y POS
EDF   .          24.0                 :DERRICK FLOOR ELEVATION
#
#----------------------------------------------------------------------------
~CURVE INFORMATION
#MNEM.UNIT                                  : CURVE DESCRIPTION
#----------                                 -------------------------------
DEPT        .m                              : 1      DEPTH
COTA        .m                              : 2      Depth
Depth_TVDkb .m                              : 3      Depth
TVD         .m                              : 4      Depth
GR          .API                            : 5      GR
CALIPER     .m                              : 6      Cal
VP          .km/s                           : 7      Vp
VS          .km/s                           : 8      Vs
RHO         .g/cm3                          : 9      Rho
Porosidade  .fract                          : 10     Por
Argilosidade.fract                          : 11     Volume
Saturacao   .fract                          : 12     Sat
#
#----------------------------------------------------------------------------
~A          COTA        Depth_TVDkb TVD         GR          CALIPER     VP          VS          RHO         Porosidade  Argilosidade Saturacao   
# ...
2831.191    -2831.1806  2855.191    2855.1806   95.3274     0.325       2.0375      1.0913      2.0938      0.2897      0.099       0.161       
2831.391    -2831.3806  2855.391    2855.3806   94.6983     0.3268      2.0439      1.0966      2.0694      0.3046      0.0918      0.1482      
2831.591    -2831.5805  2855.591    2855.5805   93.7314     0.3277      2.0375      1.0896      2.035       0.3047      0.0947      0.1504      
2831.791    -2831.7805  2855.791    2855.7805   93.0212     0.328       2.0362      1.0823      2.0123      0.3048      0.0977      0.1526      
2831.991    -2831.9805  2855.991    2855.9805   91.3766     0.3283      2.0239      1.074       2.0218      0.3049      0.1007      0.1547      
2832.191    -2832.1805  2856.191    2856.1805   91.6308     0.3282      2.0045      1.0626      2.0312      0.3057      0.113       0.1635      
2832.391    -2832.3805  2856.391    2856.3805   91.4259     0.3271      1.9735      1.0426      2.0191      0.3065      0.1254      0.1723      
2832.591    -2832.5805  2856.591    2856.5805   92.3267     0.326       1.9486      1.0167      2.0188      0.2965      0.1264      0.1785      
2832.791    -2832.7805  2856.791    2856.7805   97.7856     0.3256      1.9482      1.0017      2.0561      0.2864      0.1274      0.1847      
2832.991    -2832.9805  2856.991    2856.9805   98.7622     0.3256      1.9344      0.9845      2.0959      0.2762      0.1284      0.191       
2833.191    -2833.1806  2857.191    2857.1806   87.6304     0.3258      1.9214      0.9788      2.087       0.2816      0.1548      0.2083      
2833.391    -2833.3806  2857.391    2857.3806   85.4442     0.326       1.8943      0.9728      2.0514      0.2873      0.1815      0.2257      
2833.591    -2833.5806  2857.591    2857.5806   89.5338     0.3256      1.8954      0.9817      2.0349      0.2771      0.2095      0.2541      
2833.791    -2833.7807  2857.791    2857.7807   93.0964     0.3252      1.9225      1.0009      2.0393      0.2667      0.2377      0.2826      
2833.991    -2833.9807  2857.991    2857.9807   101.0621    0.3262      1.923       1.0004      2.0622      0.2562      0.266       0.3114      
2834.191    -2834.1807  2858.191    2858.1807   101.7219    0.3282      1.8984      0.9807      2.0887      0.2607      0.2797      0.3157      
2834.391    -2834.3807  2858.391    2858.3807   102.1019    0.3292      1.8914      0.9613      2.0803      0.2651      0.2935      0.3199      
2834.591    -2834.5807  2858.591    2858.5807   107.0823    0.3292      1.8993      0.9519      2.0491      0.2673      0.2872      0.3141      
2834.791    -2834.7807  2858.791    2858.7807   114.8169    0.3292      1.8961      0.9421      2.0304      0.2695      0.2809      0.3082      
2834.991    -2834.9807  2858.991    2858.9807   115.9907    0.3283      1.878       0.9312      2.033       0.2717      0.2746      0.3023      
2835.191    -2835.1807  2859.191    2859.1807   114.5005    0.3271      1.8608      0.9181      2.0488      0.2977      0.2326      0.2562      
2835.391    -2835.3807  2859.391    2859.3807   113.3475    0.3285      1.8477      0.9039      2.026       0.3239      0.1901      0.2095      
2835.591    -2835.5807  2859.591    2859.5807   110.3289    0.3318      1.8652      0.9067      1.9533      0.3273      0.1819      0.2023      
2835.791    -2835.7807  2859.791    2859.7807   108.1237    0.3333      1.8806      0.9144      1.9575      0.3305      0.1738      0.195       
2835.991    -2835.9807  2859.991    2859.9807   103.4956    0.3328      1.8607      0.9101      1.9521      0.3338      0.1656      0.1877      
2836.191    -2836.1807  2860.191    2860.1807   101.6873    0.3329      1.904       0.9334      1.9638      0.3239      0.1902      0.2098      
2836.391    -2836.3807  2860.391    2860.3807   101.176     0.3332      1.8871      0.9251      1.9593      0.314       0.215       0.2319      
2836.591    -2836.5807  2860.591    2860.5807   101.1385    0.3325      1.8752      0.9248      1.956       0.2952      0.2621      0.2752      
2836.791    -2836.7807  2860.791    2860.7807   101.9719    0.3325      1.8637      0.9313      1.9529      0.2763      0.3093      0.3185      
2836.991    -2836.9807  2860.991    2860.9807   105.3125    0.3344      1.8341      0.9275      1.9447      0.2574      0.3567      0.3619      
2837.191    -2837.1807  2861.191    2861.1807   108.6999    0.3354      1.8311      0.9272      2.0151      0.2378      0.3797      0.3975      
2837.391    -2837.3807  2861.391    2861.3807   110.6408    0.3348      1.851       0.9247      2.0798      0.218       0.4029      0.4334      
2837.591    -2837.5807  2861.591    2861.5807   114.2484    0.335       1.853       0.9072      2.1152      0.223       0.4027      0.4265      
2837.791    -2837.7807  2861.791    2861.7807   111.9017    0.3353      1.8543      0.8912      2.1106      0.228       0.4025      0.4194      
2837.991    -2837.9807  2861.991    2861.9807   115.1317    0.3344      1.8837      0.8902      2.0989      0.233       0.4023      0.4123      
2838.191    -2838.1807  2862.191    2862.1807   116.342     0.3353      1.9407      0.9069      2.0958      0.2321      0.3914      0.4084      
2838.391    -2838.3807  2862.391    2862.3807   111.3845    0.3367      1.969       0.9155      2.0915      0.2313      0.3805      0.4047      
2838.591    -2838.5807  2862.591    2862.5807   113.0309    0.3353      1.971       0.9165      2.1013      0.2386      0.3393      0.3724      
2838.791    -2838.7808  2862.791    2862.7808   113.2021    0.3346      1.9657      0.9146      2.1437      0.246       0.2979      0.3398      
2838.991    -2838.9808  2862.991    2862.9808   99.1592     0.3364      2.0139      0.9322      2.1704      0.2535      0.2561      0.307       
2839.191    -2839.1808  2863.191    2863.1808   90.291      0.3362      2.0339      0.9361      2.125       0.2485      0.2693      0.321       
2839.391    -2839.3808  2863.391    2863.3808   93.1101     0.3345      2.0755      0.9511      2.0761      0.2435      0.2827      0.3351      
2839.591    -2839.5808  2863.591    2863.5808   96.9701     0.3348      2.1019      0.9619      2.0895      0.2512      0.2626      0.3138      
2839.791    -2839.7808  2863.791    2863.7808   100.4039    0.336       2.1004      0.9645      2.1226      0.259       0.2423      0.2923      
2839.991    -2839.9808  2863.991    2863.9808   105.3092    0.3358      2.1087      0.9733      2.1361      0.2667      0.222       0.2708      
2840.191    -2840.1808  2864.191    2864.1808   105.5595    0.3347      2.0884      0.9759      2.1164      0.2815      0.1721      0.2228      
2840.391    -2840.3808  2864.391    2864.3808   102.5922    0.3341      2.04        0.9746      2.0804      0.2964      0.1216      0.1743      
2840.591    -2840.5808  2864.591    2864.5808   101.0269    0.3341      1.9956      0.977       2.046       0.294       0.1203      0.1745      
2840.791    -2840.7808  2864.791    2864.7808   99.493      0.3336      1.9877      0.9944      2.0085      0.2915      0.119       0.1747      
2840.991    -2840.9809  2864.991    2864.9809   98.5995     0.3341      1.9971      1.0122      2.0017      0.2891      0.1176      0.1749      
2841.191    -2841.1809  2865.191    2865.1809   93.4696     0.336       2.0112      1.0238      2.0485      0.2861      0.1496      0.2016      
2841.391    -2841.3809  2865.391    2865.3809   92.0542     0.3371      2.0004      1.0176      2.0813      0.2832      0.1819      0.2284      
2841.591    -2841.5809  2865.591    2865.5809   90.4818     0.3385      1.9913      1.0095      2.0512      0.2751      0.2304      0.2674      
2841.791    -2841.7809  2865.791    2865.7809   88.5529     0.3402      1.9527      0.9825      2.0062      0.2669      0.2791      0.3064      
2841.991    -2841.9809  2865.991    2865.9809   103.1081    0.338       1.9576      0.9749      1.9781      0.2587      0.3278      0.3454      
2842.191    -2842.1809  2866.191    2866.1809   112.7949    0.3344      1.961       0.9637      2.0302      0.2336      0.3842      0.4042      
