#----------------------------------------------------------------------------
~VERSION INFORMATION
VERS.            2.0                  :CWLS LOG ASCII STANDARD -VERSION 2.0
WRAP.            NO                   :ONE LINE PER DEPTH STEP
#
#--------------------------------------------------------------------
~WELL INFORMATION
#MNEM .UNIT      DATA                 :DESCRIPTION OF MNEMONIC
#----------      ------------         -------------------------------
STRT  .m         3166.1892            :START DEPTH
STEP  .m         0.2                  :STEP DEPTH
STOP  .m         3426.1892            :STOP DEPTH
NULL  .          -999.25              :NULL VALUE
COMP  .                               :COMPANY
WELL  .                               :WELL
LOC   .                               :LOCATION - AREA
FLD   .          	              :FIELD
CTRY  .                               :COUNTRY
DATE  .                               :WELL DATE
UWI   .            	              :UWI
ZSTK  .          TVDss                :Z-STICK
XWELL .m         	              :X POS
YWELL .m         	              :Y POS
EDF   .          14.0                 :DERRICK FLOOR ELEVATION
#
#----------------------------------------------------------------------------
~CURVE INFORMATION
#MNEM.UNIT                                              : CURVE DESCRIPTION
#----------                                             -------------------------------
DEPT                    .m                              : 1      DEPTH
MD                      .m                              : 2      Depth
GR                      .API                            : 3      GR
CALIPER                 .m                              : 4      Cal
VP                      .km/s                           : 5      Vp
Vs_calculado_de_VPVS    .km/s                           : 6      Vs
RHO                     .g/cm3                          : 7      Rho
Porosidade              .fract                          : 8      Por
Argilosidade            .fract                          : 9      Volume
Saturacao               .fract                          : 10     Sat
#
#----------------------------------------------------------------------------
~A                      MD                      GR                      CALIPER                 VP                      Vs_calculado_de_VPVS    RHO                     Porosidade              Argilosidade            Saturacao               
# ...
3234.1892               3248.1892               104.1727                0.3149                  2.3454                  1.2066                  2.1326                  0.3024                  0.0159                  0.104                   
3234.3892               3248.3892               102.91                  0.3156                  2.361                   1.2117                  2.1523                  0.2758                  0.0589                  0.1086                  
3234.5892               3248.5892               102.0229                0.3167                  2.3782                  1.2153                  2.1716                  0.2471                  0.1048                  0.1141                  
3234.7892               3248.7892               97.7717                 0.3166                  2.3923                  1.2213                  2.1871                  0.2224                  0.1837                  0.1083                  
3234.9892               3248.9892               89.2155                 0.3145                  2.4005                  1.2247                  2.195                   0.1951                  0.2844                  0.0978                  
3235.1892               3249.1892               82.4482                 0.3143                  2.4026                  1.2229                  2.1931                  0.2028                  0.2829                  0.098                   
3235.3892               3249.3892               80.9433                 0.3154                  2.4008                  1.2217                  2.1821                  0.2493                  0.1888                  0.1075                  
3235.5892               3249.5892               84.2493                 0.3147                  2.398                   1.2195                  2.1656                  0.3121                  0.0519                  0.1205                  
3235.7892               3249.7892               91.9092                 0.3154                  2.3969                  1.2124                  2.1487                  0.323                   0.025                   0.1298                  
3235.9892               3249.9892               98.4259                 0.3174                  2.3981                  1.208                   2.135                   0.3287                  0.0087                  0.1379                  
3236.1892               3250.1892               101.0255                0.3163                  2.4006                  1.208                   2.1268                  0.3234                  0.0219                  0.1514                  
3236.3892               3250.3892               102.1461                0.3144                  2.4026                  1.2062                  2.1249                  0.3038                  0.0733                  0.1724                  
3236.5892               3250.5892               103.5743                0.3152                  2.4022                  1.2005                  2.1276                  0.2781                  0.1356                  0.1955                  
3236.7892               3250.7892               105.4158                0.3164                  2.3985                  1.1938                  2.1319                  0.2746                  0.1712                  0.2094                  
3236.9892               3250.9892               107.0847                0.3155                  2.3926                  1.1915                  2.1355                  0.2733                  0.2021                  0.2216                  
3237.1892               3251.1892               111.4394                0.3145                  2.3868                  1.1984                  2.1371                  0.2711                  0.2323                  0.2366                  
3237.3892               3251.3892               111.9261                0.3151                  2.3838                  1.2088                  2.137                   0.2676                  0.2612                  0.2557                  
3237.5892               3251.5892               110.1826                0.3166                  2.3852                  1.2109                  2.1362                  0.2634                  0.2924                  0.2756                  
3237.7892               3251.7892               105.8808                0.317                   2.3917                  1.2095                  2.1362                  0.2634                  0.3018                  0.2936                  
3237.9892               3251.9892               108.4696                0.3159                  2.4043                  1.2122                  2.1388                  0.264                   0.3074                  0.3102                  
3238.1892               3252.1892               116.9502                0.3154                  2.4244                  1.2218                  2.146                   0.253                   0.341                   0.3474                  
3238.3892               3252.3892               123.1093                0.3166                  2.4531                  1.2389                  2.1582                  0.2227                  0.4181                  0.4145                  
3238.5892               3252.5892               124.2292                0.3184                  2.4902                  1.2362                  2.1748                  0.1897                  0.501                   0.4879                  
3238.7892               3252.7892               118.0102                0.3202                  2.533                   1.1829                  2.195                   0.1477                  0.6136                  0.5489                  
3238.9892               3252.9892               108.4243                0.3213                  2.5773                  1.1103                  2.2181                  0.1024                  0.7373                  0.6056                  
3239.1892               3253.1892               105.8197                0.322                   2.6172                  1.0412                  2.2423                  0.0681                  0.8294                  0.6908                  
3239.3892               3253.3892               106.2467                0.3237                  2.6474                  0.9853                  2.2667                  0.0482                  0.8796                  0.815                   
3239.5892               3253.5892               106.5756                0.3253                  2.6657                  0.9658                  2.291                   0.0297                  0.9256                  0.9619                  
3239.7892               3253.7892               104.5007                0.3253                  2.6734                  0.9782                  2.3144                  0.018                   0.9549                  0.9842                  
3239.9892               3253.9892               102.7203                0.3253                  2.6742                  1.0005                  2.3349                  0.0071                  0.9824                  0.9944                  
3240.1892               3254.1892               102.5465                0.3268                  2.6712                  1.0161                  2.3498                  8.0E-4                  0.9962                  0.9794                  
3240.3892               3254.3892               103.2205                0.3275                  2.6662                  1.0146                  2.357                   0.0011                  0.9926                  0.9289                  
3240.5892               3254.5892               102.2345                0.325                   2.6592                  1.0001                  2.3561                  0.0019                  0.9869                  0.8633                  
3240.7892               3254.7892               100.7738                0.3235                  2.6499                  0.9873                  2.3476                  0.021                   0.927                   0.8992                  
