#----------------------------------------------------------------------------
~VERSION INFORMATION
VERS.            2.0                  :CWLS LOG ASCII STANDARD -VERSION 2.0
WRAP.            NO                   :ONE LINE PER DEPTH STEP
#
#--------------------------------------------------------------------
~WELL INFORMATION
#MNEM .UNIT      DATA                 :DESCRIPTION OF MNEMONIC
#----------      ------------         -------------------------------
STRT  .m         2910.0               :START DEPTH
STEP  .m         0.2                  :STEP DEPTH
STOP  .m         3110.0               :STOP DEPTH
NULL  .          -999.25              :NULL VALUE
COMP  .                               :COMPANY
WELL  .                               :WELL
LOC   .                               :LOCATION - AREA
FLD   .                               :FIELD
CTRY  .                               :COUNTRY
DATE  .                               :WELL DATE
UWI   .                               :UWI
ZSTK  .          TVDss                :Z-STICK
XWELL .m         	              :X POS
YWELL .m         	              :Y POS
EDF   .          14.0                 :DERRICK FLOOR ELEVATION
#
#----------------------------------------------------------------------------
~CURVE INFORMATION
#MNEM.UNIT                                  : CURVE DESCRIPTION
#----------                                 -------------------------------
DEPT        .m                              : 1      DEPTH
MD          .m                              : 2      Depth
GR          .API                            : 3      GR
CALIPER     .m                              : 4      Cal
VP          .km/s                           : 5      Vp
VS          .km/s                           : 6      Vs
RHO         .g/cm3                          : 7      Rho
Porosidade  .fract                          : 8      Por
Argilosidade.fract                          : 9      Volume
Saturacao   .fract                          : 10     Sat
#
#----------------------------------------------------------------------------
~A          MD          GR          CALIPER     VP          VS          RHO         Porosidade  Argilosidade Saturacao   
# ...
3044.0      3056.9611   105.7292    0.3094      3.0142      1.3393      2.2362      0.1754      0.3993      0.2874      
3044.2      3057.1609   102.9491    0.3097      3.0378      1.3536      2.2201      0.1981      0.3362      0.2817      
3044.4      3057.3607   100.9505    0.3101      3.033       1.3656      2.2169      0.2123      0.2805      0.2829      
3044.6      3057.5606   102.335     0.31        2.9942      1.3488      2.2142      0.2204      0.2469      0.2881      
3044.8      3057.7603   103.3398    0.3087      2.932       1.335       2.2103      0.2331      0.1965      0.2944      
3045.0      3057.9601   105.1479    0.3079      2.9153      1.356       2.2133      0.2346      0.1781      0.301       
3045.2      3058.1599   108.3604    0.3083      2.9596      1.3756      2.2283      0.2125      0.244       0.3126      
3045.4      3058.3597   108.3102    0.309       3.0341      1.3724      2.2387      0.1924      0.3156      0.3262      
3045.6      3058.5595   105.6886    0.3091      3.0391      1.362       2.2298      0.2017      0.2966      0.328       
3045.8      3058.7593   108.3714    0.3089      3.0024      1.3793      2.2095      0.2196      0.2644      0.3288      
3046.0      3058.9591   116.7721    0.3089      2.9441      1.3982      2.2046      0.2091      0.3308      0.3594      
3046.2      3059.1589   123.6627    0.3094      2.8939      1.4006      2.2113      0.1799      0.4563      0.4098      
3046.4      3059.3587   122.2772    0.3097      2.8659      1.404       2.2161      0.1691      0.4978      0.431       
3046.6      3059.5585   115.6627    0.3094      2.839       1.406       2.2084      0.1794      0.47        0.4111      
3046.8      3059.7583   108.2724    0.3089      2.8305      1.396       2.188       0.1989      0.4339      0.3605      
3047.0      3059.9581   105.1562    0.3087      2.8472      1.3944      2.1692      0.2233      0.3667      0.3014      
3047.2      3060.1578   104.8697    0.3089      2.8493      1.3728      2.1681      0.2449      0.2664      0.2667      
3047.4      3060.3576   102.9494    0.3091      2.8404      1.3036      2.1759      0.2546      0.1978      0.264       
3047.6      3060.5574   97.1745     0.3091      2.8392      1.2692      2.1794      0.2607      0.1554      0.2646      
3047.8      3060.7572   93.062      0.3089      2.8186      1.2601      2.1834      0.2652      0.1188      0.2575      
3048.0      3060.9571   90.8495     0.3089      2.7744      1.2599      2.1908      0.2601      0.1244      0.2509      
3048.2      3061.1569   89.5866     0.3089      2.784       1.266       2.1939      0.2529      0.1511      0.2456      
3048.4      3061.3566   91.323      0.3089      2.7946      1.2679      2.1923      0.2542      0.1479      0.2403      
3048.6      3061.5564   96.5935     0.3091      2.7733      1.2668      2.1924      0.2515      0.1598      0.2347      
3048.8      3061.7562   103.3855    0.3091      2.7565      1.2911      2.1951      0.235       0.2344      0.2324      
3049.0      3061.956    107.5972    0.3091      2.7843      1.3201      2.1976      0.2203      0.3003      0.2387      
3049.2      3062.1558   105.8678    0.3091      2.8114      1.3729      2.1954      0.2272      0.2704      0.2472      
3049.4      3062.3556   101.862     0.3087      2.842       1.4879      2.1952      0.2426      0.1901      0.2536      
3049.6      3062.5554   100.4566    0.309       2.9711      1.6212      2.228       0.2211      0.184       0.2606      
3049.8      3062.7552   96.8286     0.3112      3.2618      1.7174      2.3212      0.1489      0.2754      0.2597      
3050.0      3062.955    92.3483     0.3128      3.5312      1.751       2.3909      0.0861      0.3842      0.264       
3050.2      3063.1548   92.7202     0.3124      3.4784      1.7602      2.367       0.0924      0.4202      0.2905      
3050.4      3063.3546   94.7971     0.3107      3.1945      1.7355      2.286       0.1504      0.3673      0.3059      
3050.6      3063.5544   96.4651     0.3095      2.9742      1.6312      2.2234      0.2091      0.2698      0.291       
3050.8      3063.7542   98.6611     0.3089      2.9142      1.5063      2.1948      0.2361      0.2264      0.2732      
3051.0      3063.954    100.7602    0.3087      2.8486      1.4645      2.189       0.2353      0.2534      0.2705      
3051.2      3064.1537   102.4169    0.3086      2.8225      1.4681      2.179       0.2385      0.2669      0.2728      
3051.4      3064.3535   104.5741    0.3086      2.8541      1.4847      2.1614      0.2584      0.2209      0.2741      
3051.6      3064.5534   104.5945    0.3089      2.8251      1.4543      2.1502      0.2683      0.2026      0.2742      
3051.8      3064.7532   101.057     0.3091      2.7774      1.413       2.1499      0.2548      0.2753      0.2746      
3052.0      3064.953    97.0559     0.309       2.7536      1.3845      2.148       0.2409      0.3529      0.2677      
3052.2      3065.1528   95.8657     0.3085      2.7311      1.3775      2.1383      0.2517      0.3256      0.2468      
3052.4      3065.3526   97.554      0.3084      2.7168      1.3708      2.1272      0.2809      0.2158      0.2262      
3052.6      3065.5524   100.9701    0.3087      2.72        1.3459      2.1175      0.311       0.0963      0.2152      
3052.8      3065.7522   100.5815    0.3091      2.7358      1.2886      2.1125      0.3309      0.0131      0.2067      
3053.0      3065.952    97.6348     0.3094      2.7392      1.2719      2.1118      0.3344      0.0         0.2001      
3053.2      3066.1517   97.2745     0.3093      2.7175      1.2796      2.1113      0.3226      0.0569      0.198       
3053.4      3066.3515   97.7617     0.3089      2.7084      1.2695      2.1151      0.3005      0.1556      0.1997      
3053.6      3066.5513   95.4393     0.309       2.699       1.3096      2.1236      0.2769      0.2469      0.2046      
3053.8      3066.7511   92.9878     0.3097      2.7308      1.3344      2.1315      0.2616      0.2974      0.2035      
3054.0      3066.9509   91.4283     0.3106      2.7393      1.355       2.1461      0.2514      0.295       0.1928      
3054.2      3067.1507   87.9258     0.3114      2.7419      1.4083      2.2022      0.2199      0.2747      0.1913      
3054.4      3067.3505   83.9011     0.3119      2.8538      1.4958      2.3         0.165       0.2643      0.2134      
3054.6      3067.5504   84.345      0.3124      2.9662      1.4831      2.3487      0.1482      0.2225      0.2442      
3054.8      3067.7502   87.5391     0.3128      3.0633      1.4215      2.2917      0.1945      0.1444      0.2512      
3055.0      3067.9499   88.5199     0.3123      3.0824      1.3377      2.2033      0.2538      0.1068      0.2305      
3055.2      3068.1497   88.6506     0.3109      2.9585      1.2771      2.1564      0.2839      0.1059      0.2117      
3055.4      3068.3495   92.2428     0.31        2.8932      1.256       2.1442      0.2947      0.0933      0.2128      
3055.6      3068.5493   96.0588     0.3098      2.8456      1.2789      2.1452      0.2906      0.1102      0.211       
3055.8      3068.7491   96.5878     0.3097      2.7896      1.3087      2.1565      0.2662      0.1948      0.2044      
3056.0      3068.9489   94.2141     0.3098      2.6719      1.3295      2.2017      0.2076      0.3317      0.2064      
3056.2      3069.1487   92.0995     0.3102      2.574       1.3584      2.31        0.1083      0.5063      0.2037      
3056.4      3069.3485   93.8584     0.3104      2.5808      1.3635      2.3969      0.0349      0.6288      0.2173      
3056.6      3069.5483   97.9774     0.3104      2.6233      1.3495      2.3579      0.0707      0.567       0.269       
3056.8      3069.7481   97.3772     0.3101      2.6479      1.3127      2.2354      0.1822      0.3582      0.2891      
3057.0      3069.9479   93.8345     0.3097      2.6636      1.2713      2.1551      0.2717      0.1676      0.2581      
3057.2      3070.1477   94.9477     0.3095      2.685       1.2439      2.1267      0.3101      0.0682      0.2437      
