#----------------------------------------------------------------------------
~VERSION INFORMATION
VERS.            2.0                  :CWLS LOG ASCII STANDARD -VERSION 2.0
WRAP.            NO                   :ONE LINE PER DEPTH STEP
#
#--------------------------------------------------------------------
~WELL INFORMATION
#MNEM .UNIT      DATA                 :DESCRIPTION OF MNEMONIC
#----------      ------------         -------------------------------
STRT  .m         2775.191             :START DEPTH
STEP  .m         0.2                  :STEP DEPTH
STOP  .m         3093.191             :STOP DEPTH
NULL  .          -999.25              :NULL VALUE
COMP  .                               :COMPANY
WELL  .                               :WELL
LOC   .                               :LOCATION - AREA
FLD   .                               :FIELD
CTRY  .                               :COUNTRY
DATE  .                               :WELL DATE
UWI   .                               :UWI
ZSTK  .          TVDss                :Z-STICK
XWELL .m         	              :X POS
YWELL .m         	              :Y POS
EDF   .          24.0                 :DERRICK FLOOR ELEVATION
#
#----------------------------------------------------------------------------
~CURVE INFORMATION
#MNEM.UNIT                                  : CURVE DESCRIPTION
#----------                                 -------------------------------
DEPT        .m                              : 1      DEPTH
COTA        .m                              : 2      Depth
Depth_TVDkb .m                              : 3      Depth
TVD         .m                              : 4      Depth
GR          .API                            : 5      GR
CALIPER     .m                              : 6      Cal
VP          .km/s                           : 7      Vp
VS          .km/s                           : 8      Vs
RHO         .g/cm3                          : 9      Rho
Porosidade  .fract                          : 10     Por
Argilosidade.fract                          : 11     Volume
Saturacao   .fract                          : 12     Sat
#
#----------------------------------------------------------------------------
~A          COTA        Depth_TVDkb TVD         GR          CALIPER     VP          VS          RHO         Porosidade  Argilosidade Saturacao   
# ...
2976.791    -2976.5866  3000.791    3000.5866   65.5932     0.3165      2.4807      1.0966      2.1013      0.3305      0.0         0.083       
2976.991    -2976.787   3000.991    3000.787    64.0276     0.317       2.4839      1.0966      2.1125      0.3281      0.0         0.0856      
2977.191    -2976.9875  3001.191    3000.9875   63.7128     0.316       2.4849      1.0968      2.1177      0.3263      0.0         0.088       
2977.391    -2977.188   3001.391    3001.188    65.1554     0.3147      2.4884      1.0965      2.1114      0.3292      0.0         0.0884      
2977.591    -2977.3884  3001.591    3001.3884   66.2842     0.3142      2.5129      1.1063      2.1059      0.3309      0.0         0.089       
2977.791    -2977.5889  3001.791    3001.5889   66.6095     0.3136      2.5202      1.1092      2.1032      0.3244      0.0         0.0913      
2977.991    -2977.7894  3001.991    3001.7894   64.7151     0.3131      2.5317      1.1185      2.1059      0.3187      0.0         0.0934      
2978.191    -2977.9899  3002.191    3001.9899   63.172      0.313       2.5268      1.1247      2.123       0.3135      0.0         0.0955      
2978.391    -2978.1904  3002.391    3002.1904   65.1099     0.3129      2.5333      1.1394      2.1386      0.3115      0.0         0.0974      
2978.591    -2978.3909  3002.591    3002.3909   65.9062     0.3125      2.5227      1.1488      2.1462      0.3095      0.0         0.0997      
2978.791    -2978.5914  3002.791    3002.5914   67.2626     0.3128      2.5344      1.1684      2.1466      0.3073      0.0         0.1052      
2978.991    -2978.792   3002.991    3002.792    66.9598     0.3132      2.5535      1.1867      2.1467      0.305       0.0         0.1106      
2979.191    -2978.9926  3003.191    3002.9926   65.8558     0.3125      2.5693      1.1983      2.1553      0.3031      0.0         0.1146      
2979.391    -2979.1931  3003.391    3003.1931   67.5808     0.3117      2.6177      1.2188      2.158       0.3021      0.0         0.113       
2979.591    -2979.3936  3003.591    3003.3936   68.3603     0.312       2.6391      1.2246      2.1566      0.3013      0.0         0.1116      
2979.791    -2979.5942  3003.791    3003.5942   68.8375     0.3128      2.6531      1.2257      2.1621      0.3013      0.0         0.1087      
2979.991    -2979.7948  3003.991    3003.7948   67.2316     0.3131      2.6977      1.2414      2.166       0.3013      0.0         0.106       
2980.191    -2979.9954  3004.191    3003.9954   64.9358     0.3126      2.7245      1.2524      2.1603      0.3009      0.0         0.1036      
2980.391    -2980.1959  3004.391    3004.1959   64.7392     0.3119      2.7337      1.2589      2.1574      0.2962      0.0         0.1024      
2980.591    -2980.3965  3004.591    3004.3965   64.6742     0.3122      2.7391      1.2672      2.1652      0.2935      0.0         0.1013      
2980.791    -2980.5972  3004.791    3004.5972   68.2878     0.3131      2.7393      1.2745      2.1716      0.2962      0.0         0.1012      
2980.991    -2980.7978  3004.991    3004.7978   69.2616     0.3133      2.6879      1.2596      2.1724      0.2987      0.0         0.1011      
2981.191    -2980.9984  3005.191    3004.9984   68.3722     0.3126      2.6569      1.2503      2.1679      0.2998      0.0         0.1019      
2981.391    -2981.199   3005.391    3005.199    68.0608     0.3123      2.6402      1.2393      2.1621      0.2944      0.0         0.1129      
2981.591    -2981.3997  3005.591    3005.3997   65.8661     0.3126      2.6399      1.2297      2.1665      0.2897      0.002       0.1209      
2981.791    -2981.6003  3005.791    3005.6003   71.4648     0.3131      2.6215      1.1942      2.1855      0.2855      0.0214      0.1244      
2981.991    -2981.801   3005.991    3005.801    74.786      0.3135      2.668       1.1786      2.192       0.2809      0.0392      0.1282      
2982.191    -2982.0016  3006.191    3006.0016   73.6033     0.3134      2.748       1.175       2.186       0.2792      0.0472      0.1296      
2982.391    -2982.2023  3006.391    3006.2023   70.9659     0.3128      2.7638      1.1686      2.1787      0.2897      0.0166      0.1206      
2982.591    -2982.4029  3006.591    3006.4029   67.8422     0.3124      2.6528      1.1406      2.1725      0.2961      0.0         0.1134      
2982.791    -2982.6037  3006.791    3006.6037   66.1943     0.3124      2.5834      1.1534      2.1698      0.2973      0.0         0.108       
2982.991    -2982.8044  3006.991    3006.8044   66.61       0.3123      2.5137      1.1757      2.1695      0.2987      0.0         0.1021      
2983.191    -2983.0051  3007.191    3007.0051   66.3721     0.3126      2.4667      1.2018      2.1662      0.2993      0.0         0.0993      
2983.391    -2983.2058  3007.391    3007.2058   65.3812     0.3129      2.455       1.2272      2.1636      0.2979      0.0         0.1041      
2983.591    -2983.4065  3007.591    3007.4065   66.0609     0.313       2.4851      1.252       2.1657      0.297       0.0         0.1074      
2983.791    -2983.6072  3007.791    3007.6072   66.3569     0.3131      2.4944      1.2551      2.1741      0.2963      0.0         0.1088      
2983.991    -2983.808   3007.991    3007.808    65.481      0.3127      2.4944      1.2468      2.181       0.2955      0.0         0.1104      
2984.191    -2984.0087  3008.191    3008.0087   66.2666     0.3121      2.5109      1.2457      2.1798      0.2948      0.0         0.1107      
2984.391    -2984.2095  3008.391    3008.2095   65.5561     0.3124      2.5167      1.2436      2.1727      0.2943      0.0         0.1068      
2984.591    -2984.4102  3008.591    3008.4102   65.4816     0.3133      2.5073      1.2335      2.1723      0.2936      2.0E-4      0.1054      
2984.791    -2984.611   3008.791    3008.611    65.257      0.3136      2.5268      1.234       2.175       0.2927      0.0012      0.1076      
2984.991    -2984.8118  3008.991    3008.8118   66.5526     0.313       2.5436      1.2328      2.1763      0.2918      0.0022      0.1098      
2985.191    -2985.0126  3009.191    3009.0126   66.4674     0.3124      2.5592      1.2278      2.1783      0.2905      0.0023      0.1105      
2985.391    -2985.2134  3009.391    3009.2134   66.8016     0.3128      2.5906      1.2318      2.1817      0.2881      7.0E-4      0.1091      
2985.591    -2985.4142  3009.591    3009.4142   69.0369     0.3138      2.6052      1.2348      2.1839      0.2875      0.0         0.1081      
2985.791    -2985.615   3009.791    3009.615    67.9296     0.3139      2.6054      1.2351      2.1828      0.2898      0.0         0.1073      
2985.991    -2985.8158  3009.991    3009.8158   66.5447     0.3126      2.5946      1.2326      2.1762      0.292       0.0         0.1064      
2986.191    -2986.0166  3010.191    3010.0166   65.6269     0.312       2.6058      1.2411      2.1739      0.2923      0.0         0.107       
2986.391    -2986.2175  3010.391    3010.2175   65.7725     0.3133      2.6236      1.2525      2.1773      0.289       0.0         0.1112      
2986.591    -2986.4183  3010.591    3010.4183   66.3597     0.314       2.5858      1.2437      2.1828      0.2862      0.0032      0.1137      
2986.791    -2986.6192  3010.791    3010.6192   64.5116     0.3134      2.5597      1.2373      2.1866      0.2834      0.016       0.1149      
2986.991    -2986.82    3010.991    3010.82     64.0126     0.3129      2.5707      1.2457      2.1876      0.2801      0.0285      0.1161      
2987.191    -2987.0213  3011.191    3011.0213   65.4787     0.3129      2.5839      1.2463      2.1873      0.2799      0.0284      0.1181      
2987.391    -2987.2229  3011.391    3011.2229   66.5776     0.3132      2.6065      1.246       2.186       0.2844      0.0073      0.1213      
2987.591    -2987.4245  3011.591    3011.4245   65.2028     0.3139      2.6693      1.2586      2.1855      0.2851      0.0         0.1247      
2987.791    -2987.6262  3011.791    3011.6262   65.1984     0.3136      2.7049      1.2633      2.1873      0.282       0.0         0.1288      
