#----------------------------------------------------------------------------
~VERSION INFORMATION
VERS.            2.0                  :CWLS LOG ASCII STANDARD -VERSION 2.0
WRAP.            NO                   :ONE LINE PER DEPTH STEP
#
#--------------------------------------------------------------------
~WELL INFORMATION
#MNEM .UNIT      DATA                 :DESCRIPTION OF MNEMONIC
#----------      ------------         -------------------------------
STRT  .m         3166.0               :START DEPTH
STEP  .m         0.2                  :STEP DEPTH
STOP  .m         3406.0               :STOP DEPTH
NULL  .          -999.25              :NULL VALUE
COMP  .          	              :COMPANY
WELL  .                               :WELL
LOC   .                               :LOCATION - AREA
FLD   .                               :FIELD
CTRY  .                               :COUNTRY
DATE  .                               :WELL DATE
UWI   .          	              :UWI
ZSTK  .          TVDss                :Z-STICK
XWELL .m         		      :X POS
YWELL .m         	              :Y POS
EDF   .          24.0                 :DERRICK FLOOR ELEVATION
#
#----------------------------------------------------------------------------
~CURVE INFORMATION
#MNEM.UNIT                                  : CURVE DESCRIPTION
#----------                                 -------------------------------
DEPT        .m                              : 1      DEPTH
MD          .m                              : 2      Depth
GR          .API                            : 3      GR
CALIPER     .m                              : 4      Cal
VP          .km/s                           : 5      Vp
VS          .km/s                           : 6      Vs
RHO         .g/cm3                          : 7      Rho
Porosidade  .fract                          : 8      Por
Argilosidade.fract                          : 9      Volume
Saturacao   .fract                          : 10     Sat
#
#----------------------------------------------------------------------------
~A          MD          GR          CALIPER     VP          VS          RHO         Porosidade  Argilosidade Saturacao   
# ...
3300.0      3324.0      86.6597     0.3168      2.7371      1.2393      2.1653      0.2676      0.1449      0.8298      
3300.2      3324.2      87.256      0.3169      2.745       1.2659      2.1858      0.2519      0.1787      0.8509      
3300.4      3324.4      86.8597     0.317       2.76        1.2815      2.1798      0.2587      0.1542      0.7612      
3300.6      3324.6      87.1764     0.3171      2.7792      1.2847      2.1592      0.2791      0.1266      0.6656      
3300.8      3324.8      87.6609     0.317       2.7989      1.2812      2.1474      0.2875      0.1295      0.6666      
3301.0      3325.0      87.3949     0.317       2.8162      1.2783      2.1447      0.3104      0.0441      0.6872      
3301.2      3325.2      88.8555     0.3171      2.8285      1.2831      2.1468      0.2951      0.0988      0.7806      
3301.4      3325.4      90.9981     0.3171      2.8316      1.2989      2.15        0.2501      0.2793      0.906       
3301.6      3325.6      92.4252     0.317       2.8257      1.3188      2.1406      0.2499      0.2967      0.9057      
3301.8      3325.8      93.8313     0.3169      2.8098      1.3298      2.1196      0.2886      0.1887      0.8085      
3302.0      3326.0      93.3901     0.3169      2.7884      1.3239      2.1176      0.3252      0.0322      0.7298      
3302.2      3326.2      93.2214     0.317       2.7666      1.2935      2.1443      0.2931      0.1076      0.7902      
3302.4      3326.4      98.2915     0.317       2.7488      1.2474      2.1587      0.2409      0.3096      0.8981      
3302.6      3326.6      100.5598    0.3171      2.7377      1.1994      2.137       0.2575      0.2975      0.8472      
3302.8      3326.8      97.53       0.317       2.7331      1.1615      2.1111      0.2769      0.2808      0.7981      
3303.0      3327.0      92.9362     0.3169      2.733       1.1382      2.1068      0.2935      0.2063      0.7811      
3303.2      3327.2      92.3418     0.3168      2.7369      1.1281      2.1156      0.2775      0.2543      0.8227      
3303.4      3327.4      94.2345     0.3169      2.7467      1.1276      2.121       0.284       0.2224      0.8232      
3303.6      3327.6      94.1565     0.3171      2.7639      1.131       2.1165      0.2408      0.3969      0.9231      
3303.8      3327.8      92.8231     0.3171      2.7848      1.1344      2.137       0.1951      0.4969      0.9964      
3304.0      3328.0      88.8081     0.3171      2.7993      1.134       2.2186      0.1551      0.4853      1.0         
3304.2      3328.2      86.8722     0.3172      2.7992      1.1284      2.2937      0.1365      0.3956      0.9991      
3304.4      3328.4      89.3961     0.3173      2.7858      1.1173      2.2722      0.1896      0.2645      1.0         
3304.6      3328.6      94.4716     0.3171      2.7684      1.1028      2.1933      0.2082      0.3665      0.9662      
3304.8      3328.8      98.6279     0.317       2.7571      1.0881      2.1435      0.2334      0.3664      0.8997      
3305.0      3329.0      100.2675    0.317       2.7543      1.076       2.1342      0.2831      0.1849      0.8212      
3305.2      3329.2      99.6182     0.317       2.7555      1.0688      2.1316      0.2943      0.1405      0.7958      
3305.4      3329.4      98.0829     0.317       2.7553      1.0666      2.1251      0.2558      0.3229      0.8706      
3305.6      3329.6      101.8564    0.3171      2.7484      1.0672      2.1299      0.2418      0.3621      0.8941      
3305.8      3329.8      112.1237    0.3171      2.7314      1.0677      2.152       0.2318      0.3613      0.922       
3306.0      3330.0      121.2444    0.3171      2.7069      1.0657      2.1735      0.213       0.3851      0.9264      
3306.2      3330.2      123.9399    0.3171      2.6803      1.0593      2.1813      0.1802      0.5117      0.9692      
3306.4      3330.4      126.6309    0.3172      2.6572      1.0492      2.1809      0.1273      0.6837      1.0         
3306.6      3330.6      130.1533    0.3173      2.641       1.0376      2.1795      0.0586      0.8534      0.9968      
3306.8      3330.8      129.5869    0.3173      2.6312      1.0267      2.1823      0.0398      0.9015      1.0         
3307.0      3331.0      126.2615    0.3173      2.6251      1.018       2.1857      0.0318      0.9181      0.9971      
3307.2      3331.2      124.228     0.3174      2.6202      1.0127      2.172       9.0E-4      0.9989      1.0         
3307.4      3331.4      119.6511    0.3174      2.6154      1.0111      2.1455      0.0235      0.9403      0.9879      
3307.6      3331.6      113.9914    0.3174      2.6112      1.0121      2.1397      0.1313      0.6718      0.9611      
3307.8      3331.8      114.1896    0.3174      2.6082      1.0148      2.1591      0.1206      0.6985      0.9919      
3308.0      3332.0      120.4147    0.3174      2.607       1.0171      2.1788      0.0806      0.798       1.0         
3308.2      3332.2      129.6658    0.3174      2.6069      1.0175      2.1902      0.1166      0.7095      0.9982      
3308.4      3332.4      133.2105    0.3174      2.6071      1.0156      2.1976      0.0962      0.7575      1.0         
3308.6      3332.6      130.5648    0.3177      2.6075      1.0115      2.2047      0.0118      0.9725      0.9987      
3308.8      3332.8      130.9175    0.3183      2.6081      1.006       2.2178      0.037       0.9006      1.0         
3309.0      3333.0      132.4327    0.3187      2.6093      1.0004      2.232       0.0777      0.7856      0.9991      
3309.2      3333.2      131.7957    0.3185      2.6114      0.9955      2.2334      0.0484      0.8717      1.0         
3309.4      3333.4      133.2446    0.3182      2.6136      0.9915      2.2271      0.0672      0.8342      0.9994      
3309.6      3333.6      134.3113    0.3182      2.6152      0.9887      2.2282      0.0589      0.8406      1.0         
3309.8      3333.8      133.7203    0.3183      2.6155      0.9873      2.2331      0.0872      0.7376      0.9996      
3310.0      3334.0      132.4796    0.3185      2.6157      0.9877      2.2312      0.027       0.9237      1.0         
3310.2      3334.2      130.5713    0.3187      2.6179      0.9906      2.2231      0.0012      0.9994      0.9997      
3310.4      3334.4      126.7899    0.3191      2.6239      0.996       2.2177      0.0386      0.9025      1.0         
3310.6      3334.6      121.4994    0.3196      2.6341      1.003       2.2242      0.0367      0.9104      0.9998      
3310.8      3334.8      118.3667    0.3196      2.6461      1.0098      2.2445      0.0133      0.9635      1.0         
3311.0      3335.0      118.393     0.3193      2.6552      1.0145      2.2603      0.0219      0.9419      0.9999      
3311.2      3335.2      120.1013    0.3192      2.6567      1.0153      2.2547      0.0556      0.8547      1.0         
3311.4      3335.4      123.8308    0.3188      2.6501      1.0118      2.2351      0.0748      0.8036      1.0         
3311.6      3335.6      127.0357    0.3184      2.6364      1.0044      2.2204      0.0572      0.852       1.0         
3311.8      3335.8      126.2743    0.3185      2.6202      0.9947      2.2137      0.0076      0.9841      1.0         
3312.0      3336.0      128.43      0.3188      2.6058      0.9845      2.2074      0.0399      0.8907      0.9997      
3312.2      3336.2      133.5613    0.319       2.5956      0.9752      2.2059      0.1186      0.6688      0.9985      
3312.4      3336.4      132.3424    0.3192      2.5907      0.9679      2.2124      0.0899      0.7683      0.9998      
3312.6      3336.6      132.2453    0.3189      2.5906      0.963       2.2111      0.0456      0.8854      1.0         
3312.8      3336.8      135.1306    0.3185      2.5934      0.9607      2.1972      0.1102      0.7086      1.0         
3313.0      3337.0      138.5644    0.3185      2.5962      0.9605      2.1891      0.1031      0.7422      1.0         
3313.2      3337.2      143.4948    0.3182      2.5966      0.9615      2.1934      0.0713      0.8216      1.0         
