#----------------------------------------------------------------------------
~VERSION INFORMATION
VERS.            2.0                  :CWLS LOG ASCII STANDARD -VERSION 2.0
WRAP.            NO                   :ONE LINE PER DEPTH STEP
#
#--------------------------------------------------------------------
~WELL INFORMATION
#MNEM .UNIT      DATA                 :DESCRIPTION OF MNEMONIC
#----------      ------------         -------------------------------
STRT  .m         3166.1892            :START DEPTH
STEP  .m         0.2                  :STEP DEPTH
STOP  .m         3426.1892            :STOP DEPTH
NULL  .          -999.25              :NULL VALUE
COMP  .                               :COMPANY
WELL  .                               :WELL
LOC   .                               :LOCATION - AREA
FLD   .          	              :FIELD
CTRY  .                               :COUNTRY
DATE  .                               :WELL DATE
UWI   .            	              :UWI
ZSTK  .          TVDss                :Z-STICK
XWELL .m         	              :X POS
YWELL .m         	              :Y POS
EDF   .          14.0                 :DERRICK FLOOR ELEVATION
#
#----------------------------------------------------------------------------
~CURVE INFORMATION
#MNEM.UNIT                                              : CURVE DESCRIPTION
#----------                                             -------------------------------
DEPT                    .m                              : 1      DEPTH
MD                      .m                              : 2      Depth
GR                      .API                            : 3      GR
CALIPER                 .m                              : 4      Cal
VP                      .km/s                           : 5      Vp
Vs_calculado_de_VPVS    .km/s                           : 6      Vs
RHO                     .g/cm3                          : 7      Rho
Porosidade              .fract                          : 8      Por
Argilosidade            .fract                          : 9      Volume
Saturacao               .fract                          : 10     Sat
#
#----------------------------------------------------------------------------
~A                      MD                      GR                      CALIPER                 VP                      Vs_calculado_de_VPVS    RHO                     Porosidade              Argilosidade            Saturacao               
# ...
3315.7892               3329.7892               110.008                 0.3159                  2.5794                  1.108                   2.164                   0.2762                  0.1211                  0.1031                  
3315.9892               3329.9892               109.1978                0.3155                  2.5874                  1.0919                  2.1621                  0.2796                  0.1095                  0.1146                  
3316.1892               3330.1892               106.2042                0.3139                  2.601                   1.0772                  2.1601                  0.2794                  0.115                   0.1157                  
3316.3892               3330.3892               102.0415                0.3156                  2.6218                  1.0699                  2.1577                  0.2761                  0.139                   0.1083                  
3316.5892               3330.5892               98.4168                 0.3164                  2.6494                  1.0717                  2.1547                  0.2718                  0.1693                  0.0978                  
3316.7892               3330.7892               96.4869                 0.3147                  2.6798                  1.0755                  2.1513                  0.2809                  0.1324                  0.1044                  
3316.9892               3330.9892               99.1851                 0.3128                  2.7069                  1.0743                  2.1475                  0.2936                  0.0798                  0.1147                  
3317.1892               3331.1892               103.5262                0.3123                  2.7238                  1.0651                  2.1436                  0.2987                  0.0649                  0.1145                  
3317.3892               3331.3892               105.044                 0.3129                  2.7252                  1.0497                  2.1398                  0.296                   0.0861                  0.1052                  
3317.5892               3331.5892               105.0768                0.3137                  2.7114                  1.0416                  2.1362                  0.292                   0.1167                  0.0928                  
3317.7892               3331.7892               108.608                 0.3148                  2.6888                  1.053                   2.1329                  0.2952                  0.1115                  0.0916                  
3317.9892               3331.9892               112.6168                0.3171                  2.6669                  1.0784                  2.1302                  0.2995                  0.1032                  0.0909                  
3318.1892               3332.1892               111.8868                0.3179                  2.6538                  1.0881                  2.1282                  0.3037                  0.087                   0.1019                  
3318.3892               3332.3892               105.5082                0.3156                  2.6526                  1.0733                  2.127                   0.3083                  0.0602                  0.1292                  
3318.5892               3332.5892               98.0411                 0.3131                  2.6619                  1.0453                  2.1272                  0.3135                  0.0287                  0.1611                  
3318.7892               3332.7892               95.1367                 0.3134                  2.6774                  1.0387                  2.1292                  0.3105                  0.0355                  0.1684                  
3318.9892               3332.9892               93.781                  0.3143                  2.6952                  1.0573                  2.133                   0.3066                  0.0452                  0.1733                  
3319.1892               3333.1892               92.2646                 0.3132                  2.7123                  1.0915                  2.1385                  0.2958                  0.0792                  0.1929                  
3319.3892               3333.3892               87.5388                 0.3133                  2.7287                  1.1194                  2.1457                  0.2757                  0.1457                  0.2321                  
3319.5892               3333.5892               79.6301                 0.3154                  2.7457                  1.1291                  2.154                   0.2538                  0.2178                  0.2785                  
3319.7892               3333.7892               75.2015                 0.3159                  2.7636                  1.1224                  2.1629                  0.2415                  0.2692                  0.282                   
3319.9892               3333.9892               74.6873                 0.3148                  2.7812                  1.1006                  2.1717                  0.2293                  0.3238                  0.2833                  
3320.1892               3334.1892               78.0086                 0.313                   2.7966                  1.0724                  2.1797                  0.2259                  0.3213                  0.2744                  
3320.3892               3334.3892               82.4962                 0.3135                  2.808                   1.0522                  2.1862                  0.2309                  0.2678                  0.2511                  
3320.5892               3334.5892               85.6238                 0.3132                  2.815                   1.0497                  2.1909                  0.2377                  0.198                   0.2242                  
3320.7892               3334.7892               85.9334                 0.3108                  2.8179                  1.064                   2.1932                  0.2407                  0.1828                  0.2177                  
3320.9892               3334.9892               83.3914                 0.3124                  2.8178                  1.0876                  2.1936                  0.2432                  0.1714                  0.2123                  
3321.1892               3335.1892               80.2493                 0.3154                  2.8153                  1.1098                  2.1928                  0.247                   0.1639                  0.2108                  
3321.3892               3335.3892               79.5089                 0.316                   2.8103                  1.1263                  2.1918                  0.2523                  0.162                   0.2131                  
3321.5892               3335.5892               78.929                  0.3157                  2.8025                  1.1395                  2.1917                  0.2586                  0.1601                  0.2159                  
3321.7892               3335.7892               78.2453                 0.3146                  2.7918                  1.1496                  2.1931                  0.2502                  0.1733                  0.2285                  
3321.9892               3335.9892               80.0399                 0.3147                  2.7788                  1.1538                  2.196                   0.239                   0.1898                  0.2428                  
3322.1892               3336.1892               82.8219                 0.3139                  2.7652                  1.1516                  2.1993                  0.2312                  0.2112                  0.2689                  
3322.3892               3336.3892               83.2243                 0.3095                  2.7531                  1.1487                  2.2018                  0.2275                  0.2389                  0.3102                  
