#----------------------------------------------------------------------------
~VERSION INFORMATION
VERS.            2.0                  :CWLS LOG ASCII STANDARD -VERSION 2.0
WRAP.            NO                   :ONE LINE PER DEPTH STEP
#
#--------------------------------------------------------------------
~WELL INFORMATION
#MNEM .UNIT      DATA                 :DESCRIPTION OF MNEMONIC
#----------      ------------         -------------------------------
STRT  .m         3166.0               :START DEPTH
STEP  .m         0.2                  :STEP DEPTH
STOP  .m         3406.0               :STOP DEPTH
NULL  .          -999.25              :NULL VALUE
COMP  .          	              :COMPANY
WELL  .                               :WELL
LOC   .                               :LOCATION - AREA
FLD   .                               :FIELD
CTRY  .                               :COUNTRY
DATE  .                               :WELL DATE
UWI   .          	              :UWI
ZSTK  .          TVDss                :Z-STICK
XWELL .m         		      :X POS
YWELL .m         	              :Y POS
EDF   .          24.0                 :DERRICK FLOOR ELEVATION
#
#----------------------------------------------------------------------------
~CURVE INFORMATION
#MNEM.UNIT                                  : CURVE DESCRIPTION
#----------                                 -------------------------------
DEPT        .m                              : 1      DEPTH
MD          .m                              : 2      Depth
GR          .API                            : 3      GR
CALIPER     .m                              : 4      Cal
VP          .km/s                           : 5      Vp
VS          .km/s                           : 6      Vs
RHO         .g/cm3                          : 7      Rho
Porosidade  .fract                          : 8      Por
Argilosidade.fract                          : 9      Volume
Saturacao   .fract                          : 10     Sat
#
#----------------------------------------------------------------------------
~A          MD          GR          CALIPER     VP          VS          RHO         Porosidade  Argilosidade Saturacao   
# ...
3273.2      3297.2      96.1777     0.3157      2.5909      1.0512      2.1432      0.254       0.2625      0.3682      
3273.4      3297.4      98.0682     0.3158      2.5413      1.0529      2.1377      0.3164      0.0518      0.3408      
3273.6      3297.6      99.6474     0.3159      2.5095      1.0603      2.1358      0.3021      0.102       0.3492      
3273.8      3297.8      96.8961     0.3158      2.4944      1.0737      2.1287      0.1772      0.5451      0.4141      
3274.0      3298.0      94.6004     0.3158      2.4896      1.0921      2.1215      0.2263      0.434       0.3783      
3274.2      3298.2      96.2869     0.3158      2.4888      1.1131      2.1283      0.3005      0.1374      0.3416      
3274.4      3298.4      95.9365     0.3158      2.4887      1.1324      2.1424      0.3181      0.0132      0.337       
3274.6      3298.6      96.0275     0.3158      2.4881      1.1444      2.1472      0.3069      0.0586      0.3395      
3274.8      3298.8      105.8849    0.3158      2.4875      1.1463      2.1506      0.263       0.2332      0.3766      
3275.0      3299.0      112.735     0.3159      2.4885      1.1387      2.1601      0.2288      0.3509      0.4469      
3275.2      3299.2      109.0763    0.316       2.4928      1.1244      2.159       0.2045      0.4605      0.4902      
3275.4      3299.4      101.4042    0.316       2.4997      1.1086      2.1426      0.2252      0.4116      0.4528      
3275.6      3299.6      94.5412     0.3159      2.5072      1.0954      2.1305      0.2481      0.3435      0.4058      
3275.8      3299.8      92.7877     0.3158      2.5133      1.0871      2.131       0.2562      0.3143      0.3828      
3276.0      3300.0      94.428      0.3158      2.5176      1.0844      2.1368      0.2912      0.141       0.36        
3276.2      3300.2      97.0942     0.3158      2.5214      1.0853      2.1482      0.308       0.0273      0.3591      
3276.4      3300.4      99.3178     0.3159      2.5262      1.0885      2.1669      0.2632      0.1859      0.4027      
3276.6      3300.6      100.948     0.3158      2.5329      1.0923      2.1787      0.1742      0.5324      0.5011      
3276.8      3300.8      98.8151     0.3157      2.5412      1.0974      2.1735      0.1513      0.6061      0.5428      
3277.0      3301.0      93.5445     0.3158      2.5505      1.1053      2.1648      0.2417      0.273       0.4626      
3277.2      3301.2      90.0972     0.3158      2.5591      1.1168      2.164       0.259       0.2152      0.4363      
3277.4      3301.4      91.6928     0.3158      2.5663      1.1306      2.1669      0.2199      0.3666      0.4642      
3277.6      3301.6      97.1768     0.3158      2.5728      1.1433      2.1784      0.2154      0.3506      0.4853      
3277.8      3301.8      104.4852    0.3157      2.579       1.151       2.2112      0.1403      0.5797      0.5927      
3278.0      3302.0      110.8489    0.3158      2.5862      1.1522      2.2421      0.0288      0.9252      0.6799      
3278.2      3302.2      109.83      0.3159      2.5962      1.1492      2.2338      0.0068      0.9841      0.6888      
3278.4      3302.4      103.0683    0.3159      2.6111      1.1459      2.1963      0.0928      0.7585      0.6155      
3278.6      3302.6      95.9564     0.3158      2.6314      1.1459      2.1617      0.247       0.2653      0.4263      
3278.8      3302.8      91.9243     0.3158      2.6518      1.1507      2.1355      0.2989      0.1235      0.3327      
3279.0      3303.0      92.1996     0.3159      2.6617      1.1588      2.1229      0.2561      0.3255      0.3264      
3279.2      3303.2      94.2873     0.316       2.6551      1.1654      2.1257      0.302       0.1309      0.3073      
3279.4      3303.4      93.6752     0.3161      2.6286      1.1666      2.1299      0.3158      0.0646      0.3128      
3279.6      3303.6      91.4691     0.3161      2.5886      1.161       2.1354      0.3157      0.0528      0.3227      
3279.8      3303.8      92.4054     0.316       2.5463      1.1488      2.1444      0.2849      0.1437      0.3658      
3280.0      3304.0      94.3966     0.316       2.5096      1.1325      2.1413      0.2594      0.2714      0.3937      
3280.2      3304.2      95.0083     0.316       2.4823      1.1156      2.1293      0.2865      0.1821      0.399       
3280.4      3304.4      98.6682     0.3159      2.4645      1.1006      2.1222      0.2892      0.1856      0.4118      
3280.6      3304.6      102.0235    0.3158      2.4547      1.0888      2.1144      0.2723      0.266       0.459       
3280.8      3304.8      101.3881    0.3159      2.4521      1.0804      2.1054      0.2697      0.3033      0.4897      
3281.0      3305.0      102.7029    0.3159      2.4557      1.0751      2.1116      0.2622      0.3081      0.5268      
3281.2      3305.2      108.9471    0.316       2.4675      1.0712      2.1353      0.2515      0.3147      0.5678      
3281.4      3305.4      114.5062    0.3159      2.486       1.0669      2.1628      0.187       0.4663      0.6871      
3281.6      3305.6      113.7194    0.3158      2.5072      1.0608      2.1854      0.0415      0.8873      0.9147      
3281.8      3305.8      114.0629    0.3159      2.5265      1.0524      2.2005      0.1083      0.7187      0.8855      
3282.0      3306.0      118.9396    0.3159      2.5402      1.042       2.1997      0.2075      0.3504      0.7243      
3282.2      3306.2      117.9816    0.316       2.5464      1.0317      2.1769      0.1966      0.4419      0.7183      
3282.4      3306.4      115.5918    0.3159      2.5472      1.0252      2.1481      0.1958      0.5108      0.7067      
3282.6      3306.6      116.883     0.3158      2.548       1.0246      2.1353      0.1933      0.5136      0.7364      
3282.8      3306.8      116.816     0.3158      2.5552      1.0326      2.1334      0.1887      0.5302      0.7746      
3283.0      3307.0      115.9301    0.3158      2.5749      1.0509      2.1308      0.239       0.3595      0.7037      
3283.2      3307.2      111.8746    0.3157      2.6137      1.0786      2.1425      0.3019      0.0798      0.6133      
3283.4      3307.4      104.7109    0.3157      2.6758      1.1118      2.2024      0.2563      0.1173      0.7296      
3283.6      3307.6      96.908      0.3158      2.7593      1.1449      2.3177      0.1399      0.2961      0.9685      
3283.8      3307.8      90.7626     0.3159      2.8552      1.1714      2.4117      0.0884      0.305       0.9917      
3284.0      3308.0      91.7802     0.3159      2.9496      1.1863      2.3766      0.1114      0.3434      0.712       
3284.2      3308.2      97.3477     0.3159      3.0258      1.1873      2.234       0.2255      0.2473      0.4278      
3284.4      3308.4      103.362     0.3158      3.0717      1.1783      2.1276      0.3205      0.0425      0.3583      
3284.6      3308.6      105.651     0.3158      3.0853      1.1619      2.1116      0.3123      0.128       0.4533      
3284.8      3308.8      102.0917    0.3158      3.0767      1.1431      2.132       0.2659      0.2526      0.637       
3285.0      3309.0      99.7416     0.3158      3.0512      1.1245      2.1607      0.2538      0.228       0.74        
3285.2      3309.2      99.5036     0.3158      3.0226      1.1073      2.1925      0.2258      0.2707      0.7955      
3285.4      3309.4      97.531      0.3158      2.9987      1.0931      2.204       0.2013      0.34        0.8439      
3285.6      3309.6      95.8034     0.3158      2.9774      1.0852      2.1938      0.2071      0.3488      0.803       
3285.8      3309.8      95.856      0.3158      2.9529      1.0855      2.1798      0.2081      0.3826      0.7823      
3286.0      3310.0      95.1631     0.3158      2.92        1.0967      2.163       0.2438      0.277       0.7023      
3286.2      3310.2      92.5487     0.3159      2.8778      1.1164      2.1493      0.307       0.0315      0.6119      
3286.4      3310.4      91.736      0.3158      2.8294      1.1394      2.1579      0.3031      0.0215      0.6254      
