#----------------------------------------------------------------------------
~VERSION INFORMATION
VERS.            2.0                  :CWLS LOG ASCII STANDARD -VERSION 2.0
WRAP.            NO                   :ONE LINE PER DEPTH STEP
#
#--------------------------------------------------------------------
~WELL INFORMATION
#MNEM .UNIT      DATA                 :DESCRIPTION OF MNEMONIC
#----------      ------------         -------------------------------
STRT  .m         2796.1109            :START DEPTH
STEP  .m         0.2                  :STEP DEPTH
STOP  .m         3026.1109            :STOP DEPTH
NULL  .          -999.25              :NULL VALUE
COMP  .          	              :COMPANY
WELL  .                               :WELL
LOC   .                               :LOCATION - AREA
FLD   .                               :FIELD
CTRY  .                               :COUNTRY
DATE  .                               :WELL DATE
UWI   .          	              :UWI
ZSTK  .          TVDss                :Z-STICK
XWELL .m                              :X POS
YWELL .m                              :Y POS
EDF   .          30.0                 :DERRICK FLOOR ELEVATION
#
#----------------------------------------------------------------------------
~CURVE INFORMATION
#MNEM.UNIT                                  : CURVE DESCRIPTION
#----------                                 -------------------------------
DEPT        .m                              : 1      DEPTH
MD          .m                              : 2      Depth
Depth_TVDkb .m                              : 3      Depth
COTA        .m                              : 4      Depth
GR          .API                            : 5      GR
CALIPER     .m                              : 6      Cal
VP          .km/s                           : 7      Vp
VS          .km/s                           : 8      Vs
RHO         .g/cm3                          : 9      Rho
Porosidade  .fract                          : 10     Por
Argilosidade.fract                          : 11     Volume
Saturacao   .fract                          : 12     Sat
#
#----------------------------------------------------------------------------
~A          MD          Depth_TVDkb COTA        GR          CALIPER     VP          VS          RHO         Porosidade  Argilosidade Saturacao   
# ...
2919.3109   2966.424    2949.3109   -2936.424   89.3558     0.316       2.4199      1.1425      2.1989      0.2093      0.239       0.1244      
2919.5109   2966.6051   2949.5109   -2936.6051  96.2048     0.316       2.4287      1.1526      2.2129      0.1907      0.2949      0.1161      
2919.7109   2966.7862   2949.7109   -2936.7862  97.02       0.3162      2.4343      1.1618      2.2225      0.1701      0.3706      0.1016      
2919.9109   2966.9673   2949.9109   -2936.9673  98.9428     0.3163      2.4347      1.1706      2.2235      0.1742      0.3612      0.1034      
2920.1109   2967.1484   2950.1109   -2937.1484  104.5294    0.3164      2.4236      1.1798      2.2206      0.187       0.3277      0.1101      
2920.3109   2967.3295   2950.3109   -2937.3295  102.6797    0.3165      2.4057      1.1877      2.2105      0.2082      0.2588      0.1244      
2920.5109   2967.5106   2950.5109   -2937.5106  96.312      0.3165      2.3996      1.1888      2.2032      0.2279      0.1897      0.1391      
2920.7109   2967.6916   2950.7109   -2937.6916  94.0466     0.3168      2.3958      1.1834      2.2034      0.2213      0.2212      0.1326      
2920.9109   2967.8726   2950.9109   -2937.8726  93.1359     0.3171      2.3924      1.1707      2.2041      0.2098      0.2673      0.1231      
2921.1109   2968.0537   2951.1109   -2938.0537  92.3197     0.3172      2.3894      1.1576      2.2055      0.2067      0.2604      0.126       
2921.3109   2968.2346   2951.3109   -2938.2346  91.1759     0.3173      2.3818      1.1504      2.2118      0.2046      0.2484      0.1328      
2921.5109   2968.4156   2951.5109   -2938.4156  95.8036     0.3172      2.3648      1.1503      2.2155      0.2028      0.2442      0.1427      
2921.7109   2968.5967   2951.7109   -2938.5967  96.9351     0.3172      2.3497      1.1551      2.218       0.2004      0.2422      0.1505      
2921.9109   2968.7776   2951.9109   -2938.7776  96.7857     0.3173      2.3484      1.1626      2.2271      0.1828      0.2948      0.1443      
2922.1109   2968.9585   2952.1109   -2938.9585  102.3145    0.3171      2.3586      1.1685      2.2379      0.1646      0.3563      0.1371      
2922.3109   2969.1394   2952.3109   -2939.1394  102.7326    0.3169      2.3799      1.1693      2.2368      0.1815      0.3224      0.1555      
2922.5109   2969.3204   2952.5109   -2939.3204  99.3275     0.3165      2.3997      1.1636      2.2229      0.2047      0.2848      0.1758      
2922.7109   2969.5013   2952.7109   -2939.5013  98.3771     0.3157      2.4021      1.1393      2.191       0.2119      0.3605      0.1561      
2922.9109   2969.6821   2952.9109   -2939.6821  100.1443    0.3148      2.3859      1.0983      2.1423      0.2171      0.4385      0.1359      
2923.1109   2969.863    2953.1109   -2939.863   97.014      0.3143      2.3477      1.0569      2.1127      0.2212      0.4337      0.1368      
2923.3109   2970.0439   2953.3109   -2940.0439  96.3237     0.3142      2.3048      1.028       2.1115      0.2269      0.4203      0.1391      
2923.5109   2970.2247   2953.5109   -2940.2247  97.0347     0.3142      2.2681      1.0098      2.1159      0.2579      0.2942      0.1585      
2923.7109   2970.4055   2953.7109   -2940.4055  96.5801     0.3142      2.2468      0.9968      2.1126      0.2822      0.1876      0.1747      
2923.9109   2970.5864   2953.9109   -2940.5864  97.6628     0.3144      2.2375      0.9901      2.1086      0.27        0.219       0.1546      
2924.1109   2970.7672   2954.1109   -2940.7672  101.4067    0.3148      2.2365      0.9903      2.1147      0.2508      0.2645      0.1295      
2924.3109   2970.9479   2954.3109   -2940.9479  94.8898     0.3152      2.2406      0.9976      2.1379      0.2324      0.3006      0.116       
2924.5109   2971.1286   2954.5109   -2941.1286  92.1742     0.3151      2.2506      1.0111      2.1595      0.2171      0.3278      0.1086      
2924.7109   2971.3094   2954.7109   -2941.3094  91.9918     0.315       2.2639      1.0266      2.1708      0.2073      0.3463      0.1065      
2924.9109   2971.4902   2954.9109   -2941.4902  92.7907     0.3147      2.2798      1.0449      2.1772      0.2002      0.3537      0.1049      
2925.1109   2971.6709   2955.1109   -2941.6709  94.9044     0.3144      2.2985      1.069       2.1838      0.1942      0.3474      0.1029      
2925.3109   2971.8515   2955.3109   -2941.8515  100.8735    0.3146      2.3267      1.1013      2.1993      0.1921      0.3325      0.1022      
2925.5109   2972.0322   2955.5109   -2942.0322  101.4884    0.3156      2.3662      1.1406      2.2198      0.2036      0.2647      0.1107      
2925.7109   2972.213    2955.7109   -2942.213   99.0056     0.3168      2.4082      1.1852      2.2214      0.2103      0.2272      0.1155      
2925.9109   2972.3936   2955.9109   -2942.3936  99.2879     0.3179      2.4597      1.2326      2.2201      0.1799      0.3244      0.0932      
2926.1109   2972.5742   2956.1109   -2942.5742  109.9924    0.3184      2.5471      1.2767      2.2305      0.1615      0.3823      0.0797      
2926.3109   2972.7549   2956.3109   -2942.7549  112.4462    0.318       2.6689      1.3117      2.2454      0.1705      0.3351      0.0863      
2926.5109   2972.9355   2956.5109   -2942.9355  110.2874    0.3177      2.796       1.3284      2.246       0.1744      0.3116      0.0895      
2926.7109   2973.1161   2956.7109   -2943.1161  110.8585    0.3177      2.9175      1.3289      2.2473      0.1493      0.3914      0.0766      
2926.9109   2973.2967   2956.9109   -2943.2967  116.3005    0.3176      3.0083      1.3185      2.2552      0.1358      0.4336      0.07        
2927.1109   2973.4773   2957.1109   -2943.4773  114.0837    0.3171      3.0322      1.3026      2.2611      0.1393      0.4138      0.078       
2927.3109   2973.6579   2957.3109   -2943.6579  103.6065    0.3167      3.0127      1.286       2.262       0.1456      0.3832      0.0865      
2927.5109   2973.8384   2957.5109   -2943.8384  98.394      0.3166      2.944       1.266       2.2594      0.1598      0.3333      0.0928      
2927.7109   2974.0189   2957.7109   -2944.0189  94.0516     0.3163      2.8598      1.2444      2.2506      0.1701      0.3094      0.0975      
2927.9109   2974.1995   2957.9109   -2944.1995  91.8482     0.3158      2.7711      1.2236      2.2439      0.1744      0.3048      0.1014      
2928.1109   2974.38     2958.1109   -2944.38    92.583      0.3154      2.6969      1.2052      2.2402      0.1794      0.3027      0.1022      
2928.3109   2974.5604   2958.3109   -2944.5604  92.5349     0.3152      2.6383      1.1935      2.2326      0.1876      0.3013      0.0986      
2928.5109   2974.7409   2958.5109   -2944.7409  91.731      0.3154      2.5768      1.1906      2.2218      0.1895      0.3041      0.0952      
2928.7109   2974.9214   2958.7109   -2944.9214  94.7743     0.316       2.5307      1.1901      2.2206      0.1817      0.3337      0.0926      
2928.9109   2975.1018   2958.9109   -2945.1018  99.5229     0.3164      2.5063      1.1874      2.2211      0.1807      0.3384      0.093       
2929.1109   2975.2822   2959.1109   -2945.2822  97.3845     0.3166      2.4796      1.1765      2.216       0.1978      0.2806      0.1052      
2929.3109   2975.4626   2959.3109   -2945.4626  95.1023     0.3167      2.441       1.1579      2.2137      0.2036      0.2602      0.122       
2929.5109   2975.643    2959.5109   -2945.643   93.9785     0.3167      2.4037      1.1402      2.2176      0.2003      0.2648      0.1459      
2929.7109   2975.8234   2959.7109   -2945.8234  96.0903     0.3171      2.3797      1.1377      2.2195      0.1881      0.3022      0.149       
2929.9109   2976.0038   2959.9109   -2946.0038  99.0375     0.3178      2.3792      1.1455      2.2224      0.1411      0.5029      0.1253      
2930.1109   2976.1841   2960.1109   -2946.1841  106.3763    0.3182      2.4073      1.1479      2.2189      0.1307      0.5636      0.1298      
2930.3109   2976.3645   2960.3109   -2946.3645  109.5747    0.3182      2.4499      1.1357      2.1861      0.1526      0.5601      0.2024      
