#----------------------------------------------------------------------------
~VERSION INFORMATION
VERS.            2.0                  :CWLS LOG ASCII STANDARD -VERSION 2.0
WRAP.            NO                   :ONE LINE PER DEPTH STEP
#
#--------------------------------------------------------------------
~WELL INFORMATION
#MNEM .UNIT      DATA                 :DESCRIPTION OF MNEMONIC
#----------      ------------         -------------------------------
STRT  .m         2775.191             :START DEPTH
STEP  .m         0.2                  :STEP DEPTH
STOP  .m         3093.191             :STOP DEPTH
NULL  .          -999.25              :NULL VALUE
COMP  .                               :COMPANY
WELL  .                               :WELL
LOC   .                               :LOCATION - AREA
FLD   .                               :FIELD
CTRY  .                               :COUNTRY
DATE  .                               :WELL DATE
UWI   .                               :UWI
ZSTK  .          TVDss                :Z-STICK
XWELL .m         	              :X POS
YWELL .m         	              :Y POS
EDF   .          24.0                 :DERRICK FLOOR ELEVATION
#
#----------------------------------------------------------------------------
~CURVE INFORMATION
#MNEM.UNIT                                  : CURVE DESCRIPTION
#----------                                 -------------------------------
DEPT        .m                              : 1      DEPTH
COTA        .m                              : 2      Depth
Depth_TVDkb .m                              : 3      Depth
TVD         .m                              : 4      Depth
GR          .API                            : 5      GR
CALIPER     .m                              : 6      Cal
VP          .km/s                           : 7      Vp
VS          .km/s                           : 8      Vs
RHO         .g/cm3                          : 9      Rho
Porosidade  .fract                          : 10     Por
Argilosidade.fract                          : 11     Volume
Saturacao   .fract                          : 12     Sat
#
#----------------------------------------------------------------------------
~A          COTA        Depth_TVDkb TVD         GR          CALIPER     VP          VS          RHO         Porosidade  Argilosidade Saturacao   
# ...
2954.391    -2954.1834  2978.391    2978.1834   62.624      0.3143      2.9809      1.4112      2.2789      0.2279      0.0806      0.0568      
2954.591    -2954.3831  2978.591    2978.3831   61.5522     0.3142      2.883       1.3906      2.2655      0.2683      0.0         0.0626      
2954.791    -2954.5828  2978.791    2978.5828   61.6355     0.3144      2.7746      1.3664      2.2114      0.2826      0.0         0.0591      
2954.991    -2954.7826  2978.991    2978.7826   60.8746     0.3145      2.7203      1.3574      2.1591      0.297       0.0         0.0556      
2955.191    -2954.9823  2979.191    2978.9823   62.5148     0.3146      2.7005      1.3506      2.1364      0.3113      0.0         0.0521      
2955.391    -2955.182   2979.391    2979.182    60.3704     0.3148      2.7021      1.3462      2.1341      0.3054      0.0         0.0569      
2955.591    -2955.3818  2979.591    2979.3818   62.679      0.3147      2.7233      1.3487      2.1433      0.2994      0.0         0.0617      
2955.791    -2955.5815  2979.791    2979.5815   61.0466     0.3145      2.7507      1.3589      2.1575      0.295       0.0         0.0599      
2955.991    -2955.7813  2979.991    2979.7813   60.5867     0.3145      2.7624      1.3649      2.1679      0.2906      0.0         0.0582      
2956.191    -2955.9811  2980.191    2979.9811   61.6197     0.3148      2.7785      1.3734      2.171       0.2862      0.0         0.0565      
2956.391    -2956.1808  2980.391    2980.1808   61.3324     0.3153      2.8151      1.3898      2.1766      0.2898      0.0         0.0523      
2956.591    -2956.3806  2980.591    2980.3806   62.1836     0.3158      2.8226      1.3932      2.179       0.2934      0.0         0.0482      
2956.791    -2956.5804  2980.791    2980.5804   63.7451     0.3158      2.784       1.3778      2.1649      0.2929      0.0         0.0491      
2956.991    -2956.7802  2980.991    2980.7802   64.0361     0.3161      2.7578      1.3782      2.1512      0.2923      0.0         0.0501      
2957.191    -2956.98    2981.191    2980.98     64.4198     0.3167      2.6911      1.366       2.1561      0.2918      0.0         0.051       
2957.391    -2957.1798  2981.391    2981.1798   61.7125     0.316       2.648       1.3616      2.1707      0.288       0.0         0.0545      
2957.591    -2957.3796  2981.591    2981.3796   61.8007     0.315       2.6546      1.3687      2.1813      0.2843      0.0         0.0579      
2957.791    -2957.5794  2981.791    2981.5794   62.3115     0.3149      2.7375      1.3996      2.1849      0.2841      0.0         0.0581      
2957.991    -2957.7792  2981.991    2981.7792   62.6396     0.3153      2.7819      1.3993      2.1893      0.2838      0.0         0.0583      
2958.191    -2957.9791  2982.191    2981.9791   62.3565     0.3156      2.8008      1.3871      2.19        0.2836      0.0         0.0585      
2958.391    -2958.1789  2982.391    2982.1789   63.1329     0.3157      2.8494      1.3921      2.1867      0.2793      0.0         0.0588      
2958.591    -2958.3787  2982.591    2982.3787   63.1103     0.3157      2.8558      1.3848      2.1948      0.275       0.0         0.0591      
2958.791    -2958.5786  2982.791    2982.5786   62.4206     0.3155      2.8646      1.3888      2.205       0.2763      0.0         0.0567      
2958.991    -2958.7784  2982.991    2982.7784   63.6391     0.3153      2.8574      1.3974      2.2023      0.2775      0.0         0.0543      
2959.191    -2958.9783  2983.191    2982.9783   63.4806     0.3151      2.825       1.3979      2.1933      0.2787      0.0         0.0518      
2959.391    -2959.1782  2983.391    2983.1782   62.1974     0.315       2.8287      1.4116      2.1922      0.2787      0.0         0.0517      
2959.591    -2959.378   2983.591    2983.378    62.7688     0.3154      2.8456      1.4223      2.1941      0.2786      0.0         0.0517      
2959.791    -2959.5779  2983.791    2983.5779   64.3493     0.3155      2.8419      1.4161      2.1888      0.2822      0.0         0.0503      
2959.991    -2959.7778  2983.991    2983.7778   64.2238     0.3146      2.8176      1.3972      2.1849      0.2858      0.0         0.049       
2960.191    -2959.9777  2984.191    2983.9777   65.7195     0.3142      2.7801      1.3783      2.182       0.2893      0.0         0.0477      
2960.391    -2960.1782  2984.391    2984.1782   64.9761     0.3141      2.7448      1.3685      2.1709      0.2859      0.0         0.0499      
2960.591    -2960.3788  2984.591    2984.3788   63.1123     0.3131      2.7038      1.3587      2.1545      0.2825      0.0         0.0521      
2960.791    -2960.5793  2984.791    2984.5793   65.6642     0.3131      2.6722      1.3512      2.1489      0.282       0.0         0.0498      
2960.991    -2960.78    2984.991    2984.78     67.8021     0.3143      2.7105      1.366       2.1639      0.2815      0.0         0.0475      
2961.191    -2960.9805  2985.191    2984.9805   65.8456     0.3146      2.7587      1.3779      2.1836      0.281       0.0         0.0451      
2961.391    -2961.1805  2985.391    2985.1805   62.3142     0.3144      2.7544      1.3621      2.192       0.2854      0.0         0.0445      
2961.591    -2961.3804  2985.591    2985.3804   63.3837     0.3144      2.784       1.3658      2.186       0.2898      0.0         0.0439      
2961.791    -2961.5803  2985.791    2985.5803   62.9144     0.3143      2.7802      1.3567      2.1736      0.2871      0.0         0.0452      
2961.991    -2961.7803  2985.991    2985.7803   62.2702     0.3151      2.7919      1.363       2.1711      0.2845      0.0         0.0464      
2962.191    -2961.9802  2986.191    2985.9802   62.8122     0.3154      2.7599      1.3537      2.1798      0.2818      0.0         0.0477      
2962.391    -2962.1802  2986.391    2986.1802   64.78       0.314       2.7527      1.3605      2.1897      0.2844      0.0         0.0483      
2962.591    -2962.3802  2986.591    2986.3802   66.1445     0.3136      2.7563      1.37        2.1906      0.2869      0.0         0.0489      
2962.791    -2962.5802  2986.791    2986.5802   66.0972     0.3161      2.7578      1.3763      2.1855      0.2836      0.0         0.0548      
2962.991    -2962.7802  2986.991    2986.7802   67.2205     0.318       2.7769      1.3892      2.1886      0.2804      0.0         0.0607      
2963.191    -2962.9801  2987.191    2986.9801   70.6323     0.3173      2.7903      1.4047      2.1947      0.2771      0.0         0.0666      
2963.391    -2963.1801  2987.391    2987.1801   72.3928     0.3153      2.7614      1.3994      2.1972      0.2753      0.0         0.0673      
2963.591    -2963.3802  2987.591    2987.3802   71.2913     0.3142      2.7614      1.406       2.2033      0.2736      0.0         0.068       
2963.791    -2963.5801  2987.791    2987.5801   68.045      0.3147      2.7599      1.4055      2.2043      0.2773      0.0         0.0641      
2963.991    -2963.7802  2987.991    2987.7802   64.728      0.3158      2.7869      1.4158      2.1964      0.281       0.0         0.0603      
2964.191    -2963.9802  2988.191    2987.9802   66.1387     0.3158      2.7948      1.4188      2.1893      0.2847      0.0         0.0565      
2964.391    -2964.1802  2988.391    2988.1802   62.8322     0.3147      2.775       1.4102      2.1845      0.283       0.0         0.0628      
2964.591    -2964.3803  2988.591    2988.3803   61.8208     0.314       2.7723      1.4084      2.1854      0.2813      0.0         0.0692      
2964.791    -2964.5803  2988.791    2988.5803   60.7417     0.3141      2.7611      1.3972      2.1898      0.2844      0.0         0.0669      
2964.991    -2964.7803  2988.991    2988.7803   61.0919     0.3144      2.7285      1.3702      2.1899      0.2874      0.0         0.0646      
2965.191    -2964.9804  2989.191    2988.9804   59.7742     0.3145      2.6911      1.3353      2.1835      0.2905      0.0         0.0623      
2965.391    -2965.1805  2989.391    2989.1805   59.7174     0.3143      2.7095      1.3253      2.1709      0.295       0.0         0.0585      
