#----------------------------------------------------------------------------
~VERSION INFORMATION
VERS.            2.0                  :CWLS LOG ASCII STANDARD -VERSION 2.0
WRAP.            NO                   :ONE LINE PER DEPTH STEP
#
#--------------------------------------------------------------------
~WELL INFORMATION
#MNEM .UNIT      DATA                 :DESCRIPTION OF MNEMONIC
#----------      ------------         -------------------------------
STRT  .m         2775.191             :START DEPTH
STEP  .m         0.2                  :STEP DEPTH
STOP  .m         3093.191             :STOP DEPTH
NULL  .          -999.25              :NULL VALUE
COMP  .                               :COMPANY
WELL  .                               :WELL
LOC   .                               :LOCATION - AREA
FLD   .                               :FIELD
CTRY  .                               :COUNTRY
DATE  .                               :WELL DATE
UWI   .                               :UWI
ZSTK  .          TVDss                :Z-STICK
XWELL .m         	              :X POS
YWELL .m         	              :Y POS
EDF   .          24.0                 :DERRICK FLOOR ELEVATION
#
#----------------------------------------------------------------------------
~CURVE INFORMATION
#MNEM.UNIT                                  : CURVE DESCRIPTION
#----------                                 -------------------------------
DEPT        .m                              : 1      DEPTH
COTA        .m                              : 2      Depth
Depth_TVDkb .m                              : 3      Depth
TVD         .m                              : 4      Depth
GR          .API                            : 5      GR
CALIPER     .m                              : 6      Cal
VP          .km/s                           : 7      Vp
VS          .km/s                           : 8      Vs
RHO         .g/cm3                          : 9      Rho
Porosidade  .fract                          : 10     Por
Argilosidade.fract                          : 11     Volume
Saturacao   .fract                          : 12     Sat
#
#----------------------------------------------------------------------------
~A          COTA        Depth_TVDkb TVD         GR          CALIPER     VP          VS          RHO         Porosidade  Argilosidade Saturacao   
# ...
2853.591    -2853.5826  2877.591    2877.5826   74.221      0.3313      1.8586      0.9786      1.9515      0.3486      0.0601      0.1108      
2853.791    -2853.7827  2877.791    2877.7827   72.8899     0.3311      1.8809      0.9844      1.9576      0.3422      0.0624      0.1141      
2853.991    -2853.9827  2877.991    2877.9827   75.983      0.3323      1.908       0.9823      1.9649      0.3359      0.0647      0.1174      
2854.191    -2854.1827  2878.191    2878.1827   78.9681     0.3323      1.9422      0.9983      1.974       0.3238      0.0663      0.1225      
2854.391    -2854.3828  2878.391    2878.3828   79.6102     0.3318      1.9684      1.0322      2.0041      0.3118      0.0679      0.1277      
2854.591    -2854.5828  2878.591    2878.5828   78.2846     0.3316      2.0009      1.0878      2.0241      0.3205      0.0549      0.1174      
2854.791    -2854.7829  2878.791    2878.7829   75.8406     0.3323      2.0475      1.1576      2.0014      0.3292      0.042       0.1072      
2854.991    -2854.9829  2878.991    2878.9829   74.3001     0.3345      2.0714      1.2058      2.0075      0.3379      0.0291      0.0969      
2855.191    -2855.183   2879.191    2879.183    73.5182     0.3367      2.0721      1.2302      2.0077      0.3301      0.029       0.0991      
2855.391    -2855.383   2879.391    2879.383    72.9147     0.3377      2.0467      1.2283      2.0224      0.3224      0.0289      0.1012      
2855.591    -2855.5831  2879.591    2879.5831   74.0067     0.3389      2.0374      1.2327      2.0067      0.328       0.0307      0.1005      
2855.791    -2855.7831  2879.791    2879.7831   72.7447     0.3411      2.0231      1.2287      1.9952      0.3337      0.0324      0.0997      
2855.991    -2855.9832  2879.991    2879.9832   74.1867     0.3422      2.0228      1.2287      1.9951      0.3394      0.0342      0.0989      
2856.191    -2856.1832  2880.191    2880.1832   76.5866     0.3412      1.9906      1.2081      1.9867      0.3333      0.0427      0.1053      
2856.391    -2856.3833  2880.391    2880.3833   79.7537     0.3395      1.9989      1.2052      1.9889      0.3272      0.0511      0.1117      
2856.591    -2856.5833  2880.591    2880.5833   81.7042     0.3382      2.0298      1.206       1.9969      0.3225      0.0628      0.121       
2856.791    -2856.7834  2880.791    2880.7834   79.8369     0.3372      2.0758      1.2218      2.0086      0.3179      0.0745      0.1303      
2856.991    -2856.9834  2880.991    2880.9834   79.8152     0.3358      2.1054      1.2312      2.0004      0.3133      0.086       0.1397      
2857.191    -2857.1835  2881.191    2881.1835   79.7291     0.3327      2.067       1.2108      2.0053      0.3097      0.0918      0.1453      
2857.391    -2857.3836  2881.391    2881.3836   81.9352     0.3273      2.0887      1.2176      2.0163      0.3062      0.0977      0.151       
2857.591    -2857.5836  2881.591    2881.5836   82.8849     0.3219      2.1697      1.2589      2.0208      0.2983      0.1348      0.1834      
2857.791    -2857.7837  2881.791    2881.7837   85.669      0.3195      2.1079      1.2166      2.0077      0.2904      0.1717      0.2157      
2857.991    -2857.9837  2881.991    2881.9837   87.7289     0.3194      2.0936      1.1988      2.0018      0.2824      0.2088      0.248       
2858.191    -2858.1838  2882.191    2882.1838   85.8706     0.3195      2.0805      1.1792      2.017       0.252       0.3017      0.3354      
2858.391    -2858.3838  2882.391    2882.3838   85.0834     0.3195      2.1019      1.1777      2.0401      0.2218      0.3942      0.4225      
2858.591    -2858.5839  2882.591    2882.5839   90.5783     0.3195      2.1005      1.1577      2.0678      0.1905      0.4746      0.5106      
2858.791    -2858.7839  2882.791    2882.7839   104.2298    0.3202      2.1233      1.1442      2.1093      0.1593      0.5549      0.5987      
2858.991    -2858.9839  2882.991    2882.9839   113.3486    0.3212      2.1596      1.1226      2.1475      0.1281      0.6347      0.6867      
2859.191    -2859.184   2883.191    2883.184    116.6682    0.3217      2.2336      1.1107      2.1655      0.1127      0.6285      0.7292      
2859.391    -2859.384   2883.391    2883.384    113.7502    0.3224      2.2695      1.0814      2.1984      0.0973      0.6223      0.7715      
2859.591    -2859.5841  2883.591    2883.5841   112.0927    0.323       2.2825      1.0478      2.2368      0.1219      0.6061      0.7046      
2859.791    -2859.7842  2883.791    2883.7842   112.114     0.3224      2.2786      1.018       2.2247      0.1462      0.5898      0.6383      
2859.991    -2859.9842  2883.991    2883.9842   112.9111    0.3212      2.2644      0.9945      2.1573      0.1703      0.5734      0.5723      
2860.191    -2860.1843  2884.191    2884.1843   114.4674    0.3208      2.2197      0.9674      2.1032      0.1719      0.5107      0.5495      
2860.391    -2860.3844  2884.391    2884.3844   115.2646    0.3213      2.1791      0.9474      2.1288      0.1735      0.4481      0.5264      
2860.591    -2860.5844  2884.591    2884.5844   112.8881    0.3221      2.187       0.9491      2.1854      0.2143      0.3451      0.413       
2860.791    -2860.7845  2884.791    2884.7845   108.675     0.3215      2.1919      0.9536      2.189       0.2547      0.2422      0.3003      
2860.991    -2860.9845  2884.991    2884.9845   102.625     0.3203      2.1659      0.9574      2.115       0.2948      0.1405      0.1888      
2861.191    -2861.1846  2885.191    2885.1846   98.441      0.3201      2.1127      0.9638      2.0221      0.2958      0.157       0.2005      
2861.391    -2861.3847  2885.391    2885.3847   93.3795     0.3203      2.0707      0.9853      2.0074      0.2969      0.1733      0.2122      
2861.591    -2861.5848  2885.591    2885.5848   87.5114     0.3202      2.035       1.0073      2.0055      0.2721      0.2341      0.2755      
2861.791    -2861.7848  2885.791    2885.7848   87.8483     0.3202      2.0153      1.0255      2.0376      0.2476      0.2946      0.3384      
2861.991    -2861.9849  2885.991    2885.9849   89.594      0.3206      2.0131      1.0354      2.0763      0.2229      0.3554      0.4013      
2862.191    -2862.185   2886.191    2886.185    93.4334     0.3216      2.0124      1.0249      2.1032      0.19        0.4606      0.5001      
2862.391    -2862.385   2886.391    2886.385    93.6015     0.3228      2.0439      1.0114      2.1164      0.1574      0.564       0.5972      
2862.591    -2862.5851  2886.591    2886.5851   101.7237    0.3242      2.093       0.9921      2.142       0.1561      0.5557      0.5979      
2862.791    -2862.7852  2886.791    2886.7852   97.1258     0.3254      2.1509      0.9746      2.1676      0.1547      0.5475      0.5986      
2862.991    -2862.9852  2886.991    2886.9852   117.8321    0.326       2.1897      0.9537      2.1809      0.1534      0.5393      0.5994      
2863.191    -2863.1853  2887.191    2887.1853   124.6399    0.3258      2.2263      0.9481      2.1821      0.1623      0.5278      0.5765      
2863.391    -2863.3854  2887.391    2887.3854   127.6583    0.3253      2.2147      0.9353      2.1622      0.1712      0.5163      0.5538      
2863.591    -2863.5855  2887.591    2887.5855   125.1967    0.3263      2.1932      0.9315      2.1545      0.1803      0.4933      0.5292      
2863.791    -2863.7855  2887.791    2887.7855   117.6421    0.3282      2.1782      0.9345      2.1751      0.1894      0.4704      0.5047      
2863.991    -2863.9856  2887.991    2887.9856   122.6331    0.3263      2.1771      0.943       2.1747      0.1984      0.4479      0.4805      
2864.191    -2864.1857  2888.191    2888.1857   115.2507    0.3217      2.1574      0.9411      2.1208      0.1766      0.5139      0.5437      
2864.391    -2864.3858  2888.391    2888.3858   114.0646    0.3202      2.155       0.9414      2.0858      0.1553      0.5783      0.6058      
2864.591    -2864.5858  2888.591    2888.5858   105.3907    0.322       2.1706      0.9452      2.1353      0.1433      0.6009      0.6414      
