#----------------------------------------------------------------------------
~VERSION INFORMATION
VERS.            2.0                  :CWLS LOG ASCII STANDARD -VERSION 2.0
WRAP.            NO                   :ONE LINE PER DEPTH STEP
#
#--------------------------------------------------------------------
~WELL INFORMATION
#MNEM .UNIT      DATA                 :DESCRIPTION OF MNEMONIC
#----------      ------------         -------------------------------
STRT  .m         2910.0               :START DEPTH
STEP  .m         0.2                  :STEP DEPTH
STOP  .m         3110.0               :STOP DEPTH
NULL  .          -999.25              :NULL VALUE
COMP  .                               :COMPANY
WELL  .                               :WELL
LOC   .                               :LOCATION - AREA
FLD   .                               :FIELD
CTRY  .                               :COUNTRY
DATE  .                               :WELL DATE
UWI   .                               :UWI
ZSTK  .          TVDss                :Z-STICK
XWELL .m         	              :X POS
YWELL .m         	              :Y POS
EDF   .          14.0                 :DERRICK FLOOR ELEVATION
#
#----------------------------------------------------------------------------
~CURVE INFORMATION
#MNEM.UNIT                                  : CURVE DESCRIPTION
#----------                                 -------------------------------
DEPT        .m                              : 1      DEPTH
MD          .m                              : 2      Depth
GR          .API                            : 3      GR
CALIPER     .m                              : 4      Cal
VP          .km/s                           : 5      Vp
VS          .km/s                           : 6      Vs
RHO         .g/cm3                          : 7      Rho
Porosidade  .fract                          : 8      Por
Argilosidade.fract                          : 9      Volume
Saturacao   .fract                          : 10     Sat
#
#----------------------------------------------------------------------------
~A          MD          GR          CALIPER     VP          VS          RHO         Porosidade  Argilosidade Saturacao   
# ...
3030.6      3043.5753   102.9448    0.3098      2.9582      1.4969      2.2079      0.2258      0.2397      0.1909      
3030.8      3043.775    97.3481     0.3107      2.8802      1.4503      2.1817      0.2693      0.1069      0.1734      
3031.0      3043.9748   92.4438     0.3111      2.8092      1.4169      2.156       0.2946      0.06        0.169       
3031.2      3044.1746   90.008      0.3107      2.7671      1.3862      2.1394      0.3027      0.0671      0.1696      
3031.4      3044.3744   89.4539     0.3098      2.7514      1.356       2.1412      0.3017      0.0658      0.1797      
3031.6      3044.5742   88.3894     0.3089      2.8116      1.4015      2.1646      0.2856      0.0755      0.2006      
3031.8      3044.774    87.979      0.3086      2.9207      1.481       2.1992      0.257       0.1148      0.2198      
3032.0      3044.9737   89.9175     0.3086      3.0631      1.516       2.2296      0.2363      0.1221      0.2321      
3032.2      3045.1735   90.9871     0.3089      3.2429      1.5587      2.2648      0.2185      0.0977      0.2469      
3032.4      3045.3734   90.6688     0.3098      3.4546      1.7583      2.3193      0.1801      0.1285      0.2673      
3032.6      3045.5731   92.556      0.3107      3.6195      1.8385      2.3493      0.15        0.2007      0.285       
3032.8      3045.7729   95.6674     0.3109      3.6461      1.7914      2.3157      0.167       0.2061      0.2938      
3033.0      3045.9727   97.2992     0.3104      3.5261      1.6924      2.2616      0.2015      0.1887      0.2947      
3033.2      3046.1725   99.86       0.3097      3.3387      1.5941      2.2362      0.2119      0.2227      0.2891      
3033.4      3046.3723   105.1446    0.3089      3.1476      1.56        2.2146      0.2211      0.2445      0.277       
3033.6      3046.5721   110.7595    0.3084      3.0519      1.5506      2.1865      0.2408      0.2264      0.2609      
3033.8      3046.7719   112.3073    0.3087      3.0097      1.6017      2.1796      0.2468      0.2149      0.2387      
3034.0      3046.9716   107.6014    0.3098      3.0678      1.6549      2.2115      0.2346      0.1753      0.2292      
3034.2      3047.1714   100.0523    0.3108      3.462       1.7418      2.289       0.203       0.1         0.2654      
3034.4      3047.3712   95.1162     0.3108      3.9092      1.8448      2.3702      0.1524      0.1216      0.3194      
3034.6      3047.571    93.6238     0.3103      4.0432      1.9321      2.3778      0.1203      0.2569      0.3232      
3034.8      3047.7708   94.0007     0.3101      3.7615      1.8688      2.3224      0.1354      0.33        0.2953      
3035.0      3047.9706   96.2543     0.3099      3.4092      1.7132      2.2689      0.1792      0.2782      0.2839      
3035.2      3048.1703   101.5518    0.3096      3.2226      1.6089      2.2446      0.2145      0.1796      0.2849      
3035.4      3048.3701   106.3617    0.3095      3.1436      1.5192      2.238       0.2249      0.1507      0.2936      
3035.6      3048.57     105.3922    0.3094      3.0883      1.4773      2.2331      0.2168      0.2106      0.3094      
3035.8      3048.7697   103.184     0.3094      3.0507      1.4756      2.2184      0.2153      0.256       0.3121      
3036.0      3048.9695   104.9489    0.3092      3.0083      1.5033      2.2041      0.2335      0.2121      0.3003      
3036.2      3049.1693   108.7246    0.3092      2.9849      1.5441      2.2022      0.2436      0.1674      0.2899      
3036.4      3049.3691   108.0345    0.3093      2.9923      1.5929      2.2071      0.2337      0.205       0.2812      
3036.6      3049.5689   102.8781    0.3094      2.9954      1.6116      2.2046      0.2268      0.2499      0.271       
3036.8      3049.7687   100.4882    0.3091      3.0194      1.5895      2.1948      0.2366      0.2257      0.2633      
3037.0      3049.9685   101.0311    0.3086      3.0319      1.6069      2.1859      0.2475      0.198       0.2576      
3037.2      3050.1682   101.1365    0.3087      3.0143      1.6344      2.1878      0.2344      0.2594      0.2553      
3037.4      3050.368    102.4074    0.3094      2.9856      1.5912      2.2025      0.2049      0.3541      0.2581      
3037.6      3050.5678   105.3448    0.3101      2.9507      1.5407      2.2099      0.2117      0.3083      0.2579      
3037.8      3050.7676   106.5956    0.3101      2.9335      1.5589      2.2002      0.2537      0.1334      0.2507      
3038.0      3050.9674   103.7606    0.3094      2.935       1.5861      2.1901      0.2731      0.0505      0.2427      
3038.2      3051.1672   101.7608    0.3087      2.9655      1.5658      2.1853      0.2636      0.1275      0.2399      
3038.4      3051.367    102.8886    0.3091      2.9919      1.5292      2.2038      0.2157      0.2997      0.246       
3038.6      3051.5668   104.1506    0.3102      2.95        1.5298      2.288       0.1101      0.5013      0.2378      
3038.8      3051.7665   102.7012    0.3108      2.8815      1.56        2.4424      0.0164      0.6933      0.1906      
3039.0      3051.9664   101.5265    0.3109      2.8338      1.6236      2.5446      0.0         0.7677      0.172       
3039.2      3052.1662   102.2895    0.3108      2.7933      1.6512      2.4938      0.009       0.6761      0.2381      
3039.4      3052.3659   102.8827    0.3101      2.8108      1.6295      2.3504      0.0794      0.4907      0.3017      
3039.6      3052.5657   103.7976    0.3095      2.9422      1.5742      2.2545      0.1666      0.3687      0.2872      
3039.8      3052.7655   107.5805    0.3094      3.0887      1.5298      2.2295      0.1957      0.3317      0.2644      
3040.0      3052.9653   108.757     0.3094      3.1079      1.5338      2.2331      0.1936      0.3114      0.2741      
3040.2      3053.1651   109.8027    0.3095      3.0509      1.5281      2.2318      0.195       0.3201      0.2783      
3040.4      3053.3649   113.6089    0.3096      3.023       1.5121      2.2243      0.1847      0.398       0.2741      
3040.6      3053.5647   114.3052    0.3096      2.9967      1.5155      2.2191      0.1686      0.4812      0.2788      
3040.8      3053.7645   111.1838    0.3094      2.9539      1.536       2.2159      0.1701      0.493       0.2857      
3041.0      3053.9643   108.0078    0.3093      2.9334      1.5183      2.2059      0.1851      0.4507      0.2864      
3041.2      3054.1641   106.0643    0.3098      2.9105      1.491       2.1937      0.2031      0.3896      0.282       
3041.4      3054.3638   107.0247    0.3106      2.8849      1.4977      2.1924      0.2183      0.3234      0.2775      
3041.6      3054.5637   106.4397    0.311       2.9299      1.5874      2.2116      0.2159      0.2669      0.2752      
3041.8      3054.7635   96.6331     0.3115      3.0436      1.6541      2.2781      0.1721      0.2768      0.2639      
3042.0      3054.9632   86.684      0.3121      3.0901      1.6959      2.3645      0.1078      0.3655      0.2526      
3042.2      3055.163    87.1555     0.3116      3.0584      1.7103      2.36        0.1049      0.3806      0.2663      
3042.4      3055.3628   94.71       0.3102      2.9869      1.701       2.2954      0.1689      0.2464      0.2882      
3042.6      3055.5626   98.6703     0.3094      2.9823      1.6573      2.2567      0.2167      0.1349      0.2849      
3042.8      3055.7624   99.2247     0.3093      3.0098      1.5273      2.243       0.2227      0.1472      0.2735      
3043.0      3055.9622   101.6408    0.3091      3.0219      1.3689      2.2301      0.2227      0.1833      0.2714      
3043.2      3056.162    106.9893    0.3092      3.0324      1.3395      2.23        0.2162      0.2171      0.2733      
3043.4      3056.3618   108.9037    0.3093      3.0296      1.3441      2.2467      0.1929      0.2842      0.2839      
3043.6      3056.5616   106.5101    0.3091      3.0173      1.3477      2.2601      0.1701      0.3569      0.298       
3043.8      3056.7613   105.6289    0.3091      3.002       1.3405      2.2574      0.1633      0.4055      0.2976      
