#----------------------------------------------------------------------------
~VERSION INFORMATION
VERS.            2.0                  :CWLS LOG ASCII STANDARD -VERSION 2.0
WRAP.            NO                   :ONE LINE PER DEPTH STEP
#
#--------------------------------------------------------------------
~WELL INFORMATION
#MNEM .UNIT      DATA                 :DESCRIPTION OF MNEMONIC
#----------      ------------         -------------------------------
STRT  .m         1761.0               :START DEPTH
STEP  .m         0.2                  :STEP DEPTH
STOP  .m         3172.6718            :STOP DEPTH
NULL  .          -999.25              :NULL VALUE
COMP  .          Petrobras            :COMPANY
WELL  .          RO82                 :WELL
LOC   .                               :LOCATION - AREA
FLD   .                               :FIELD
CTRY  .                               :COUNTRY
DATE  .                               :WELL DATE
UWI   .          742810331400         :UWI
ZSTK  .          TVDss                :Z-STICK
XWELL .m         421843.59            :X POS
YWELL .m         7571342              :Y POS
EDF   .          25.0                 :DERRICK FLOOR ELEVATION
#
#----------------------------------------------------------------------------
~CURVE INFORMATION
#MNEM.UNIT                                  : CURVE DESCRIPTION
#----------                                 -------------------------------
DEPT        .m                              : 1      DEPTH
Depth_TVDkb .m                              : 2      Depth
Depth_MD    .m                              : 3      Depth
GR          .API                            : 4      GR
CALIPER     .m                              : 5      Cal
VP          .km/s                           : 6      Vp
VS          .km/s                           : 7      Vs
RHO         .g/cm3                          : 8      Rho
Porosidade  .fract                          : 9      Por
Argilosidade.fract                          : 10     Volume
Saturacao   .fract                          : 11     Sat
#
#----------------------------------------------------------------------------
~A          Depth_TVDkb Depth_MD    GR          CALIPER     VP          VS          RHO         Porosidade  Argilosidade Saturacao   
# ...
2920.4      2945.4      2945.4      99.2707     0.3207      2.8004      1.3397      2.0886      0.335       0.1256      0.1244      
2920.6      2945.6      2945.6      102.2695    0.3203      2.8031      1.3314      2.0935      0.2234      0.3384      0.1047      
2920.8      2945.8      2945.8      107.6334    0.3198      2.7945      1.332       2.1179      0.1117      0.5512      0.0851      
2921.0      2946.0      2946.0      111.4563    0.3193      2.7487      1.347       2.1991      0.0         0.764       0.0654      
2921.2      2946.2      2946.2      114.5448    0.3192      2.6873      1.3772      2.3411      0.0         0.8247      0.0562      
2921.4      2946.4      2946.4      115.7335    0.319       2.6538      1.414       2.4742      0.0         0.8855      0.0469      
2921.6      2946.6      2946.6      114.1135    0.3188      2.6302      1.4371      2.4269      0.0965      0.666       0.067       
2921.8      2946.8      2946.8      110.9339    0.3185      2.5807      1.4345      2.2662      0.193       0.4465      0.0871      
2922.0      2947.0      2947.0      108.7343    0.3183      2.5342      1.4066      2.155       0.2896      0.227       0.1072      
2922.2      2947.2      2947.2      108.666     0.3186      2.4979      1.3761      2.1144      0.3109      0.1402      0.1155      
2922.4      2947.4      2947.4      109.4302    0.3189      2.459       1.354       2.121       0.3322      0.0534      0.1238      
2922.6      2947.6      2947.6      109.8221    0.3189      2.4578      1.3443      2.131       0.3465      0.0356      0.1247      
2922.8      2947.8      2947.8      111.2589    0.319       2.5163      1.3435      2.1217      0.3607      0.0178      0.1256      
2923.0      2948.0      2948.0      110.9906    0.3191      2.5971      1.3477      2.1001      0.375       0.0         0.1265      
2923.2      2948.2      2948.2      105.4004    0.3187      2.6244      1.352       2.0917      0.3725      0.0         0.1293      
2923.4      2948.4      2948.4      100.0367    0.3183      2.5863      1.3497      2.0958      0.37        0.0         0.1321      
2923.6      2948.6      2948.6      100.3745    0.3182      2.5143      1.3375      2.0968      0.3724      0.0         0.1374      
2923.8      2948.8      2948.8      102.5334    0.3181      2.4761      1.3169      2.0907      0.3749      0.0         0.1427      
2924.0      2949.0      2949.0      103.9253    0.318       2.4562      1.2943      2.0872      0.3773      0.0         0.148       
2924.2      2949.2      2949.2      105.3054    0.3184      2.4605      1.2767      2.0833      0.384       0.0         0.1588      
2924.4      2949.4      2949.4      107.5531    0.3187      2.4691      1.2661      2.0787      0.3906      0.0         0.1697      
2924.6      2949.6      2949.6      112.2495    0.3186      2.4765      1.2611      2.0668      0.277       0.2918      0.1791      
2924.8      2949.8      2949.8      118.8365    0.3184      2.4708      1.2588      2.0708      0.1634      0.5836      0.1884      
2925.0      2950.0      2950.0      123.0543    0.3183      2.45        1.2592      2.0729      0.0499      0.8754      0.1978      
2925.2      2950.2      2950.2      123.5314    0.3181      2.4145      1.2608      2.0679      0.1186      0.7036      0.2228      
2925.4      2950.4      2950.4      122.0536    0.3178      2.4035      1.2588      2.0708      0.1873      0.5318      0.2479      
2925.6      2950.6      2950.6      119.6767    0.318       2.4148      1.2523      2.0737      0.2429      0.3798      0.231       
2925.8      2950.8      2950.8      116.7397    0.3182      2.424       1.2469      2.0729      0.2985      0.2278      0.2141      
2926.0      2951.0      2951.0      113.869     0.3185      2.4359      1.2493      2.0789      0.3542      0.0759      0.1971      
2926.2      2951.2      2951.2      110.7715    0.319       2.4466      1.2599      2.088       0.3311      0.1529      0.19        
2926.4      2951.4      2951.4      108.2094    0.3194      2.4509      1.2764      2.0885      0.3081      0.2298      0.1828      
2926.6      2951.6      2951.6      107.2763    0.3195      2.4444      1.2939      2.0832      0.3329      0.1532      0.1713      
2926.8      2951.8      2951.8      106.9744    0.3195      2.4393      1.3078      2.0746      0.3577      0.0766      0.1598      
2927.0      2952.0      2952.0      106.4024    0.3195      2.4421      1.3147      2.0705      0.3825      0.0         0.1483      
2927.2      2952.2      2952.2      105.523     0.3195      2.4543      1.3148      2.077       0.3468      0.0877      0.1448      
2927.4      2952.4      2952.4      104.7622    0.3195      2.4763      1.3128      2.0911      0.3112      0.1753      0.1413      
2927.6      2952.6      2952.6      104.7025    0.3191      2.499       1.3105      2.1061      0.3067      0.1836      0.1338      
2927.8      2952.8      2952.8      104.8295    0.3186      2.5042      1.3063      2.1146      0.3023      0.1918      0.1263      
2928.0      2953.0      2953.0      105.1008    0.3182      2.5063      1.3001      2.1167      0.2979      0.2         0.1189      
2928.2      2953.2      2953.2      106.4264    0.3181      2.5024      1.2953      2.1145      0.2962      0.2024      0.1156      
2928.4      2953.4      2953.4      107.8294    0.318       2.4819      1.2958      2.104       0.2946      0.2047      0.1123      
2928.6      2953.6      2953.6      107.9742    0.3189      2.461       1.2913      2.1172      0.2901      0.1744      0.1162      
2928.8      2953.8      2953.8      107.9767    0.3198      2.4681      1.2929      2.1418      0.2856      0.1441      0.1201      
2929.0      2954.0      2954.0      107.9995    0.3207      2.4936      1.2945      2.1624      0.2811      0.1137      0.124       
2929.2      2954.2      2954.2      107.3578    0.3205      2.5141      1.2961      2.1792      0.2744      0.1472      0.1205      
2929.4      2954.4      2954.4      107.7404    0.3203      2.5228      1.2977      2.1847      0.2676      0.1806      0.117       
2929.6      2954.6      2954.6      110.9245    0.32        2.495       1.3048      2.1685      0.2591      0.234       0.11        
2929.8      2954.8      2954.8      116.1494    0.3197      2.4571      1.3127      2.1391      0.2506      0.2875      0.1031      
2930.0      2955.0      2955.0      118.8523    0.3194      2.4456      1.3199      2.1249      0.2422      0.3409      0.0961      
2930.2      2955.2      2955.2      116.355     0.3189      2.459       1.3251      2.1324      0.2775      0.2281      0.1075      
2930.4      2955.4      2955.4      112.0625    0.3184      2.4847      1.3207      2.135       0.3128      0.1154      0.1189      
2930.6      2955.6      2955.6      109.5335    0.3185      2.5001      1.3135      2.1314      0.3223      0.0769      0.1247      
2930.8      2955.8      2955.8      106.6965    0.3186      2.4908      1.3065      2.1323      0.3319      0.0385      0.1304      
2931.0      2956.0      2956.0      105.2636    0.3187      2.4489      1.2995      2.1196      0.3414      0.0         0.1362      
2931.2      2956.2      2956.2      107.8297    0.3189      2.4105      1.2926      2.104       0.3541      0.0243      0.1321      
2931.4      2956.4      2956.4      110.9201    0.3191      2.3851      1.2833      2.0904      0.3668      0.0485      0.128       
2931.6      2956.6      2956.6      110.7895    0.3197      2.3806      1.2818      2.0819      0.3636      0.0323      0.1373      
2931.8      2956.8      2956.8      109.9097    0.3202      2.4057      1.2771      2.0817      0.3604      0.0162      0.1466      
2932.0      2957.0      2957.0      109.0643    0.3207      2.4667      1.2733      2.0918      0.3573      0.0         0.156       
2932.2      2957.2      2957.2      105.9479    0.3204      2.5362      1.2723      2.1149      0.3043      0.144       0.159       
2932.4      2957.4      2957.4      104.053     0.3201      2.579       1.2718      2.1432      0.2513      0.2879      0.162       
