#----------------------------------------------------------------------------
~VERSION INFORMATION
VERS.            2.0                  :CWLS LOG ASCII STANDARD -VERSION 2.0
WRAP.            NO                   :ONE LINE PER DEPTH STEP
#
#--------------------------------------------------------------------
~WELL INFORMATION
#MNEM .UNIT      DATA                 :DESCRIPTION OF MNEMONIC
#----------      ------------         -------------------------------
STRT  .m         3166.0               :START DEPTH
STEP  .m         0.2                  :STEP DEPTH
STOP  .m         3406.0               :STOP DEPTH
NULL  .          -999.25              :NULL VALUE
COMP  .          	              :COMPANY
WELL  .                               :WELL
LOC   .                               :LOCATION - AREA
FLD   .                               :FIELD
CTRY  .                               :COUNTRY
DATE  .                               :WELL DATE
UWI   .          	              :UWI
ZSTK  .          TVDss                :Z-STICK
XWELL .m         		      :X POS
YWELL .m         	              :Y POS
EDF   .          24.0                 :DERRICK FLOOR ELEVATION
#
#----------------------------------------------------------------------------
~CURVE INFORMATION
#MNEM.UNIT                                  : CURVE DESCRIPTION
#----------                                 -------------------------------
DEPT        .m                              : 1      DEPTH
MD          .m                              : 2      Depth
GR          .API                            : 3      GR
CALIPER     .m                              : 4      Cal
VP          .km/s                           : 5      Vp
VS          .km/s                           : 6      Vs
RHO         .g/cm3                          : 7      Rho
Porosidade  .fract                          : 8      Por
Argilosidade.fract                          : 9      Volume
Saturacao   .fract                          : 10     Sat
#
#----------------------------------------------------------------------------
~A          MD          GR          CALIPER     VP          VS          RHO         Porosidade  Argilosidade Saturacao   
# ...
3286.6      3310.6      96.55       0.3158      2.7789      1.158       2.1862      0.2363      0.2423      0.7527      
3286.8      3310.8      104.1504    0.3159      2.7293      1.1639      2.215       0.1822      0.4112      0.8663      
3287.0      3311.0      108.7688    0.3158      2.6856      1.1558      2.2269      0.1204      0.6467      0.9888      
3287.2      3311.2      108.5242    0.3158      2.6541      1.1347      2.2133      0.1251      0.6459      0.9826      
3287.4      3311.4      107.0533    0.3158      2.6384      1.1081      2.1924      0.1893      0.4238      0.8879      
3287.6      3311.6      105.6184    0.3158      2.6387      1.0854      2.1872      0.1496      0.6069      0.9786      
3287.8      3311.8      104.5511    0.3159      2.6567      1.0736      2.198       0.1401      0.6197      1.0         
3288.0      3312.0      105.5997    0.3161      2.6963      1.0751      2.2233      0.1338      0.5882      0.9977      
3288.2      3312.2      106.9036    0.3165      2.7594      1.0903      2.2618      0.0438      0.8493      1.0         
3288.4      3312.4      108.968     0.317       2.845       1.1182      2.3071      0.0141      0.8791      0.9991      
3288.6      3312.6      110.5042    0.3187      2.9464      1.1528      2.3547      0.0021      0.9778      1.0         
3288.8      3312.8      111.0512    0.3206      3.0559      1.1882      2.3824      0.0         0.9897      1.0         
3289.0      3313.0      109.0759    0.3187      3.1656      1.2193      2.3803      0.0085      0.7524      0.9987      
3289.2      3313.2      101.6493    0.3161      3.2601      1.2406      2.3753      0.0731      0.4274      0.9966      
3289.4      3313.4      97.4415     0.3167      3.3133      1.2468      2.3563      0.1301      0.2607      0.8686      
3289.6      3313.6      97.0311     0.3226      3.3082      1.2369      2.2961      0.1809      0.2064      0.6488      
3289.8      3313.8      101.237     0.3356      3.2326      1.2093      2.2228      0.1727      0.3972      0.5963      
3290.0      3314.0      109.5133    0.3437      3.1124      1.1693      2.1711      0.024       0.9306      0.7736      
3290.2      3314.2      116.2483    0.3364      2.9797      1.1241      2.1544      0.0086      0.9816      0.9797      
3290.4      3314.4      120.5894    0.3247      2.8611      1.0803      2.1696      0.0876      0.7783      1.0         
3290.6      3314.6      122.0205    0.3233      2.7724      1.0432      2.1844      0.0583      0.8569      0.997       
3290.8      3314.8      124.643     0.327       2.7169      1.0158      2.2031      0.0053      0.9856      1.0         
3291.0      3315.0      128.0738    0.3257      2.6858      0.9979      2.2418      0.0         1.0         0.9982      
3291.2      3315.2      128.5671    0.3239      2.6678      0.9883      2.2329      0.0172      0.9539      0.9867      
3291.4      3315.4      131.156     0.3245      2.6548      0.9853      2.1551      0.1669      0.5744      0.7904      
3291.6      3315.6      137.6509    0.3295      2.6431      0.9867      2.114       0.2237      0.4396      0.7011      
3291.8      3315.8      139.0361    0.3351      2.633       0.9919      2.1543      0.1509      0.6229      0.8777      
3292.0      3316.0      134.8201    0.3298      2.6264      0.9987      2.2241      0.051       0.8729      0.994       
3292.2      3316.2      132.0194    0.3223      2.6243      1.005       2.2756      0.0221      0.9424      0.9996      
3292.4      3316.4      131.1723    0.3211      2.6252      1.009       2.2969      0.0257      0.929       1.0         
3292.6      3316.6      132.1027    0.3202      2.6282      1.01        2.2868      0.0247      0.9311      0.9995      
3292.8      3316.8      132.4601    0.318       2.631       1.009       2.2643      0.0271      0.9316      1.0         
3293.0      3317.0      129.8795    0.3172      2.633       1.0065      2.2549      0.0143      0.9513      0.9996      
3293.2      3317.2      125.6985    0.3174      2.6344      1.0039      2.2667      0.0408      0.8437      1.0         
3293.4      3317.4      122.2353    0.3184      2.6361      1.0019      2.2898      0.0085      0.9671      0.9996      
3293.6      3317.6      125.3208    0.3196      2.6397      1.0005      2.3028      0.0         1.0         1.0         
3293.8      3317.8      128.5969    0.3203      2.6462      0.9988      2.2955      0.0027      0.9871      0.9996      
3294.0      3318.0      130.596     0.3205      2.6559      0.9966      2.2811      0.0097      0.9608      1.0         
3294.2      3318.2      128.6104    0.3204      2.6679      0.9939      2.2721      0.0225      0.933       0.9995      
3294.4      3318.4      126.3487    0.3205      2.6792      0.9918      2.2686      0.0043      0.9912      1.0         
3294.6      3318.6      133.8643    0.3219      2.6853      0.9915      2.2672      0.0243      0.9284      0.9993      
3294.8      3318.8      137.1949    0.3218      2.6844      0.993       2.2579      0.0941      0.7255      1.0         
3295.0      3319.0      127.7607    0.3186      2.6746      0.9959      2.225       0.1032      0.7187      0.9991      
3295.2      3319.2      114.4889    0.3166      2.6593      0.9997      2.1715      0.082       0.7965      1.0         
3295.4      3319.4      102.4563    0.3163      2.6433      1.004       2.1273      0.1418      0.6464      0.967       
3295.6      3319.6      94.6859     0.3163      2.6313      1.0086      2.1151      0.216       0.4467      0.8462      
3295.8      3319.8      92.4838     0.3163      2.6259      1.0128      2.1265      0.2923      0.1519      0.7167      
3296.0      3320.0      92.7874     0.3163      2.6266      1.0162      2.134       0.3006      0.1104      0.7286      
3296.2      3320.2      94.3408     0.3163      2.6331      1.0188      2.1241      0.3153      0.0749      0.7059      
3296.4      3320.4      94.8303     0.3161      2.6438      1.021       2.1138      0.3124      0.1043      0.7239      
3296.6      3320.6      95.3687     0.316       2.6581      1.0228      2.1211      0.2323      0.3893      0.9033      
3296.8      3320.8      97.9965     0.3161      2.6754      1.0247      2.1324      0.2608      0.2651      0.8381      
3297.0      3321.0      101.4024    0.3161      2.6947      1.0274      2.1293      0.3161      0.055       0.7162      
3297.2      3321.2      101.1718    0.3161      2.7143      1.0321      2.1163      0.3185      0.0733      0.7024      
3297.4      3321.4      97.1105     0.316       2.7322      1.04        2.1009      0.317       0.1133      0.6985      
3297.6      3321.6      94.8415     0.3159      2.7466      1.0515      2.0957      0.3353      0.0323      0.6831      
3297.8      3321.8      93.8288     0.3159      2.7568      1.0666      2.1074      0.335       0.0118      0.6914      
3298.0      3322.0      91.712      0.316       2.7638      1.0845      2.1157      0.3252      0.0162      0.7273      
3298.2      3322.2      91.1547     0.3161      2.7696      1.1036      2.1093      0.3369      0.0         0.713       
3298.4      3322.4      93.2716     0.3162      2.7747      1.1214      2.1033      0.3307      0.0268      0.7268      
3298.6      3322.6      94.2218     0.3163      2.7784      1.1355      2.1099      0.3149      0.0988      0.7345      
3298.8      3322.8      94.3762     0.3162      2.7788      1.1446      2.1206      0.2681      0.2704      0.8275      
3299.0      3323.0      95.0634     0.3161      2.7747      1.1501      2.1184      0.2226      0.4284      0.9472      
3299.2      3323.2      94.856      0.3163      2.766       1.1556      2.1049      0.2739      0.2943      0.8215      
3299.4      3323.4      94.9479     0.3167      2.7547      1.1658      2.1033      0.3156      0.114       0.7328      
3299.6      3323.6      92.0409     0.3169      2.7438      1.1839      2.1181      0.3091      0.0934      0.7436      
3299.8      3323.8      87.4441     0.3169      2.7372      1.2096      2.1386      0.2812      0.1497      0.7939      
