#----------------------------------------------------------------------------
~VERSION INFORMATION
VERS.            2.0                  :CWLS LOG ASCII STANDARD -VERSION 2.0
WRAP.            NO                   :ONE LINE PER DEPTH STEP
#
#--------------------------------------------------------------------
~WELL INFORMATION
#MNEM .UNIT      DATA                 :DESCRIPTION OF MNEMONIC
#----------      ------------         -------------------------------
STRT  .m         2796.1109            :START DEPTH
STEP  .m         0.2                  :STEP DEPTH
STOP  .m         3026.1109            :STOP DEPTH
NULL  .          -999.25              :NULL VALUE
COMP  .          	              :COMPANY
WELL  .                               :WELL
LOC   .                               :LOCATION - AREA
FLD   .                               :FIELD
CTRY  .                               :COUNTRY
DATE  .                               :WELL DATE
UWI   .          	              :UWI
ZSTK  .          TVDss                :Z-STICK
XWELL .m                              :X POS
YWELL .m                              :Y POS
EDF   .          30.0                 :DERRICK FLOOR ELEVATION
#
#----------------------------------------------------------------------------
~CURVE INFORMATION
#MNEM.UNIT                                  : CURVE DESCRIPTION
#----------                                 -------------------------------
DEPT        .m                              : 1      DEPTH
MD          .m                              : 2      Depth
Depth_TVDkb .m                              : 3      Depth
COTA        .m                              : 4      Depth
GR          .API                            : 5      GR
CALIPER     .m                              : 6      Cal
VP          .km/s                           : 7      Vp
VS          .km/s                           : 8      Vs
RHO         .g/cm3                          : 9      Rho
Porosidade  .fract                          : 10     Por
Argilosidade.fract                          : 11     Volume
Saturacao   .fract                          : 12     Sat
#
#----------------------------------------------------------------------------
~A          MD          Depth_TVDkb COTA        GR          CALIPER     VP          VS          RHO         Porosidade  Argilosidade Saturacao   
# ...
2852.1109   2903.6799   2882.1109   -2873.6799  106.6958    0.3212      1.9791      1.017       2.0818      0.3108      0.0664      0.1206      
2852.3109   2903.8679   2882.3109   -2873.8679  104.2987    0.3208      1.9791      1.0122      2.0821      0.3046      0.0669      0.1224      
2852.5109   2904.056    2882.5109   -2874.056   101.5433    0.3206      1.9714      1.0078      2.0789      0.2973      0.0682      0.1265      
2852.7109   2904.2441   2882.7109   -2874.2441  98.1399     0.3207      1.9553      1.0065      2.0605      0.2952      0.0909      0.1403      
2852.9109   2904.4323   2882.9109   -2874.4323  93.4873     0.321       1.9445      1.007       2.0589      0.2943      0.1203      0.1516      
2853.1109   2904.6205   2883.1109   -2874.6205  94.4762     0.3211      1.9452      1.0084      2.0783      0.3078      0.1316      0.151       
2853.3109   2904.8087   2883.3109   -2874.8087  105.8216    0.321       1.9555      1.0095      2.073       0.3211      0.1428      0.1505      
2853.5109   2904.9969   2883.5109   -2874.9969  103.3263    0.3208      1.9646      1.0106      2.0535      0.3106      0.1711      0.1686      
2853.7109   2905.1852   2883.7109   -2875.1852  101.3241    0.3205      1.9702      1.0124      2.0757      0.2966      0.1914      0.1862      
2853.9109   2905.3735   2883.9109   -2875.3735  109.1804    0.3206      1.9856      1.0157      2.1382      0.2914      0.1324      0.1591      
2854.1109   2905.5618   2884.1109   -2875.5618  111.9341    0.3208      2.0099      1.0217      2.1467      0.286       0.0718      0.1327      
2854.3109   2905.7502   2884.3109   -2875.7502  99.2334     0.3208      2.0155      1.0337      2.1362      0.2721      0.0672      0.1356      
2854.5109   2905.9386   2884.5109   -2875.9386  95.8454     0.3209      2.0153      1.0505      2.1429      0.2621      0.0656      0.1413      
2854.7109   2906.1271   2884.7109   -2876.1271  94.8889     0.3211      2.0168      1.0638      2.1487      0.2653      0.0817      0.1485      
2854.9109   2906.3155   2884.9109   -2876.3155  95.8465     0.3211      2.0255      1.0664      2.147       0.2693      0.1047      0.1562      
2855.1109   2906.504    2885.1109   -2876.504   94.4541     0.3211      2.0476      1.0646      2.1439      0.2703      0.1185      0.1633      
2855.3109   2906.6925   2885.3109   -2876.6925  94.9447     0.3211      2.0761      1.0602      2.1442      0.2715      0.1277      0.1671      
2855.5109   2906.8811   2885.5109   -2876.8811  95.9979     0.3209      2.0754      1.057       2.1519      0.2829      0.1326      0.1641      
2855.7109   2907.0696   2885.7109   -2877.0696  99.4783     0.3208      2.0411      1.0567      2.1496      0.2943      0.1347      0.1587      
2855.9109   2907.2582   2885.9109   -2877.2582  110.6962    0.3208      2.003       1.0599      2.1259      0.2966      0.1227      0.1508      
2856.1109   2907.4469   2886.1109   -2877.4469  110.2402    0.3208      1.9964      1.0683      2.1169      0.2974      0.1112      0.1457      
2856.3109   2907.6356   2886.3109   -2877.6356  104.4359    0.3208      2.0014      1.0787      2.1146      0.2855      0.1144      0.1522      
2856.5109   2907.8243   2886.5109   -2877.8243  99.112      0.3208      2.0088      1.0874      2.113       0.2742      0.1217      0.1625      
2856.7109   2908.013    2886.7109   -2878.013   100.337     0.3208      2.0086      1.0913      2.118       0.2768      0.1399      0.1722      
2856.9109   2908.2018   2886.9109   -2878.2018  100.7442    0.3208      2.0029      1.0901      2.1264      0.2824      0.1594      0.1777      
2857.1109   2908.3906   2887.1109   -2878.3906  103.3715    0.321       1.9972      1.0797      2.15        0.2971      0.1708      0.1761      
2857.3109   2908.5794   2887.3109   -2878.5794  110.7567    0.3211      1.9981      1.0563      2.1662      0.3089      0.176       0.172       
2857.5109   2908.7683   2887.5109   -2878.7683  115.0678    0.3212      2.0035      1.0305      2.1251      0.3102      0.1032      0.1387      
2857.7109   2908.9572   2887.7109   -2878.9572  110.1548    0.3213      2.0063      1.0181      2.0408      0.3107      0.0354      0.1101      
2857.9109   2909.1461   2887.9109   -2879.1461  103.6343    0.3213      2.0087      1.0198      2.0454      0.2913      0.0372      0.1173      
2858.1109   2909.335    2888.1109   -2879.335   102.2029    0.3213      2.0136      1.0292      2.1027      0.2733      0.0412      0.1264      
2858.3109   2909.524    2888.3109   -2879.524   98.3352     0.3213      2.0203      1.0372      2.1188      0.2748      0.0502      0.1298      
2858.5109   2909.713    2888.5109   -2879.713   95.4175     0.3212      2.0268      1.0434      2.1232      0.2769      0.0644      0.1334      
2858.7109   2909.9021   2888.7109   -2879.9021  92.6115     0.3214      2.0271      1.0493      2.1372      0.2783      0.0853      0.1423      
2858.9109   2910.0912   2888.9109   -2880.0912  91.8916     0.3216      2.0189      1.0522      2.1408      0.28        0.1107      0.1537      
2859.1109   2910.2803   2889.1109   -2880.2803  93.1999     0.3216      2.0071      1.0509      2.1368      0.2839      0.1436      0.1672      
2859.3109   2910.4694   2889.3109   -2880.4694  96.3947     0.3214      2.0021      1.0432      2.139       0.2907      0.1628      0.175       
2859.5109   2910.6586   2889.5109   -2880.6586  98.1005     0.321       1.9986      1.0291      2.1311      0.3121      0.1451      0.1556      
2859.7109   2910.8477   2889.7109   -2880.8477  104.5087    0.3205      1.9861      1.0137      2.0717      0.3278      0.1222      0.1382      
2859.9109   2911.037    2889.9109   -2881.037   107.0151    0.3202      1.9534      1.0054      2.0406      0.3076      0.1098      0.1417      
2860.1109   2911.2263   2890.1109   -2881.2263  103.8955    0.3201      1.9188      1.0052      2.0703      0.2897      0.1022      0.1448      
2860.3109   2911.4155   2890.3109   -2881.4155  99.3284     0.32        1.906       1.0074      2.1163      0.297       0.0989      0.1404      
2860.5109   2911.6048   2890.5109   -2881.6048  100.8429    0.3198      1.9083      1.0072      2.106       0.3077      0.0968      0.1344      
2860.7109   2911.7942   2890.7109   -2881.7942  107.2875    0.3198      1.9232      1.0046      2.0591      0.3167      0.0952      0.1301      
2860.9109   2911.9836   2890.9109   -2881.9836  105.9905    0.3197      1.9426      1.0046      2.0462      0.3213      0.0944      0.1281      
2861.1109   2912.173    2891.1109   -2882.173   97.8928     0.3192      1.9612      1.0094      2.0693      0.2964      0.1064      0.1448      
2861.3109   2912.3624   2891.3109   -2882.3624  92.2456     0.3187      1.9833      1.0134      2.1278      0.2748      0.1166      0.1592      
2861.5109   2912.5519   2891.5109   -2882.5519  92.5469     0.3185      2.0061      1.0123      2.1393      0.2815      0.0884      0.1417      
2861.7109   2912.7414   2891.7109   -2882.7414  101.1751    0.3182      2.0082      1.0093      2.1102      0.2873      0.0523      0.1244      
2861.9109   2912.9311   2891.9109   -2882.9311  98.2356     0.3179      1.9843      1.0127      2.0505      0.2816      0.03        0.1211      
2862.1109   2913.1202   2892.1109   -2883.1202  94.8254     0.3178      1.9492      1.0282      2.0471      0.2747      0.0198      0.12        
2862.3109   2913.3085   2892.3109   -2883.3085  91.8001     0.3177      1.9446      1.0475      2.0934      0.2707      0.0503      0.1323      
2862.5109   2913.4963   2892.5109   -2883.4963  92.7653     0.3177      1.9649      1.0522      2.1257      0.2691      0.0771      0.1426      
2862.7109   2913.6843   2892.7109   -2883.6843  92.87       0.3178      1.9898      1.0467      2.1281      0.2818      0.0789      0.1381      
2862.9109   2913.8726   2892.9109   -2883.8726  96.6977     0.3178      1.9854      1.0315      2.1169      0.2989      0.0794      0.1301      
2863.1109   2914.0621   2893.1109   -2884.0621  101.4229    0.3177      1.9598      1.0216      2.0586      0.312       0.0574      0.1166      
