#----------------------------------------------------------------------------
~VERSION INFORMATION
VERS.            2.0                  :CWLS LOG ASCII STANDARD -VERSION 2.0
WRAP.            NO                   :ONE LINE PER DEPTH STEP
#
#--------------------------------------------------------------------
~WELL INFORMATION
#MNEM .UNIT      DATA                 :DESCRIPTION OF MNEMONIC
#----------      ------------         -------------------------------
STRT  .m         2775.191             :START DEPTH
STEP  .m         0.2                  :STEP DEPTH
STOP  .m         3093.191             :STOP DEPTH
NULL  .          -999.25              :NULL VALUE
COMP  .                               :COMPANY
WELL  .                               :WELL
LOC   .                               :LOCATION - AREA
FLD   .                               :FIELD
CTRY  .                               :COUNTRY
DATE  .                               :WELL DATE
UWI   .                               :UWI
ZSTK  .          TVDss                :Z-STICK
XWELL .m         	              :X POS
YWELL .m         	              :Y POS
EDF   .          24.0                 :DERRICK FLOOR ELEVATION
#
#----------------------------------------------------------------------------
~CURVE INFORMATION
#MNEM.UNIT                                  : CURVE DESCRIPTION
#----------                                 -------------------------------
DEPT        .m                              : 1      DEPTH
COTA        .m                              : 2      Depth
Depth_TVDkb .m                              : 3      Depth
TVD         .m                              : 4      Depth
GR          .API                            : 5      GR
CALIPER     .m                              : 6      Cal
VP          .km/s                           : 7      Vp
VS          .km/s                           : 8      Vs
RHO         .g/cm3                          : 9      Rho
Porosidade  .fract                          : 10     Por
Argilosidade.fract                          : 11     Volume
Saturacao   .fract                          : 12     Sat
#
#----------------------------------------------------------------------------
~A          COTA        Depth_TVDkb TVD         GR          CALIPER     VP          VS          RHO         Porosidade  Argilosidade Saturacao   
# ...
3021.591    -3021.6834  3045.591    3045.6834   80.1007     0.3151      3.3787      1.6109      2.3013      0.2192      0.0         0.3723      
3021.791    -3021.8848  3045.791    3045.8848   78.8317     0.3158      3.4006      1.6154      2.2725      0.2211      0.0         0.3801      
3021.991    -3022.0862  3045.991    3046.0862   78.4575     0.3167      3.2657      1.5691      2.2649      0.2228      0.0         0.3902      
3022.191    -3022.2877  3046.191    3046.2877   78.3679     0.3155      3.1177      1.5347      2.2814      0.2229      0.0         0.3938      
3022.391    -3022.4891  3046.391    3046.4891   77.6951     0.3141      3.0359      1.5343      2.2874      0.2231      0.0         0.3969      
3022.591    -3022.6906  3046.591    3046.6906   76.8826     0.3141      3.0471      1.5787      2.2798      0.2232      0.0         0.4002      
3022.791    -3022.8919  3046.791    3046.8919   76.4607     0.3147      3.1015      1.6422      2.2869      0.2113      0.0584      0.3608      
3022.991    -3023.0934  3046.991    3047.0934   76.2147     0.3151      3.3579      1.8498      2.2984      0.1989      0.1202      0.3189      
3023.191    -3023.2948  3047.191    3047.2948   76.7015     0.3156      3.565       2.0154      2.2794      0.2185      0.0798      0.3334      
3023.391    -3023.4961  3047.391    3047.4961   76.2136     0.3159      3.4986      1.9496      2.2427      0.2383      0.039       0.3481      
3023.591    -3023.6975  3047.591    3047.6975   74.9917     0.3166      3.4115      1.8114      2.2347      0.2578      0.0         0.363       
3023.791    -3023.8989  3047.791    3047.8989   75.0082     0.3169      3.1775      1.5575      2.2364      0.2696      0.0         0.4051      
3023.991    -3024.1003  3047.991    3048.1003   75.117      0.3175      2.9546      1.3532      2.2117      0.2824      0.0         0.4423      
3024.191    -3024.3016  3048.191    3048.3016   75.4288     0.32        2.8433      1.2523      2.1834      0.3212      0.0         0.3953      
3024.391    -3024.503   3048.391    3048.503    75.8732     0.3188      2.7962      1.1992      2.1704      0.3592      0.0         0.3509      
3024.591    -3024.7043  3048.591    3048.7043   77.5322     0.317       2.8317      1.1839      2.0825      0.3924      0.0         0.3142      
3024.791    -3024.9057  3048.791    3048.9057   80.3863     0.3317      2.9281      1.1962      2.1973      0.3964      0.0         0.3444      
3024.991    -3025.107   3048.991    3049.107    81.7537     0.3547      2.871       1.1603      2.186       0.3971      0.0071      0.3809      
3025.191    -3025.3083  3049.191    3049.3083   82.8312     0.3581      2.787       1.1394      2.1697      0.3358      0.1584      0.5349      
3025.391    -3025.5096  3049.391    3049.5096   88.6644     0.3507      2.62        1.1139      2.1254      0.2789      0.2987      0.6826      
3025.591    -3025.7109  3049.591    3049.7109   93.2539     0.3521      2.5067      1.1072      2.0641      0.2385      0.3987      0.7869      
3025.791    -3025.9122  3049.791    3049.9122   92.9688     0.3499      2.4623      1.1054      2.0957      0.2444      0.3868      0.7607      
3025.991    -3026.1135  3049.991    3050.1135   89.4523     0.3483      2.4959      1.1244      2.0884      0.2561      0.3604      0.7278      
3026.191    -3026.3147  3050.191    3050.3147   88.6531     0.3637      2.6054      1.1554      2.065       0.3133      0.2168      0.6393      
3026.391    -3026.516   3050.391    3050.516    89.07       0.3691      2.703       1.1847      2.0495      0.3678      0.0805      0.5521      
3026.591    -3026.7173  3050.591    3050.7173   90.3133     0.3575      2.7287      1.1882      2.1572      0.3743      0.0545      0.5428      
3026.791    -3026.9186  3050.791    3050.9186   89.9761     0.358       2.7369      1.1822      2.1445      0.1877      0.4504      0.8527      
3026.991    -3027.1198  3050.991    3051.1198   88.1208     0.357       2.77        1.1807      2.1371      0.091       0.6602      1.0         
3027.191    -3027.321   3051.191    3051.321    90.0217     0.3413      2.791       1.1693      2.2361      0.0806      0.6886      1.0         
3027.391    -3027.5223  3051.391    3051.5223   92.507      0.3353      2.8077      1.1615      2.2434      0.0691      0.7193      1.0         
3027.591    -3027.7235  3051.591    3051.7235   93.0468     0.3377      2.8076      1.1577      2.2332      0.0508      0.7768      1.0         
3027.791    -3027.9247  3051.791    3051.9247   93.8011     0.3354      2.7981      1.1615      2.2401      0.0144      0.908       1.0         
3027.991    -3028.1259  3051.991    3052.1259   89.8586     0.3346      2.7627      1.162       2.27        0.0         0.9685      0.9989      
3028.191    -3028.3271  3052.191    3052.3271   84.3132     0.3352      2.7621      1.1795      2.294       0.0         0.9789      0.9947      
3028.391    -3028.5283  3052.391    3052.5283   85.4947     0.335       2.7738      1.1928      2.3053      0.0         0.992       0.9907      
3028.591    -3028.7295  3052.591    3052.7295   86.4141     0.3363      2.7718      1.1916      2.302       0.0128      0.9504      0.9913      
3028.791    -3028.9306  3052.791    3052.9306   82.2276     0.3366      2.7506      1.1725      2.2702      0.0552      0.7953      0.9981      
3028.991    -3029.1318  3052.991    3053.1318   82.1877     0.3366      2.7542      1.1528      2.2267      0.0703      0.7474      1.0         
3029.191    -3029.333   3053.191    3053.333    88.5383     0.3383      2.7626      1.1326      2.2159      0.0736      0.7425      1.0         
3029.391    -3029.5341  3053.391    3053.5341   99.1487     0.34        2.779       1.1281      2.2166      0.0778      0.7365      1.0         
3029.591    -3029.7353  3053.591    3053.7353   103.0485    0.3402      2.7786      1.1261      2.212       0.0687      0.7664      1.0         
3029.791    -3029.9364  3053.791    3053.9364   106.9434    0.3377      2.742       1.1221      2.2026      0.0452      0.8397      1.0         
3029.991    -3030.1375  3053.991    3054.1375   100.8773    0.3341      2.6869      1.1146      2.2098      0.0298      0.8871      1.0         
3030.191    -3030.3387  3054.191    3054.3387   82.0817     0.3323      2.6774      1.116       2.2405      0.0172      0.9253      1.0         
3030.391    -3030.5398  3054.391    3054.5398   79.8582     0.3308      2.706       1.1347      2.2822      0.0023      0.9674      1.0         
3030.591    -3030.7409  3054.591    3054.7409   74.461      0.3297      2.6955      1.1375      2.2971      0.0         0.9853      1.0         
3030.791    -3030.942   3054.791    3054.942    81.8813     0.3308      2.6489      1.1335      2.2858      0.0         0.9983      1.0         
3030.991    -3031.143   3054.991    3055.143    101.7817    0.3322      2.6016      1.1286      2.2678      0.0         1.0         0.9989      
3031.191    -3031.3442  3055.191    3055.3442   103.5728    0.3329      2.6029      1.1312      2.2677      0.0         1.0         0.9971      
3031.391    -3031.5452  3055.391    3055.5452   94.425      0.3334      2.6564      1.1468      2.2829      0.0         1.0         0.9957      
3031.591    -3031.7451  3055.591    3055.7451   84.1462     0.3322      2.7485      1.1759      2.3009      0.0         1.0         0.9776      
3031.791    -3031.9444  3055.791    3055.9444   83.8        0.3297      2.7963      1.1982      2.3134      0.0         1.0         0.9515      
3031.991    -3032.1438  3055.991    3056.1438   86.0205     0.3289      2.7715      1.1961      2.3227      0.0         1.0         0.9412      
3032.191    -3032.3432  3056.191    3056.3432   82.1869     0.3294      2.7379      1.1948      2.3252      0.0         1.0         0.9327      
3032.391    -3032.5427  3056.391    3056.5427   79.1095     0.3299      2.7115      1.1927      2.317       0.0         1.0         0.9232      
3032.591    -3032.7433  3056.591    3056.7433   79.468      0.3305      2.6866      1.1861      2.3125      0.0         1.0         0.933       
