#----------------------------------------------------------------------------
~VERSION INFORMATION
VERS.            2.0                  :CWLS LOG ASCII STANDARD -VERSION 2.0
WRAP.            NO                   :ONE LINE PER DEPTH STEP
#
#--------------------------------------------------------------------
~WELL INFORMATION
#MNEM .UNIT      DATA                 :DESCRIPTION OF MNEMONIC
#----------      ------------         -------------------------------
STRT  .m         3166.1892            :START DEPTH
STEP  .m         0.2                  :STEP DEPTH
STOP  .m         3426.1892            :STOP DEPTH
NULL  .          -999.25              :NULL VALUE
COMP  .                               :COMPANY
WELL  .                               :WELL
LOC   .                               :LOCATION - AREA
FLD   .          	              :FIELD
CTRY  .                               :COUNTRY
DATE  .                               :WELL DATE
UWI   .            	              :UWI
ZSTK  .          TVDss                :Z-STICK
XWELL .m         	              :X POS
YWELL .m         	              :Y POS
EDF   .          14.0                 :DERRICK FLOOR ELEVATION
#
#----------------------------------------------------------------------------
~CURVE INFORMATION
#MNEM.UNIT                                              : CURVE DESCRIPTION
#----------                                             -------------------------------
DEPT                    .m                              : 1      DEPTH
MD                      .m                              : 2      Depth
GR                      .API                            : 3      GR
CALIPER                 .m                              : 4      Cal
VP                      .km/s                           : 5      Vp
Vs_calculado_de_VPVS    .km/s                           : 6      Vs
RHO                     .g/cm3                          : 7      Rho
Porosidade              .fract                          : 8      Por
Argilosidade            .fract                          : 9      Volume
Saturacao               .fract                          : 10     Sat
#
#----------------------------------------------------------------------------
~A                      MD                      GR                      CALIPER                 VP                      Vs_calculado_de_VPVS    RHO                     Porosidade              Argilosidade            Saturacao               
# ...
3268.1892               3282.1892               94.0919                 0.3371                  2.6519                  0.9616                  2.3667                  7.0E-4                  0.9984                  1.0                     
3268.3892               3282.3892               91.04                   0.337                   2.6496                  0.9652                  2.3752                  0.0                     1.0                     1.0                     
3268.5892               3282.5892               86.8718                 0.3362                  2.6559                  0.9676                  2.3726                  0.0                     1.0                     1.0                     
3268.7892               3282.7892               83.0372                 0.3371                  2.6701                  0.9675                  2.3541                  0.0487                  0.8782                  0.9492                  
3268.9892               3282.9892               80.9512                 0.3348                  2.6887                  0.9637                  2.3198                  0.117                   0.7073                  0.8795                  
3269.1892               3283.1892               82.2044                 0.3249                  2.7066                  0.9557                  2.2749                  0.1685                  0.5788                  0.8098                  
3269.3892               3283.3892               86.4853                 0.315                   2.719                   0.9476                  2.2284                  0.2009                  0.4979                  0.737                   
3269.5892               3283.5892               92.5768                 0.3123                  2.7235                  0.9437                  2.189                   0.2347                  0.4133                  0.6542                  
3269.7892               3283.7892               97.1325                 0.3122                  2.7205                  0.9428                  2.1622                  0.2249                  0.4378                  0.691                   
3269.9892               3283.9892               96.0804                 0.3132                  2.7125                  0.9428                  2.1486                  0.2087                  0.4783                  0.7493                  
3270.1892               3284.1892               93.9187                 0.3161                  2.7017                  0.9441                  2.1459                  0.1842                  0.5395                  0.8099                  
3270.3892               3284.3892               93.2162                 0.3171                  2.6891                  0.9432                  2.1493                  0.1479                  0.6302                  0.8759                  
3270.5892               3284.5892               94.4375                 0.3157                  2.6736                  0.942                   2.1531                  0.1048                  0.7381                  0.9515                  
3270.7892               3284.7892               97.0423                 0.3137                  2.6524                  0.942                   2.1529                  0.1143                  0.7141                  0.8346                  
3270.9892               3284.9892               101.7362                0.3121                  2.6231                  0.9306                  2.1474                  0.1305                  0.6739                  0.665                   
3271.1892               3285.1892               104.1575                0.3112                  2.5859                  0.9149                  2.1379                  0.1715                  0.5629                  0.5252                  
3271.3892               3285.3892               104.1351                0.3123                  2.5449                  0.9206                  2.128                   0.2481                  0.3498                  0.4165                  
3271.5892               3285.5892               99.4165                 0.3151                  2.5065                  0.9386                  2.1224                  0.3411                  0.0903                  0.2986                  
3271.7892               3285.7892               99.3274                 0.3152                  2.4776                  0.9466                  2.1259                  0.3213                  0.1229                  0.362                   
3271.9892               3285.9892               102.5783                0.3149                  2.4622                  0.9563                  2.141                   0.2869                  0.1883                  0.4577                  
3272.1892               3286.1892               107.0815                0.3175                  2.4609                  0.9689                  2.1669                  0.2311                  0.3312                  0.5886                  
3272.3892               3286.3892               104.6341                0.3219                  2.4711                  0.9694                  2.1985                  0.145                   0.5844                  0.7706                  
3272.5892               3286.5892               98.1293                 0.3251                  2.4887                  0.9625                  2.2293                  0.0456                  0.8825                  0.9852                  
3272.7892               3286.7892               91.7285                 0.3293                  2.5094                  0.9572                  2.2539                  0.0238                  0.9406                  1.0                     
3272.9892               3286.9892               88.5029                 0.3324                  2.5307                  0.9552                  2.2698                  0.0084                  0.9792                  1.0                     
3273.1892               3287.1892               87.9287                 0.3353                  2.552                   0.9565                  2.2774                  0.0065                  0.9837                  1.0                     
3273.3892               3287.3892               90.6396                 0.3352                  2.5738                  0.9585                  2.2797                  0.0163                  0.9592                  1.0                     
3273.5892               3287.5892               96.305                  0.3292                  2.5968                  0.959                   2.2808                  0.0314                  0.9214                  1.0                     
3273.7892               3287.7892               102.2735                0.3263                  2.621                   0.958                   2.283                   0.0312                  0.9219                  1.0                     
3273.9892               3287.9892               106.9009                0.3286                  2.6442                  0.9557                  2.2849                  0.0294                  0.9266                  1.0                     
3274.1892               3288.1892               106.7231                0.3291                  2.6635                  0.9537                  2.2829                  0.0302                  0.9246                  1.0                     
3274.3892               3288.3892               104.6943                0.33                    2.6754                  0.9557                  2.2737                  0.0339                  0.9151                  1.0                     
3274.5892               3288.5892               103.6876                0.3324                  2.6778                  0.9637                  2.2577                  0.0378                  0.9054                  1.0                     
3274.7892               3288.7892               106.2226                0.3366                  2.6703                  0.9721                  2.2369                  0.082                   0.795                   0.9578                  
