#----------------------------------------------------------------------------
~VERSION INFORMATION
VERS.            2.0                  :CWLS LOG ASCII STANDARD -VERSION 2.0
WRAP.            NO                   :ONE LINE PER DEPTH STEP
#
#--------------------------------------------------------------------
~WELL INFORMATION
#MNEM .UNIT      DATA                 :DESCRIPTION OF MNEMONIC
#----------      ------------         -------------------------------
STRT  .m         3166.1892            :START DEPTH
STEP  .m         0.2                  :STEP DEPTH
STOP  .m         3426.1892            :STOP DEPTH
NULL  .          -999.25              :NULL VALUE
COMP  .                               :COMPANY
WELL  .                               :WELL
LOC   .                               :LOCATION - AREA
FLD   .          	              :FIELD
CTRY  .                               :COUNTRY
DATE  .                               :WELL DATE
UWI   .            	              :UWI
ZSTK  .          TVDss                :Z-STICK
XWELL .m         	              :X POS
YWELL .m         	              :Y POS
EDF   .          14.0                 :DERRICK FLOOR ELEVATION
#
#----------------------------------------------------------------------------
~CURVE INFORMATION
#MNEM.UNIT                                              : CURVE DESCRIPTION
#----------                                             -------------------------------
DEPT                    .m                              : 1      DEPTH
MD                      .m                              : 2      Depth
GR                      .API                            : 3      GR
CALIPER                 .m                              : 4      Cal
VP                      .km/s                           : 5      Vp
Vs_calculado_de_VPVS    .km/s                           : 6      Vs
RHO                     .g/cm3                          : 7      Rho
Porosidade              .fract                          : 8      Por
Argilosidade            .fract                          : 9      Volume
Saturacao               .fract                          : 10     Sat
#
#----------------------------------------------------------------------------
~A                      MD                      GR                      CALIPER                 VP                      Vs_calculado_de_VPVS    RHO                     Porosidade              Argilosidade            Saturacao               
# ...
3281.7892               3295.7892               105.1309                0.3467                  2.6095                  0.9305                  2.1775                  0.0209                  0.9476                  1.0                     
3281.9892               3295.9892               109.9935                0.3464                  2.6119                  0.9297                  2.1712                  0.0317                  0.9208                  1.0                     
3282.1892               3296.1892               112.4805                0.343                   2.6141                  0.9231                  2.1637                  0.0509                  0.8725                  1.0                     
3282.3892               3296.3892               113.1866                0.3337                  2.6176                  0.9153                  2.1591                  0.0818                  0.7955                  1.0                     
3282.5892               3296.5892               110.7994                0.329                   2.6239                  0.9127                  2.1621                  0.1185                  0.7036                  1.0                     
3282.7892               3296.7892               105.533                 0.3297                  2.6343                  0.917                   2.1743                  0.1159                  0.7104                  1.0                     
3282.9892               3296.9892               98.4402                 0.3295                  2.6496                  0.925                   2.1943                  0.1093                  0.7268                  1.0                     
3283.1892               3297.1892               90.2342                 0.3279                  2.6684                  0.9307                  2.2184                  0.0959                  0.7566                  0.9459                  
3283.3892               3297.3892               80.4762                 0.3246                  2.6867                  0.9275                  2.2413                  0.073                   0.8047                  0.8075                  
3283.5892               3297.5892               73.5291                 0.3205                  2.6987                  0.9124                  2.2583                  0.0455                  0.8622                  0.6549                  
3283.7892               3297.7892               72.5512                 0.3146                  2.6981                  0.8939                  2.2642                  0.0835                  0.7344                  0.5248                  
3283.9892               3297.9892               75.8617                 0.3095                  2.6812                  0.8868                  2.2568                  0.1376                  0.5549                  0.3955                  
3284.1892               3298.1892               80.3869                 0.3108                  2.6487                  0.8979                  2.2386                  0.1841                  0.4143                  0.298                   
3284.3892               3298.3892               82.3815                 0.3146                  2.6053                  0.9219                  2.2144                  0.2234                  0.3168                  0.2421                  
3284.5892               3298.5892               85.5018                 0.3155                  2.5579                  0.9446                  2.1885                  0.264                   0.2169                  0.188                   
3284.7892               3298.7892               93.355                  0.3143                  2.5137                  0.9584                  2.1642                  0.281                   0.1908                  0.1643                  
3284.9892               3298.9892               104.4592                0.3144                  2.4787                  0.9664                  2.1449                  0.2956                  0.173                   0.1438                  
3285.1892               3299.1892               109.5577                0.3153                  2.4556                  0.9739                  2.1319                  0.3057                  0.1447                  0.1307                  
3285.3892               3299.3892               109.0856                0.3153                  2.4446                  0.9817                  2.1248                  0.3097                  0.1031                  0.1282                  
3285.5892               3299.5892               104.9647                0.3152                  2.4431                  0.9874                  2.122                   0.3135                  0.0539                  0.1262                  
3285.7892               3299.7892               100.5214                0.3153                  2.4469                  0.9912                  2.1214                  0.3084                  0.0712                  0.1313                  
3285.9892               3299.9892               101.4865                0.3149                  2.4517                  0.9956                  2.1211                  0.3008                  0.0987                  0.139                   
3286.1892               3300.1892               104.7038                0.3143                  2.4541                  1.0004                  2.1199                  0.2979                  0.1235                  0.1345                  
3286.3892               3300.3892               106.9267                0.3151                  2.4522                  1.0031                  2.1165                  0.3001                  0.1459                  0.1158                  
3286.5892               3300.5892               107.0421                0.3157                  2.4464                  1.0019                  2.1107                  0.3029                  0.1709                  0.0918                  
3286.7892               3300.7892               104.6545                0.3153                  2.4389                  0.9999                  2.1036                  0.3184                  0.1193                  0.0929                  
3286.9892               3300.9892               99.3795                 0.316                   2.4329                  1.0043                  2.0973                  0.3393                  0.0445                  0.0962                  
3287.1892               3301.1892               95.9666                 0.3178                  2.4315                  1.0167                  2.0936                  0.345                   0.0075                  0.1035                  
3287.3892               3301.3892               95.4136                 0.317                   2.436                   1.031                   2.0935                  0.3364                  0.0149                  0.1166                  
3287.5892               3301.5892               97.8173                 0.3133                  2.4455                  1.038                   2.0968                  0.3244                  0.0268                  0.1322                  
3287.7892               3301.7892               100.7954                0.3123                  2.4574                  1.0364                  2.1023                  0.3163                  0.0421                  0.1283                  
3287.9892               3301.9892               103.5626                0.3128                  2.4689                  1.0269                  2.1085                  0.3084                  0.0587                  0.121                   
3288.1892               3302.1892               106.5599                0.3133                  2.4778                  1.0183                  2.1139                  0.3055                  0.0687                  0.1238                  
3288.3892               3302.3892               110.1541                0.314                   2.4834                  1.0174                  2.1176                  0.308                   0.0691                  0.1374                  
