#----------------------------------------------------------------------------
~VERSION INFORMATION
VERS.            2.0                  :CWLS LOG ASCII STANDARD -VERSION 2.0
WRAP.            NO                   :ONE LINE PER DEPTH STEP
#
#--------------------------------------------------------------------
~WELL INFORMATION
#MNEM .UNIT      DATA                 :DESCRIPTION OF MNEMONIC
#----------      ------------         -------------------------------
STRT  .m         3166.1892            :START DEPTH
STEP  .m         0.2                  :STEP DEPTH
STOP  .m         3426.1892            :STOP DEPTH
NULL  .          -999.25              :NULL VALUE
COMP  .                               :COMPANY
WELL  .                               :WELL
LOC   .                               :LOCATION - AREA
FLD   .          	              :FIELD
CTRY  .                               :COUNTRY
DATE  .                               :WELL DATE
UWI   .            	              :UWI
ZSTK  .          TVDss                :Z-STICK
XWELL .m         	              :X POS
YWELL .m         	              :Y POS
EDF   .          14.0                 :DERRICK FLOOR ELEVATION
#
#----------------------------------------------------------------------------
~CURVE INFORMATION
#MNEM.UNIT                                              : CURVE DESCRIPTION
#----------                                             -------------------------------
DEPT                    .m                              : 1      DEPTH
MD                      .m                              : 2      Depth
GR                      .API                            : 3      GR
CALIPER                 .m                              : 4      Cal
VP                      .km/s                           : 5      Vp
Vs_calculado_de_VPVS    .km/s                           : 6      Vs
RHO                     .g/cm3                          : 7      Rho
Porosidade              .fract                          : 8      Por
Argilosidade            .fract                          : 9      Volume
Saturacao               .fract                          : 10     Sat
#
#----------------------------------------------------------------------------
~A                      MD                      GR                      CALIPER                 VP                      Vs_calculado_de_VPVS    RHO                     Porosidade              Argilosidade            Saturacao               
# ...
3179.7892               3193.7892               91.0881                 0.3286                  2.6664                  0.9264                  2.325                   0.0388                  0.9031                  1.0                     
3179.9892               3193.9892               93.115                  0.3267                  2.6886                  0.9179                  2.335                   0.0153                  0.9616                  1.0                     
3180.1892               3194.1892               97.1283                 0.3252                  2.7085                  0.9186                  2.3448                  0.0011                  0.9971                  1.0                     
3180.3892               3194.3892               102.2649                0.3255                  2.7224                  0.9294                  2.3527                  0.0                     1.0                     1.0                     
3180.5892               3194.5892               108.2901                0.3266                  2.7277                  0.9491                  2.3572                  0.0                     1.0                     1.0                     
3180.7892               3194.7892               114.105                 0.327                   2.7242                  0.9653                  2.3576                  0.0                     1.0                     1.0                     
3180.9892               3194.9892               113.5274                0.3274                  2.7143                  0.9632                  2.3545                  0.0                     1.0                     1.0                     
3181.1892               3195.1892               109.6583                0.3254                  2.7028                  0.9467                  2.35                    0.0032                  0.9922                  1.0                     
3181.3892               3195.3892               104.1601                0.3202                  2.6957                  0.9308                  2.3474                  0.0121                  0.9699                  1.0                     
3181.5892               3195.5892               99.8598                 0.3187                  2.6987                  0.9206                  2.3498                  0.0236                  0.9412                  1.0                     
3181.7892               3195.7892               94.5229                 0.3193                  2.7149                  0.9237                  2.3588                  0.0181                  0.9549                  0.9458                  
3181.9892               3195.9892               94.0379                 0.3208                  2.7442                  0.9389                  2.3737                  0.0072                  0.9845                  0.8562                  
3182.1892               3196.1892               96.2139                 0.3257                  2.7821                  0.9497                  2.3903                  5.0E-4                  0.9873                  0.8167                  
3182.3892               3196.3892               99.3333                 0.3336                  2.8208                  0.9642                  2.4023                  0.0                     0.9696                  0.8321                  
3182.5892               3196.5892               96.852                  0.3392                  2.8517                  0.9999                  2.4039                  0.0                     0.9431                  0.8588                  
3182.7892               3196.7892               92.5526                 0.3433                  2.8681                  1.0351                  2.3933                  0.0102                  0.91                    0.9052                  
3182.9892               3196.9892               90.971                  0.3432                  2.8672                  1.0478                  2.3718                  0.0254                  0.876                   0.9664                  
3183.1892               3197.1892               91.4791                 0.3386                  2.8513                  1.0356                  2.3432                  0.0485                  0.8203                  0.9747                  
3183.3892               3197.3892               94.728                  0.3376                  2.8259                  0.9988                  2.3138                  0.0845                  0.7322                  0.9405                  
3183.5892               3197.5892               99.3352                 0.3414                  2.7979                  0.9594                  2.2905                  0.1288                  0.6236                  0.8801                  
3183.7892               3197.7892               100.4653                0.3445                  2.7747                  0.9246                  2.2766                  0.1235                  0.6489                  0.9083                  
3183.9892               3197.9892               98.2486                 0.3471                  2.7628                  0.8966                  2.2724                  0.108                   0.7063                  0.9686                  
3184.1892               3198.1892               93.6134                 0.3526                  2.767                   0.8876                  2.2766                  0.093                   0.7564                  0.9697                  
3184.3892               3198.3892               94.2451                 0.3501                  2.789                   0.8906                  2.2868                  0.0778                  0.8001                  0.9183                  
3184.5892               3198.5892               99.1593                 0.3369                  2.8282                  0.8893                  2.3013                  0.0629                  0.8424                  0.8432                  
3184.7892               3198.7892               105.5247                0.3264                  2.8817                  0.8804                  2.3184                  0.0416                  0.8879                  0.8066                  
3184.9892               3198.9892               106.9027                0.3243                  2.9466                  0.8726                  2.336                   0.0151                  0.9409                  0.7733                  
3185.1892               3199.1892               105.3951                0.3242                  3.0181                  0.8781                  2.3525                  0.0097                  0.9249                  0.7725                  
3185.3892               3199.3892               102.1932                0.3249                  3.0873                  0.9021                  2.3666                  0.0224                  0.8274                  0.8019                  
3185.5892               3199.5892               99.3426                 0.3249                  3.144                   0.9254                  2.3749                  0.045                   0.6939                  0.8484                  
3185.7892               3199.7892               96.9083                 0.325                   3.1804                  0.9214                  2.3742                  0.0473                  0.6601                  0.8539                  
3185.9892               3199.9892               97.5816                 0.327                   3.1876                  0.8927                  2.3645                  0.0474                  0.643                   0.8547                  
3186.1892               3200.1892               99.3351                 0.331                   3.1576                  0.8824                  2.3474                  0.0698                  0.6049                  0.8351                  
3186.3892               3200.3892               100.1032                0.3334                  3.0914                  0.9157                  2.325                   0.1334                  0.5358                  0.7785                  
