#----------------------------------------------------------------------------
~VERSION INFORMATION
VERS.            2.0                  :CWLS LOG ASCII STANDARD -VERSION 2.0
WRAP.            NO                   :ONE LINE PER DEPTH STEP
#
#--------------------------------------------------------------------
~WELL INFORMATION
#MNEM .UNIT      DATA                 :DESCRIPTION OF MNEMONIC
#----------      ------------         -------------------------------
STRT  .m         2796.1109            :START DEPTH
STEP  .m         0.2                  :STEP DEPTH
STOP  .m         3026.1109            :STOP DEPTH
NULL  .          -999.25              :NULL VALUE
COMP  .          	              :COMPANY
WELL  .                               :WELL
LOC   .                               :LOCATION - AREA
FLD   .                               :FIELD
CTRY  .                               :COUNTRY
DATE  .                               :WELL DATE
UWI   .          	              :UWI
ZSTK  .          TVDss                :Z-STICK
XWELL .m                              :X POS
YWELL .m                              :Y POS
EDF   .          30.0                 :DERRICK FLOOR ELEVATION
#
#----------------------------------------------------------------------------
~CURVE INFORMATION
#MNEM.UNIT                                  : CURVE DESCRIPTION
#----------                                 -------------------------------
DEPT        .m                              : 1      DEPTH
MD          .m                              : 2      Depth
Depth_TVDkb .m                              : 3      Depth
COTA        .m                              : 4      Depth
GR          .API                            : 5      GR
CALIPER     .m                              : 6      Cal
VP          .km/s                           : 7      Vp
VS          .km/s                           : 8      Vs
RHO         .g/cm3                          : 9      Rho
Porosidade  .fract                          : 10     Por
Argilosidade.fract                          : 11     Volume
Saturacao   .fract                          : 12     Sat
#
#----------------------------------------------------------------------------
~A          MD          Depth_TVDkb COTA        GR          CALIPER     VP          VS          RHO         Porosidade  Argilosidade Saturacao   
# ...
2896.9109   2945.9661   2926.9109   -2915.966   93.8061     0.3212      2.4787      1.1436      2.1875      0.2226      0.2086      0.1214      
2897.1109   2946.1514   2927.1109   -2916.1514  94.4444     0.3216      2.4583      1.1368      2.1934      0.2236      0.205       0.1162      
2897.3109   2946.3366   2927.3109   -2916.3366  91.7067     0.3219      2.4432      1.134       2.198       0.2139      0.2258      0.1098      
2897.5109   2946.5217   2927.5109   -2916.5217  100.3956    0.3219      2.4322      1.1338      2.2013      0.1986      0.2586      0.1044      
2897.7109   2946.7069   2927.7109   -2916.7069  106.3514    0.3212      2.4266      1.1346      2.2034      0.2021      0.2547      0.103       
2897.9109   2946.892    2927.9109   -2916.892   98.2423     0.32        2.4285      1.1359      2.2047      0.2127      0.2391      0.1024      
2898.1109   2947.077    2928.1109   -2917.077   90.5479     0.3192      2.4429      1.1369      2.205       0.2355      0.1662      0.1147      
2898.3109   2947.2619   2928.3109   -2917.2619  92.4305     0.3187      2.4729      1.1372      2.2047      0.2582      0.078       0.1326      
2898.5109   2947.4468   2928.5109   -2917.4468  96.1378     0.3187      2.517       1.1371      2.2038      0.2327      0.1668      0.1142      
2898.7109   2947.6317   2928.7109   -2917.6317  96.579      0.3187      2.5754      1.1368      2.203       0.1966      0.2927      0.0882      
2898.9109   2947.8165   2928.9109   -2917.8165  102.6729    0.3186      2.648       1.1368      2.2024      0.2091      0.2554      0.0943      
2899.1109   2948.0012   2929.1109   -2918.0012  102.3239    0.3184      2.733       1.1369      2.2023      0.2292      0.19        0.1031      
2899.3109   2948.1859   2929.3109   -2918.1859  95.3313     0.318       2.8275      1.1369      2.2024      0.2336      0.1657      0.1032      
2899.5109   2948.3706   2929.5109   -2918.3706  93.5047     0.3175      2.9275      1.1365      2.2038      0.2369      0.1468      0.1033      
2899.7109   2948.5551   2929.7109   -2918.5551  94.0374     0.3175      3.0281      1.1359      2.2071      0.2472      0.1157      0.1053      
2899.9109   2948.7396   2929.9109   -2918.7396  94.7066     0.3175      3.1229      1.1354      2.2107      0.2562      0.0933      0.1077      
2900.1109   2948.924    2930.1109   -2918.924   95.4041     0.3173      3.2057      1.1353      2.2138      0.2365      0.1321      0.1009      
2900.3109   2949.1085   2930.3109   -2919.1085  94.4079     0.3173      3.2708      1.1353      2.2164      0.2121      0.1868      0.0929      
2900.5109   2949.2928   2930.5109   -2919.2928  95.8657     0.317       3.314       1.1353      2.2173      0.2106      0.1987      0.0954      
2900.7109   2949.477    2930.7109   -2919.477   94.7453     0.3171      3.3284      1.135       2.2165      0.2093      0.2111      0.0983      
2900.9109   2949.6613   2930.9109   -2919.6613  97.6118     0.3183      3.3214      1.1343      2.2125      0.1641      0.3751      0.0753      
2901.1109   2949.8455   2931.1109   -2919.8455  93.0377     0.3196      3.2883      1.1332      2.2056      0.1168      0.539       0.0505      
2901.3109   2950.0296   2931.3109   -2920.0296  91.9029     0.3199      3.2345      1.1318      2.1962      0.2133      0.2923      0.084       
2901.5109   2950.2136   2931.5109   -2920.2136  92.436      0.32        3.1656      1.1304      2.1856      0.3126      0.0383      0.1218      
2901.7109   2950.3977   2931.7109   -2920.3977  89.4582     0.3201      3.0872      1.1291      2.1757      0.3093      0.043       0.1265      
2901.9109   2950.5817   2931.9109   -2920.5817  86.6896     0.32        3.0044      1.1284      2.1675      0.3044      0.0477      0.1292      
2902.1109   2950.7655   2932.1109   -2920.7655  87.1107     0.3201      2.9202      1.1284      2.1626      0.3015      0.0348      0.1323      
2902.3109   2950.9493   2932.3109   -2920.9493  89.4759     0.3199      2.8423      1.1295      2.1621      0.2986      0.0227      0.1338      
2902.5109   2951.1332   2932.5109   -2921.1332  87.8704     0.3193      2.6683      1.0994      2.1611      0.2952      0.0243      0.1331      
2902.7109   2951.3169   2932.7109   -2921.3169  86.2304     0.3186      2.5861      1.0856      2.1601      0.2896      0.0287      0.1312      
2902.9109   2951.5005   2932.9109   -2921.5005  85.6199     0.318       2.5727      1.1065      2.1658      0.2694      0.0806      0.1206      
2903.1109   2951.6841   2933.1109   -2921.6841  93.29       0.3176      2.561       1.138       2.1819      0.2411      0.1553      0.1113      
2903.3109   2951.8677   2933.3109   -2921.8677  97.9315     0.3175      2.5497      1.1707      2.1973      0.2114      0.2154      0.1102      
2903.5109   2952.0513   2933.5109   -2922.0513  101.1438    0.3173      2.5435      1.1969      2.2202      0.1868      0.2696      0.1089      
2903.7109   2952.2346   2933.7109   -2922.2346  103.1349    0.317       2.538       1.2115      2.2378      0.1717      0.3138      0.1024      
2903.9109   2952.418    2933.9109   -2922.418   109.0828    0.3169      2.513       1.2114      2.2465      0.1612      0.356       0.093       
2904.1109   2952.6014   2934.1109   -2922.6014  106.0275    0.3172      2.4538      1.1917      2.2714      0.1529      0.412       0.0804      
2904.3109   2952.7847   2934.3109   -2922.7847  95.0258     0.3177      2.3991      1.1501      2.2737      0.1503      0.4378      0.0741      
2904.5109   2952.9678   2934.5109   -2922.9678  89.0584     0.318       2.3772      1.113       2.2184      0.2004      0.3186      0.0914      
2904.7109   2953.151    2934.7109   -2923.151   88.4166     0.3182      2.3695      1.0948      2.1747      0.2358      0.2338      0.1065      
2904.9109   2953.3341   2934.9109   -2923.3341  89.9595     0.3185      2.3629      1.0929      2.1772      0.2227      0.2432      0.1102      
2905.1109   2953.5172   2935.1109   -2923.5172  92.9061     0.3187      2.361       1.101       2.1937      0.2062      0.2595      0.1112      
2905.3109   2953.7002   2935.3109   -2923.7002  89.0456     0.3188      2.3625      1.1264      2.2103      0.1943      0.2908      0.1048      
2905.5109   2953.8831   2935.5109   -2923.8831  94.404      0.3188      2.373       1.162       2.2243      0.1836      0.3068      0.1009      
2905.7109   2954.066    2935.7109   -2924.066   110.3924    0.319       2.4008      1.1945      2.2408      0.1723      0.3037      0.1078      
2905.9109   2954.2488   2935.9109   -2924.2488  107.084     0.3191      2.4425      1.2129      2.2566      0.1691      0.2939      0.12        
2906.1109   2954.4315   2936.1109   -2924.4315  102.3301    0.319       2.4737      1.2151      2.2483      0.2081      0.2099      0.1455      
2906.3109   2954.6142   2936.3109   -2924.6142  98.4144     0.319       2.4738      1.2085      2.2125      0.2305      0.1662      0.157       
2906.5109   2954.7969   2936.5109   -2924.7969  95.4911     0.3191      2.4492      1.1897      2.2005      0.2165      0.261       0.1345      
2906.7109   2954.9795   2936.7109   -2924.9795  97.7916     0.3191      2.4136      1.1608      2.1923      0.2104      0.3105      0.1222      
2906.9109   2955.162    2936.9109   -2925.162   100.8449    0.3183      2.3791      1.1265      2.1587      0.2484      0.2285      0.1299      
2907.1109   2955.3445   2937.1109   -2925.3445  93.9381     0.3179      2.346       1.0985      2.147       0.2682      0.1752      0.1341      
2907.3109   2955.5269   2937.3109   -2925.5269  91.9218     0.3182      2.3312      1.0908      2.1622      0.2552      0.1652      0.1332      
2907.5109   2955.7093   2937.5109   -2925.7093  92.1523     0.3182      2.3391      1.0959      2.1832      0.2399      0.1649      0.131       
2907.7109   2955.8916   2937.7109   -2925.8916  92.4708     0.3179      2.3776      1.1141      2.1914      0.2264      0.2031      0.1215      
2907.9109   2956.0738   2937.9109   -2926.0738  91.8023     0.3175      2.4291      1.1361      2.2008      0.216       0.2356      0.1119      
