#----------------------------------------------------------------------------
~VERSION INFORMATION
VERS.            2.0                  :CWLS LOG ASCII STANDARD -VERSION 2.0
WRAP.            NO                   :ONE LINE PER DEPTH STEP
#
#--------------------------------------------------------------------
~WELL INFORMATION
#MNEM .UNIT      DATA                 :DESCRIPTION OF MNEMONIC
#----------      ------------         -------------------------------
STRT  .m         3166.1892            :START DEPTH
STEP  .m         0.2                  :STEP DEPTH
STOP  .m         3426.1892            :STOP DEPTH
NULL  .          -999.25              :NULL VALUE
COMP  .                               :COMPANY
WELL  .                               :WELL
LOC   .                               :LOCATION - AREA
FLD   .          	              :FIELD
CTRY  .                               :COUNTRY
DATE  .                               :WELL DATE
UWI   .            	              :UWI
ZSTK  .          TVDss                :Z-STICK
XWELL .m         	              :X POS
YWELL .m         	              :Y POS
EDF   .          14.0                 :DERRICK FLOOR ELEVATION
#
#----------------------------------------------------------------------------
~CURVE INFORMATION
#MNEM.UNIT                                              : CURVE DESCRIPTION
#----------                                             -------------------------------
DEPT                    .m                              : 1      DEPTH
MD                      .m                              : 2      Depth
GR                      .API                            : 3      GR
CALIPER                 .m                              : 4      Cal
VP                      .km/s                           : 5      Vp
Vs_calculado_de_VPVS    .km/s                           : 6      Vs
RHO                     .g/cm3                          : 7      Rho
Porosidade              .fract                          : 8      Por
Argilosidade            .fract                          : 9      Volume
Saturacao               .fract                          : 10     Sat
#
#----------------------------------------------------------------------------
~A                      MD                      GR                      CALIPER                 VP                      Vs_calculado_de_VPVS    RHO                     Porosidade              Argilosidade            Saturacao               
# ...
3302.1892               3316.1892               102.9863                0.3196                  2.4975                  1.0414                  2.1983                  0.1262                  0.6842                  0.8732                  
3302.3892               3316.3892               105.0086                0.3208                  2.5122                  1.0425                  2.1993                  0.1285                  0.6789                  0.8768                  
3302.5892               3316.5892               103.5796                0.3209                  2.5273                  1.0469                  2.1981                  0.1325                  0.6687                  0.8787                  
3302.7892               3316.7892               97.7044                 0.3216                  2.5411                  1.0502                  2.1965                  0.1322                  0.6695                  0.8614                  
3302.9892               3316.9892               93.0695                 0.32                    2.5513                  1.0497                  2.196                   0.1315                  0.6712                  0.8382                  
3303.1892               3317.1892               91.977                  0.3165                  2.5559                  1.0452                  2.1973                  0.1322                  0.6693                  0.8224                  
3303.3892               3317.3892               93.5495                 0.3157                  2.5539                  1.038                   2.1999                  0.1347                  0.6631                  0.8154                  
3303.5892               3317.5892               96.0264                 0.3166                  2.5459                  1.0333                  2.2028                  0.1379                  0.6554                  0.8097                  
3303.7892               3317.7892               98.067                  0.3175                  2.534                   1.0326                  2.2054                  0.1383                  0.654                   0.7812                  
3303.9892               3317.9892               99.4158                 0.3182                  2.5213                  1.0348                  2.2067                  0.1387                  0.6533                  0.7441                  
3304.1892               3318.1892               100.1074                0.318                   2.511                   1.0356                  2.2067                  0.1414                  0.6464                  0.735                   
3304.3892               3318.3892               100.0441                0.3173                  2.5056                  1.0358                  2.2066                  0.1477                  0.6307                  0.7517                  
3304.5892               3318.5892               100.4849                0.3175                  2.5062                  1.0396                  2.2073                  0.1552                  0.6119                  0.7724                  
3304.7892               3318.7892               100.8785                0.3177                  2.5122                  1.0471                  2.2097                  0.1356                  0.6611                  0.8287                  
3304.9892               3318.9892               100.6509                0.317                   2.5219                  1.0503                  2.2131                  0.1073                  0.7319                  0.9003                  
3305.1892               3319.1892               97.22                   0.3161                  2.5329                  1.0447                  2.2163                  0.1005                  0.7487                  0.907                   
3305.3892               3319.3892               93.149                  0.3154                  2.5435                  1.0351                  2.2182                  0.1134                  0.7165                  0.8608                  
3305.5892               3319.5892               91.1435                 0.3153                  2.5529                  1.0342                  2.2188                  0.1322                  0.6694                  0.7933                  
3305.7892               3319.7892               90.3621                 0.3158                  2.5614                  1.04                    2.2187                  0.1342                  0.6646                  0.7914                  
3305.9892               3319.9892               89.6942                 0.3161                  2.5701                  1.0426                  2.2184                  0.135                   0.6625                  0.7938                  
3306.1892               3320.1892               91.8736                 0.3153                  2.5793                  1.0404                  2.2185                  0.139                   0.6519                  0.767                   
3306.3892               3320.3892               97.3883                 0.3124                  2.5881                  1.0402                  2.2185                  0.1476                  0.6292                  0.6978                  
3306.5892               3320.5892               101.2497                0.3097                  2.5945                  1.0389                  2.2174                  0.1579                  0.602                   0.6226                  
3306.7892               3320.7892               100.8127                0.3107                  2.5958                  1.0364                  2.2143                  0.1572                  0.6044                  0.5502                  
3306.9892               3320.9892               100.5114                0.3117                  2.5901                  1.0369                  2.2084                  0.1555                  0.61                    0.4786                  
3307.1892               3321.1892               100.3714                0.3128                  2.5779                  1.0417                  2.1996                  0.1701                  0.5555                  0.4007                  
3307.3892               3321.3892               99.9838                 0.3148                  2.5615                  1.05                    2.1886                  0.2084                  0.415                   0.3153                  
3307.5892               3321.5892               97.8194                 0.3148                  2.5449                  1.0592                  2.1771                  0.2535                  0.2481                  0.2197                  
3307.7892               3321.7892               96.1535                 0.3137                  2.5323                  1.0637                  2.1665                  0.2623                  0.2202                  0.2079                  
3307.9892               3321.9892               93.1881                 0.3134                  2.5269                  1.0626                  2.1578                  0.2684                  0.2027                  0.2021                  
3308.1892               3322.1892               89.6076                 0.314                   2.5298                  1.0595                  2.1514                  0.2733                  0.1869                  0.1921                  
3308.3892               3322.3892               87.3768                 0.3135                  2.5397                  1.0578                  2.1475                  0.2765                  0.1738                  0.1769                  
3308.5892               3322.5892               86.5889                 0.3138                  2.5543                  1.058                   2.1462                  0.2798                  0.1614                  0.1591                  
3308.7892               3322.7892               84.4438                 0.3154                  2.5706                  1.0581                  2.1465                  0.2805                  0.1423                  0.1588                  
