#----------------------------------------------------------------------------
~VERSION INFORMATION
VERS.            2.0                  :CWLS LOG ASCII STANDARD -VERSION 2.0
WRAP.            NO                   :ONE LINE PER DEPTH STEP
#
#--------------------------------------------------------------------
~WELL INFORMATION
#MNEM .UNIT      DATA                 :DESCRIPTION OF MNEMONIC
#----------      ------------         -------------------------------
STRT  .m         2775.191             :START DEPTH
STEP  .m         0.2                  :STEP DEPTH
STOP  .m         3093.191             :STOP DEPTH
NULL  .          -999.25              :NULL VALUE
COMP  .                               :COMPANY
WELL  .                               :WELL
LOC   .                               :LOCATION - AREA
FLD   .                               :FIELD
CTRY  .                               :COUNTRY
DATE  .                               :WELL DATE
UWI   .                               :UWI
ZSTK  .          TVDss                :Z-STICK
XWELL .m         	              :X POS
YWELL .m         	              :Y POS
EDF   .          24.0                 :DERRICK FLOOR ELEVATION
#
#----------------------------------------------------------------------------
~CURVE INFORMATION
#MNEM.UNIT                                  : CURVE DESCRIPTION
#----------                                 -------------------------------
DEPT        .m                              : 1      DEPTH
COTA        .m                              : 2      Depth
Depth_TVDkb .m                              : 3      Depth
TVD         .m                              : 4      Depth
GR          .API                            : 5      GR
CALIPER     .m                              : 6      Cal
VP          .km/s                           : 7      Vp
VS          .km/s                           : 8      Vs
RHO         .g/cm3                          : 9      Rho
Porosidade  .fract                          : 10     Por
Argilosidade.fract                          : 11     Volume
Saturacao   .fract                          : 12     Sat
#
#----------------------------------------------------------------------------
~A          COTA        Depth_TVDkb TVD         GR          CALIPER     VP          VS          RHO         Porosidade  Argilosidade Saturacao   
# ...
3055.191    -3055.4151  3079.191    3079.4151   96.0812     0.3319      2.7686      1.2764      2.3289      0.0682      0.7208      0.907       
3055.391    -3055.6153  3079.391    3079.6153   97.4123     0.3336      2.8009      1.2695      2.3187      0.1158      0.5485      0.9386      
3055.591    -3055.8156  3079.591    3079.8156   91.9945     0.3337      2.8117      1.2527      2.198       0.1311      0.5324      0.8823      
3055.791    -3056.0158  3079.791    3080.0158   93.0976     0.3329      2.8126      1.2408      2.0802      0.1486      0.5132      0.8299      
3055.991    -3056.216   3079.991    3080.216    97.2897     0.3353      2.7937      1.2319      2.0858      0.1467      0.5407      0.8007      
3056.191    -3056.4161  3080.191    3080.4161   102.3808    0.3354      2.7993      1.2363      2.2185      0.0477      0.8506      0.8212      
3056.391    -3056.6163  3080.391    3080.6163   94.7746     0.3316      2.8291      1.2553      2.3096      0.0035      0.9826      0.8493      
3056.591    -3056.8165  3080.591    3080.8165   87.1281     0.3304      2.8071      1.2567      2.319       0.0234      0.8828      0.9101      
3056.791    -3057.0167  3080.791    3081.0167   88.09       0.33        2.7723      1.2567      2.2371      0.0424      0.7875      0.972       
3056.991    -3057.2169  3080.991    3081.2169   96.2829     0.3314      2.7395      1.2543      2.2101      0.0438      0.7768      0.976       
3057.191    -3057.417   3081.191    3081.417    94.7191     0.3397      2.7576      1.2744      2.2902      0.0113      0.9234      0.8671      
3057.391    -3057.6172  3081.391    3081.6172   86.2194     0.3419      2.8434      1.322       2.3563      0.0         0.9718      0.8365      
3057.591    -3057.8174  3081.591    3081.8174   83.235      0.3312      2.9263      1.369       2.3684      0.0         0.9625      0.8617      
3057.791    -3058.0175  3081.791    3082.0175   78.9404     0.3246      2.952       1.3873      2.3766      0.0         0.9548      0.883       
3057.991    -3058.2177  3081.991    3082.2177   76.1071     0.3264      2.9584      1.3909      2.3809      0.0         0.9378      0.9166      
3058.191    -3058.4178  3082.191    3082.4178   80.4341     0.3266      2.959       1.3875      2.3701      0.0         0.9117      0.9679      
3058.391    -3058.6179  3082.391    3082.6179   79.2419     0.326       2.9226      1.3644      2.3618      0.0184      0.8236      0.9863      
3058.591    -3058.8181  3082.591    3082.8181   79.2052     0.3267      2.8747      1.3415      2.3567      0.0606      0.6679      0.9919      
3058.791    -3059.0182  3082.791    3083.0182   85.917      0.3274      2.8185      1.3144      2.316       0.1046      0.5009      0.9987      
3058.991    -3059.218   3082.991    3083.218    86.9758     0.3288      2.8201      1.3113      2.2707      0.0797      0.6251      0.9326      
3059.191    -3059.4174  3083.191    3083.4174   78.5163     0.3291      2.8613      1.322       2.2932      0.0094      0.9557      0.7888      
3059.391    -3059.6169  3083.391    3083.6169   72.5558     0.3285      2.9058      1.3358      2.347       0.0         0.9997      0.8018      
3059.591    -3059.8164  3083.591    3083.8164   73.7151     0.3289      2.9111      1.3399      2.3599      0.0         0.9992      0.8558      
3059.791    -3060.0159  3083.791    3084.0159   80.4146     0.329       2.8817      1.3326      2.3468      0.0         0.9987      0.9138      
3059.991    -3060.2159  3083.991    3084.2159   89.8884     0.3289      2.8464      1.3255      2.3242      0.0         0.9991      0.9015      
3060.191    -3060.4159  3084.191    3084.4159   91.1847     0.3301      2.7831      1.2969      2.33        0.0         1.0         0.8737      
3060.391    -3060.616   3084.391    3084.616    85.9449     0.3305      2.8083      1.2983      2.3523      0.0         0.978       0.8937      
3060.591    -3060.8161  3084.591    3084.8161   83.3362     0.3285      2.8721      1.3081      2.3532      0.0         0.9493      0.9217      
3060.791    -3061.0162  3084.791    3085.0162   82.0645     0.3272      2.8976      1.3066      2.3412      0.0         0.9188      0.9514      
3060.991    -3061.2163  3084.991    3085.2163   80.2656     0.3278      2.867       1.294       2.3434      0.0         0.9549      0.9372      
3061.191    -3061.4163  3085.191    3085.4163   80.0282     0.328       2.8267      1.2873      2.3526      0.0         0.9996      0.92        
3061.391    -3061.6163  3085.391    3085.6163   84.2616     0.3288      2.8059      1.2869      2.3504      0.0         0.9846      0.9059      
3061.591    -3061.8164  3085.591    3085.8164   87.0358     0.3313      2.8193      1.2947      2.3422      0.0         0.9679      0.8919      
3061.791    -3062.0165  3085.791    3086.0165   86.1549     0.3318      2.855       1.3111      2.3312      0.0         0.9514      0.8778      
3061.991    -3062.2165  3085.991    3086.2165   88.042      0.3295      2.8782      1.327       2.3261      0.0         0.954       0.8674      
3062.191    -3062.4165  3086.191    3086.4165   90.6414     0.3286      2.8523      1.3254      2.3297      0.0         0.9568      0.8576      
3062.391    -3062.6165  3086.391    3086.6165   92.7571     0.3293      2.8354      1.3297      2.3376      0.0         0.9722      0.8971      
3062.591    -3062.8166  3086.591    3086.8166   94.1889     0.3291      2.8027      1.3168      2.3439      0.0         0.9872      0.935       
3062.791    -3063.0166  3086.791    3087.0166   95.9341     0.3293      2.7878      1.3047      2.3432      0.0         0.9982      0.9705      
3062.991    -3063.2166  3086.991    3087.2166   98.1073     0.3314      2.7681      1.2853      2.3214      0.0         0.9324      0.9867      
3063.191    -3063.4167  3087.191    3087.4167   98.354      0.3334      2.7779      1.2782      2.2883      0.0         0.881       1.0         
3063.391    -3063.6167  3087.391    3087.6167   95.8371     0.3333      2.787       1.2686      2.2822      0.0         0.8687      1.0         
3063.591    -3063.8167  3087.591    3087.8167   96.4572     0.3319      2.8066      1.2658      2.3008      0.0         0.8559      1.0         
3063.791    -3064.0167  3087.791    3088.0167   94.9831     0.3316      2.828       1.2732      2.3066      0.0041      0.8354      1.0         
3063.991    -3064.2167  3087.991    3088.2167   95.1881     0.3326      2.7786      1.2623      2.2889      0.0482      0.7617      1.0         
3064.191    -3064.4167  3088.191    3088.4167   95.3999     0.3327      2.7051      1.2473      2.2452      0.068       0.7336      1.0         
3064.391    -3064.6167  3088.391    3088.6167   97.4236     0.335       2.6889      1.246       2.228       0.0399      0.8295      1.0         
3064.591    -3064.8167  3088.591    3088.8167   98.3725     0.3388      2.7833      1.2796      2.2596      0.0134      0.9201      1.0         
3064.791    -3065.0167  3088.791    3089.0167   98.0285     0.3358      2.8557      1.2952      2.3132      0.0         0.9634      1.0         
3064.991    -3065.2167  3088.991    3089.2167   95.0689     0.3293      2.8868      1.3021      2.3312      0.0         0.9515      1.0         
3065.191    -3065.4166  3089.191    3089.4166   93.8625     0.3287      2.8731      1.2988      2.3264      0.0         0.9523      0.9924      
3065.391    -3065.6166  3089.391    3089.6166   94.6772     0.3289      2.7907      1.2756      2.3233      0.0         0.9729      0.9628      
3065.591    -3065.8166  3089.591    3089.8166   97.2406     0.3256      2.7629      1.2691      2.3243      0.0         0.9931      0.9336      
3065.791    -3066.0165  3089.791    3090.0165   96.5194     0.3241      2.8061      1.2918      2.3131      0.0         0.9583      0.9273      
3065.991    -3066.2165  3089.991    3090.2165   90.131      0.3244      2.8981      1.3296      2.3103      0.0         0.8232      0.9386      
3066.191    -3066.4165  3090.191    3090.4165   80.6216     0.3242      2.978       1.3674      2.3214      0.0         0.8081      0.9256      
