#----------------------------------------------------------------------------
~VERSION INFORMATION
VERS.            2.0                  :CWLS LOG ASCII STANDARD -VERSION 2.0
WRAP.            NO                   :ONE LINE PER DEPTH STEP
#
#--------------------------------------------------------------------
~WELL INFORMATION
#MNEM .UNIT      DATA                 :DESCRIPTION OF MNEMONIC
#----------      ------------         -------------------------------
STRT  .m         3166.0               :START DEPTH
STEP  .m         0.2                  :STEP DEPTH
STOP  .m         3406.0               :STOP DEPTH
NULL  .          -999.25              :NULL VALUE
COMP  .          	              :COMPANY
WELL  .                               :WELL
LOC   .                               :LOCATION - AREA
FLD   .                               :FIELD
CTRY  .                               :COUNTRY
DATE  .                               :WELL DATE
UWI   .          	              :UWI
ZSTK  .          TVDss                :Z-STICK
XWELL .m         		      :X POS
YWELL .m         	              :Y POS
EDF   .          24.0                 :DERRICK FLOOR ELEVATION
#
#----------------------------------------------------------------------------
~CURVE INFORMATION
#MNEM.UNIT                                  : CURVE DESCRIPTION
#----------                                 -------------------------------
DEPT        .m                              : 1      DEPTH
MD          .m                              : 2      Depth
GR          .API                            : 3      GR
CALIPER     .m                              : 4      Cal
VP          .km/s                           : 5      Vp
VS          .km/s                           : 6      Vs
RHO         .g/cm3                          : 7      Rho
Porosidade  .fract                          : 8      Por
Argilosidade.fract                          : 9      Volume
Saturacao   .fract                          : 10     Sat
#
#----------------------------------------------------------------------------
~A          MD          GR          CALIPER     VP          VS          RHO         Porosidade  Argilosidade Saturacao   
# ...
3326.8      3350.8      86.7747     0.3118      2.87        1.2207      2.1269      0.2682      0.2478      0.7361      
3327.0      3351.0      88.558      0.3116      2.8763      1.2233      2.1212      0.2448      0.3477      0.7909      
3327.2      3351.2      88.234      0.3118      2.8691      1.2193      2.1149      0.2241      0.4223      0.8783      
3327.4      3351.4      87.6255     0.312       2.8486      1.2093      2.104       0.2942      0.2092      0.7558      
3327.6      3351.6      87.6634     0.3121      2.823       1.1981      2.0978      0.315       0.1462      0.7123      
3327.8      3351.8      86.5073     0.312       2.8009      1.1895      2.1022      0.3202      0.1172      0.6971      
3328.0      3352.0      84.0215     0.3116      2.7855      1.1852      2.1078      0.3026      0.1682      0.7216      
3328.2      3352.2      81.6106     0.3114      2.7754      1.1844      2.1082      0.2532      0.355       0.8205      
3328.4      3352.4      82.0566     0.3115      2.7657      1.1847      2.1037      0.2914      0.224       0.7632      
3328.6      3352.6      82.4626     0.3115      2.7512      1.1836      2.0924      0.3444      0.0312      0.6815      
3328.8      3352.8      81.9677     0.3114      2.7295      1.1788      2.0808      0.3507      0.0256      0.6598      
3329.0      3353.0      81.5336     0.3113      2.7033      1.1704      2.0792      0.3423      0.0727      0.6565      
3329.2      3353.2      81.9594     0.3112      2.6773      1.1602      2.0862      0.3442      0.0423      0.6475      
3329.4      3353.4      80.37       0.3112      2.6562      1.1516      2.0953      0.3348      0.0713      0.6738      
3329.6      3353.6      79.3985     0.3112      2.6437      1.1479      2.1015      0.2982      0.2234      0.7329      
3329.8      3353.8      81.786      0.3115      2.6415      1.1503      2.1028      0.3068      0.1883      0.7097      
3330.0      3354.0      82.8142     0.3115      2.6488      1.1593      2.1025      0.3354      0.0412      0.6429      
3330.2      3354.2      84.5727     0.3112      2.6646      1.173       2.1068      0.3271      0.0562      0.6402      
3330.4      3354.4      87.1008     0.3111      2.686       1.1866      2.1165      0.2992      0.1595      0.6648      
3330.6      3354.6      87.4947     0.3111      2.7091      1.1951      2.1199      0.319       0.0674      0.6253      
3330.8      3354.8      86.4119     0.3111      2.7291      1.196       2.1104      0.3174      0.0898      0.6213      
3331.0      3355.0      84.7227     0.3111      2.7406      1.1901      2.1056      0.2545      0.3538      0.7399      
3331.2      3355.2      85.0597     0.3112      2.741       1.1799      2.1131      0.2418      0.3809      0.7907      
3331.4      3355.4      87.3412     0.3114      2.7301      1.1699      2.1168      0.3026      0.1485      0.686       
3331.6      3355.6      85.8325     0.3114      2.7119      1.164       2.1128      0.3278      0.0636      0.6246      
3331.8      3355.8      81.2045     0.3113      2.6921      1.1638      2.1056      0.3266      0.0817      0.6043      
3332.0      3356.0      79.0507     0.3112      2.6766      1.1696      2.0953      0.342       0.033       0.5759      
3332.2      3356.2      80.1538     0.3111      2.6697      1.1799      2.0945      0.3448      0.0044      0.5779      
3332.4      3356.4      80.8928     0.3111      2.6728      1.1922      2.1115      0.3377      0.0         0.5955      
3332.6      3356.6      80.4574     0.3111      2.6879      1.2046      2.1299      0.3118      0.0561      0.6471      
3332.8      3356.8      81.3507     0.3111      2.714       1.216       2.1342      0.2987      0.1061      0.7028      
3333.0      3357.0      83.6703     0.311       2.7471      1.2273      2.1269      0.3131      0.0672      0.7379      
3333.2      3357.2      84.8675     0.311       2.7825      1.2407      2.1203      0.3157      0.0798      0.7835      
3333.4      3357.4      83.5078     0.3112      2.8151      1.2594      2.1165      0.3281      0.0373      0.7803      
3333.6      3357.6      81.9731     0.3114      2.84        1.2864      2.1148      0.3329      0.0103      0.7515      
3333.8      3357.8      81.5184     0.3115      2.854       1.3242      2.1227      0.3248      0.004       0.7313      
3334.0      3358.0      83.6202     0.3117      2.8569      1.3718      2.1334      0.309       0.0551      0.7134      
3334.2      3358.2      84.2668     0.3118      2.8524      1.4255      2.1307      0.2891      0.1637      0.7103      
3334.4      3358.4      81.4945     0.3118      2.8423      1.4781      2.1273      0.2901      0.1726      0.7009      
3334.6      3358.6      81.3187     0.3116      2.8295      1.519       2.1349      0.2963      0.1395      0.6986      
3334.8      3358.8      83.0786     0.3112      2.8147      1.5368      2.1403      0.2888      0.1529      0.7136      
3335.0      3359.0      85.2695     0.3111      2.7973      1.5274      2.1419      0.2704      0.2124      0.7407      
3335.2      3359.2      89.4121     0.3111      2.7772      1.4897      2.1438      0.2659      0.2329      0.7794      
3335.4      3359.4      90.4841     0.3111      2.7551      1.4358      2.1376      0.2064      0.4663      0.9265      
3335.6      3359.6      88.4019     0.3111      2.732       1.3826      2.1254      0.1717      0.5791      0.9825      
3335.8      3359.8      89.0652     0.311       2.7085      1.3432      2.1163      0.2424      0.3844      0.879       
3336.0      3360.0      87.3168     0.311       2.6876      1.3257      2.107       0.2903      0.229       0.7959      
3336.2      3360.2      81.2895     0.311       2.6746      1.3307      2.099       0.304       0.1807      0.7514      
3336.4      3360.4      76.9485     0.311       2.6726      1.3573      2.1009      0.3016      0.1861      0.7344      
3336.6      3360.6      76.875      0.3111      2.6832      1.4006      2.1111      0.2929      0.1889      0.7196      
3336.8      3360.8      79.2537     0.3111      2.7054      1.4512      2.1244      0.2789      0.211       0.7412      
3337.0      3361.0      81.497      0.3111      2.7333      1.5004      2.1343      0.2265      0.3989      0.8463      
3337.2      3361.2      82.4736     0.311       2.7599      1.538       2.1334      0.2726      0.2251      0.7785      
3337.4      3361.4      80.251      0.311       2.7803      1.5529      2.1292      0.325       0.0143      0.718       
3337.6      3361.6      80.8046     0.3111      2.7926      1.5395      2.1313      0.324       0.0172      0.7534      
3337.8      3361.8      87.0503     0.3111      2.7984      1.4905      2.1327      0.3056      0.0958      0.8175      
3338.0      3362.0      88.0119     0.3111      2.8009      1.4159      2.1276      0.2909      0.1706      0.8655      
3338.2      3362.2      83.5141     0.311       2.8031      1.3367      2.1215      0.2716      0.2689      0.9061      
3338.4      3362.4      82.0602     0.311       2.8064      1.2697      2.1233      0.2559      0.3327      0.9224      
3338.6      3362.6      82.5146     0.311       2.8108      1.2237      2.1374      0.2723      0.2286      0.8575      
3338.8      3362.8      84.6937     0.311       2.8156      1.1981      2.1489      0.2563      0.2687      0.876       
3339.0      3363.0      86.1583     0.311       2.8195      1.1857      2.1411      0.2679      0.2258      0.8476      
3339.2      3363.2      85.3149     0.311       2.8202      1.1793      2.1268      0.2919      0.1529      0.8064      
3339.4      3363.4      86.1153     0.3111      2.8174      1.1739      2.1219      0.2658      0.2815      0.8636      
3339.6      3363.6      87.438      0.3111      2.8105      1.1669      2.1185      0.2774      0.2601      0.8316      
3339.8      3363.8      87.6487     0.311       2.8012      1.1583      2.1097      0.3058      0.1745      0.7703      
3340.0      3364.0      87.1084     0.3111      2.792       1.1494      2.1009      0.3129      0.1603      0.7566      
