#----------------------------------------------------------------------------
~VERSION INFORMATION
VERS.            2.0                  :CWLS LOG ASCII STANDARD -VERSION 2.0
WRAP.            NO                   :ONE LINE PER DEPTH STEP
#
#--------------------------------------------------------------------
~WELL INFORMATION
#MNEM .UNIT      DATA                 :DESCRIPTION OF MNEMONIC
#----------      ------------         -------------------------------
STRT  .m         1761.0               :START DEPTH
STEP  .m         0.2                  :STEP DEPTH
STOP  .m         3172.6718            :STOP DEPTH
NULL  .          -999.25              :NULL VALUE
COMP  .          Petrobras            :COMPANY
WELL  .          RO82                 :WELL
LOC   .                               :LOCATION - AREA
FLD   .                               :FIELD
CTRY  .                               :COUNTRY
DATE  .                               :WELL DATE
UWI   .          742810331400         :UWI
ZSTK  .          TVDss                :Z-STICK
XWELL .m         421843.59            :X POS
YWELL .m         7571342              :Y POS
EDF   .          25.0                 :DERRICK FLOOR ELEVATION
#
#----------------------------------------------------------------------------
~CURVE INFORMATION
#MNEM.UNIT                                  : CURVE DESCRIPTION
#----------                                 -------------------------------
DEPT        .m                              : 1      DEPTH
Depth_TVDkb .m                              : 2      Depth
Depth_MD    .m                              : 3      Depth
GR          .API                            : 4      GR
CALIPER     .m                              : 5      Cal
VP          .km/s                           : 6      Vp
VS          .km/s                           : 7      Vs
RHO         .g/cm3                          : 8      Rho
Porosidade  .fract                          : 9      Por
Argilosidade.fract                          : 10     Volume
Saturacao   .fract                          : 11     Sat
#
#----------------------------------------------------------------------------
~A          Depth_TVDkb Depth_MD    GR          CALIPER     VP          VS          RHO         Porosidade  Argilosidade Saturacao   
# ...
2908.2      2933.2      2933.2      108.8174    0.3233      2.1652      1.1508      2.0082      0.3624      0.0         0.1733      
2908.4      2933.4      2933.4      105.4219    0.323       2.1683      1.1508      2.0402      0.3621      0.0         0.1724      
2908.6      2933.6      2933.6      103.8505    0.3214      2.1686      1.1508      2.0573      0.358       0.0         0.165       
2908.8      2933.8      2933.8      102.6767    0.3198      2.175       1.1524      2.0641      0.3538      0.0         0.1575      
2909.0      2934.0      2934.0      101.8469    0.3182      2.1839      1.1565      2.0785      0.3496      0.0         0.1501      
2909.2      2934.2      2934.2      102.4203    0.3182      2.1874      1.1604      2.0881      0.3425      0.0         0.1534      
2909.4      2934.4      2934.4      103.8008    0.3183      2.1857      1.1643      2.1047      0.3353      0.0         0.1567      
2909.6      2934.6      2934.6      105.2662    0.3191      2.1761      1.1683      2.1073      0.3393      0.0         0.1612      
2909.8      2934.8      2934.8      107.269     0.32        2.1669      1.1722      2.1007      0.3433      0.0         0.1657      
2910.0      2935.0      2935.0      108.7029    0.3209      2.1729      1.1762      2.0955      0.3473      0.0         0.1702      
2910.2      2935.2      2935.2      108.4521    0.3215      2.1776      1.1757      2.0851      0.3512      0.0         0.1783      
2910.4      2935.4      2935.4      108.2784    0.3221      2.1718      1.1684      2.0723      0.3551      0.0         0.1864      
2910.6      2935.6      2935.6      109.8222    0.3218      2.1599      1.1563      2.0764      0.3565      0.0         0.2003      
2910.8      2935.8      2935.8      111.6995    0.3216      2.159       1.1444      2.0969      0.358       0.0         0.2142      
2911.0      2936.0      2936.0      114.03      0.3213      2.1708      1.1331      2.1117      0.3594      0.0         0.228       
2911.2      2936.2      2936.2      118.6718    0.3201      2.1788      1.1203      2.1109      0.3519      0.0277      0.2492      
2911.4      2936.4      2936.4      123.9055    0.3188      2.1829      1.1029      2.1096      0.3443      0.0554      0.2703      
2911.6      2936.6      2936.6      128.2541    0.3184      2.1853      1.0935      2.1121      0.3366      0.0991      0.2859      
2911.8      2936.8      2936.8      133.3516    0.318       2.1859      1.0845      2.1107      0.3289      0.1427      0.3015      
2912.0      2937.0      2937.0      136.5364    0.3176      2.1818      1.0763      2.0967      0.3213      0.1864      0.3171      
2912.2      2937.2      2937.2      134.5657    0.3178      2.1696      1.0692      2.086       0.3085      0.2236      0.3202      
2912.4      2937.4      2937.4      130.7255    0.318       2.1453      1.0636      2.0749      0.2957      0.2608      0.3234      
2912.6      2937.6      2937.6      128.18      0.3184      2.1253      1.059       2.079       0.3175      0.2062      0.3117      
2912.8      2937.8      2937.8      125.388     0.3188      2.107       1.0552      2.0851      0.3393      0.1516      0.3001      
2913.0      2938.0      2938.0      123.4487    0.3192      2.0887      1.0512      2.0672      0.3612      0.0971      0.2884      
2913.2      2938.2      2938.2      123.8297    0.3194      2.0835      1.0454      2.0303      0.3806      0.0485      0.2847      
2913.4      2938.4      2938.4      125.1562    0.3197      2.0936      1.0381      2.0047      0.4         0.0         0.2811      
2913.6      2938.6      2938.6      126.3179    0.3194      2.1128      1.0324      2.0092      0.3734      0.0665      0.2898      
2913.8      2938.8      2938.8      127.8736    0.3192      2.1304      1.0312      2.0349      0.3468      0.133       0.2986      
2914.0      2939.0      2939.0      128.9396    0.319       2.1475      1.0337      2.0526      0.3202      0.1995      0.3073      
2914.2      2939.2      2939.2      128.8154    0.3187      2.1574      1.0367      2.0555      0.3084      0.229       0.3109      
2914.4      2939.4      2939.4      128.1215    0.3183      2.1571      1.038       2.0571      0.2966      0.2585      0.3145      
2914.6      2939.6      2939.6      127.0416    0.3183      2.1534      1.0385      2.0557      0.3125      0.2187      0.297       
2914.8      2939.8      2939.8      125.619     0.3182      2.1493      1.04        2.0511      0.3284      0.1789      0.2794      
2915.0      2940.0      2940.0      124.5553    0.3182      2.1543      1.0418      2.0423      0.3444      0.1391      0.2618      
2915.2      2940.2      2940.2      123.6972    0.3187      2.173       1.0419      2.0303      0.303       0.2424      0.2681      
2915.4      2940.4      2940.4      123.3706    0.3192      2.2131      1.0409      2.0233      0.2617      0.3457      0.2745      
2915.6      2940.6      2940.6      124.1361    0.3192      2.2445      1.0419      2.0295      0.3026      0.2435      0.2612      
2915.8      2940.8      2940.8      124.7638    0.3193      2.255       1.0458      2.0398      0.3435      0.1413      0.2479      
2916.0      2941.0      2941.0      126.1123    0.3194      2.2566      1.0522      2.0361      0.3844      0.0391      0.2346      
2916.2      2941.2      2941.2      130.4163    0.3192      2.2461      1.0612      2.0141      0.331       0.1725      0.2503      
2916.4      2941.4      2941.4      134.6036    0.3189      2.2394      1.0702      2.0001      0.2776      0.3059      0.2661      
2916.6      2941.6      2941.6      135.6564    0.3189      2.2444      1.0742      2.0158      0.3135      0.2162      0.2554      
2916.8      2941.8      2941.8      135.8126    0.3188      2.2539      1.0675      2.0382      0.3494      0.1265      0.2447      
2917.0      2942.0      2942.0      135.836     0.3187      2.2655      1.0541      2.0411      0.3853      0.0368      0.234       
2917.2      2942.2      2942.2      134.6202    0.3187      2.2778      1.048       2.0341      0.3926      0.0184      0.2156      
2917.4      2942.4      2942.4      131.4562    0.3186      2.2908      1.0643      2.0353      0.4         0.0         0.1973      
2917.6      2942.6      2942.6      125.1456    0.3187      2.3235      1.1085      2.0469      0.3837      0.0287      0.1916      
2917.8      2942.8      2942.8      116.4035    0.3188      2.3682      1.1665      2.0602      0.3673      0.0574      0.1859      
2918.0      2943.0      2943.0      111.2645    0.319       2.419       1.2228      2.0711      0.351       0.0861      0.1802      
2918.2      2943.2      2943.2      112.2698    0.3193      2.4735      1.2641      2.088       0.2938      0.2456      0.1709      
2918.4      2943.4      2943.4      117.3692    0.3197      2.5125      1.2871      2.1065      0.2365      0.405       0.1617      
2918.6      2943.6      2943.6      123.7658    0.3194      2.5256      1.2889      2.1112      0.2846      0.27        0.1615      
2918.8      2943.8      2943.8      133.0818    0.3192      2.5109      1.2724      2.1069      0.3326      0.135       0.1614      
2919.0      2944.0      2944.0      137.6601    0.3189      2.4959      1.2529      2.099       0.3807      0.0         0.1612      
2919.2      2944.2      2944.2      132.6841    0.3187      2.4883      1.238       2.0828      0.3736      0.0         0.1574      
2919.4      2944.4      2944.4      124.0319    0.3185      2.496       1.2359      2.0652      0.3665      0.0         0.1535      
2919.6      2944.6      2944.6      117.5293    0.319       2.5459      1.2531      2.0649      0.3639      0.0193      0.1473      
2919.8      2944.8      2944.8      111.0593    0.3195      2.6115      1.2876      2.0816      0.3613      0.0386      0.1411      
2920.0      2945.0      2945.0      105.3005    0.3199      2.7035      1.3237      2.0925      0.3587      0.0579      0.1348      
2920.2      2945.2      2945.2      101.025     0.3203      2.7731      1.3413      2.0895      0.3469      0.0918      0.1296      
