#----------------------------------------------------------------------------
~VERSION INFORMATION
VERS.            2.0                  :CWLS LOG ASCII STANDARD -VERSION 2.0
WRAP.            NO                   :ONE LINE PER DEPTH STEP
#
#--------------------------------------------------------------------
~WELL INFORMATION
#MNEM .UNIT      DATA                 :DESCRIPTION OF MNEMONIC
#----------      ------------         -------------------------------
STRT  .m         1761.0               :START DEPTH
STEP  .m         0.2                  :STEP DEPTH
STOP  .m         3172.6718            :STOP DEPTH
NULL  .          -999.25              :NULL VALUE
COMP  .          Petrobras            :COMPANY
WELL  .          RO82                 :WELL
LOC   .                               :LOCATION - AREA
FLD   .                               :FIELD
CTRY  .                               :COUNTRY
DATE  .                               :WELL DATE
UWI   .          742810331400         :UWI
ZSTK  .          TVDss                :Z-STICK
XWELL .m         421843.59            :X POS
YWELL .m         7571342              :Y POS
EDF   .          25.0                 :DERRICK FLOOR ELEVATION
#
#----------------------------------------------------------------------------
~CURVE INFORMATION
#MNEM.UNIT                                  : CURVE DESCRIPTION
#----------                                 -------------------------------
DEPT        .m                              : 1      DEPTH
Depth_TVDkb .m                              : 2      Depth
Depth_MD    .m                              : 3      Depth
GR          .API                            : 4      GR
CALIPER     .m                              : 5      Cal
VP          .km/s                           : 6      Vp
VS          .km/s                           : 7      Vs
RHO         .g/cm3                          : 8      Rho
Porosidade  .fract                          : 9      Por
Argilosidade.fract                          : 10     Volume
Saturacao   .fract                          : 11     Sat
#
#----------------------------------------------------------------------------
~A          Depth_TVDkb Depth_MD    GR          CALIPER     VP          VS          RHO         Porosidade  Argilosidade Saturacao   
# ...
3054.6      3079.6      3079.6      99.9023     0.3236      2.7493      1.2209      2.254       0.0671      0.6663      1.0         
3054.8      3079.8      3079.8      96.0254     0.3236      2.7408      1.2307      2.2738      0.0834      0.6377      1.0         
3055.0      3080.0      3080.0      93.556      0.3236      2.7166      1.2358      2.2535      0.0997      0.6092      1.0         
3055.2      3080.2      3080.2      93.1561     0.3235      2.657       1.239       2.2206      0.1184      0.5822      0.9969      
3055.4      3080.4      3080.4      93.5918     0.3234      2.6081      1.2421      2.2038      0.1371      0.5551      0.9939      
3055.6      3080.6      3080.6      93.727      0.323       2.5954      1.2453      2.1899      0.1332      0.5567      0.9959      
3055.8      3080.8      3080.8      93.7209     0.3226      2.6197      1.2485      2.1773      0.1293      0.5583      0.998       
3056.0      3081.0      3081.0      94.1483     0.3222      2.6247      1.2517      2.1865      0.1254      0.5599      1.0         
3056.2      3081.2      3081.2      95.033      0.323       2.6213      1.2549      2.2051      0.1286      0.5571      1.0         
3056.4      3081.4      3081.4      96.3211     0.3239      2.6331      1.2717      2.21        0.1318      0.5542      1.0         
3056.6      3081.6      3081.6      98.3159     0.3241      2.6713      1.292       2.1982      0.1085      0.5925      1.0         
3056.8      3081.8      3081.8      100.1664    0.3243      2.7208      1.3176      2.2022      0.0851      0.6307      1.0         
3057.0      3082.0      3082.0      102.3369    0.3244      2.7503      1.3423      2.2267      0.0617      0.6689      1.0         
3057.2      3082.2      3082.2      106.6971    0.3242      2.7502      1.3757      2.2496      0.0309      0.8119      1.0         
3057.4      3082.4      3082.4      108.9685    0.3241      2.7434      1.3974      2.2634      0.0         0.9549      1.0         
3057.6      3082.6      3082.6      105.0946    0.324       2.7055      1.4121      2.2592      0.06        0.7689      0.9846      
3057.8      3082.8      3082.8      97.9382     0.3239      2.6559      1.4276      2.2282      0.12        0.583       0.9691      
3058.0      3083.0      3083.0      93.2892     0.3239      2.6313      1.4352      2.1923      0.18        0.397       0.9537      
3058.2      3083.2      3083.2      91.8261     0.3237      2.6212      1.4248      2.199       0.1073      0.6326      0.9768      
3058.4      3083.4      3083.4      91.3513     0.3236      2.6214      1.3933      2.2209      0.0345      0.8682      1.0         
3058.6      3083.6      3083.6      90.286      0.3235      2.6125      1.3834      2.1981      0.0675      0.801       1.0         
3058.8      3083.8      3083.8      88.6315     0.3234      2.6345      1.3685      2.1503      0.1004      0.7337      1.0         
3059.0      3084.0      3084.0      88.3075     0.3233      2.6485      1.3222      2.1263      0.1334      0.6665      1.0         
3059.2      3084.2      3084.2      91.3774     0.323       2.6586      1.2691      2.128       0.0837      0.7886      1.0         
3059.4      3084.4      3084.4      95.7844     0.3227      2.6922      1.2244      2.1504      0.034       0.9107      1.0         
3059.6      3084.6      3084.6      99.4671     0.3227      2.7386      1.1961      2.1793      0.0624      0.8014      0.961       
3059.8      3084.8      3084.8      104.5563    0.3226      2.7927      1.1876      2.184       0.0908      0.692       0.922       
3060.0      3085.0      3085.0      106.9491    0.3226      2.8823      1.2077      2.1813      0.1192      0.5827      0.883       
3060.2      3085.2      3085.2      101.6794    0.3221      3.0133      1.2623      2.2039      0.1294      0.4674      0.8326      
3060.4      3085.4      3085.4      94.4232     0.3215      3.0897      1.3484      2.2421      0.1396      0.3521      0.7822      
3060.6      3085.6      3085.6      90.6063     0.3219      3.1577      1.4593      2.2799      0.1477      0.288       0.7411      
3060.8      3085.8      3085.8      86.571      0.3222      3.2638      1.5902      2.312       0.1558      0.2239      0.7         
3061.0      3086.0      3086.0      84.4935     0.3226      3.3725      1.7083      2.3346      0.1639      0.1598      0.6589      
3061.2      3086.2      3086.2      86.6159     0.3241      3.3586      1.7511      2.3324      0.2249      0.0799      0.5631      
3061.4      3086.4      3086.4      89.9355     0.3257      3.2018      1.6854      2.2773      0.286       0.0         0.4672      
3061.6      3086.6      3086.6      90.8067     0.3251      2.9904      1.5397      2.1921      0.2207      0.2379      0.5753      
3061.8      3086.8      3086.8      90.5469     0.3244      2.8482      1.4004      2.1395      0.1554      0.4758      0.6835      
3062.0      3087.0      3087.0      91.7863     0.3238      2.7465      1.2869      2.15        0.0901      0.7136      0.7917      
3062.2      3087.2      3087.2      96.8774     0.3236      2.6819      1.2021      2.1867      0.0734      0.7589      0.8958      
3062.4      3087.4      3087.4      102.0374    0.3234      2.6847      1.1438      2.1984      0.0566      0.8042      1.0         
3062.6      3087.6      3087.6      103.2472    0.3235      2.7172      1.1136      2.1948      0.0406      0.8442      1.0         
3062.8      3087.8      3087.8      102.7886    0.3235      2.7471      1.1088      2.1964      0.0246      0.8842      1.0         
3063.0      3088.0      3088.0      104.0634    0.3236      2.7805      1.1155      2.2008      0.0085      0.9242      1.0         
3063.2      3088.2      3088.2      109.3776    0.3236      2.8287      1.1206      2.211       0.034       0.8034      1.0         
3063.4      3088.4      3088.4      115.4827    0.3236      2.8704      1.1165      2.2284      0.0595      0.6827      1.0         
3063.6      3088.6      3088.6      119.5804    0.3233      2.8537      1.0991      2.2466      0.0907      0.6144      0.9859      
3063.8      3088.8      3088.8      123.6607    0.3231      2.7983      1.0749      2.255       0.1219      0.5461      0.9717      
3064.0      3089.0      3089.0      126.245     0.3229      2.7442      1.0548      2.2326      0.1531      0.4779      0.9576      
3064.2      3089.2      3089.2      125.1122    0.3232      2.7121      1.0493      2.2017      0.0766      0.7389      0.9788      
3064.4      3089.4      3089.4      122.8192    0.3234      2.7042      1.0574      2.1949      0.0         1.0         1.0         
3064.6      3089.6      3089.6      122.9031    0.3234      2.7183      1.077       2.215       0.0         1.0         0.9922      
3064.8      3089.8      3089.8      124.0956    0.3234      2.7498      1.1085      2.2446      0.0         1.0         0.9844      
3065.0      3090.0      3090.0      123.2117    0.3234      2.7511      1.1494      2.2635      0.0         1.0         0.9766      
3065.2      3090.2      3090.2      117.6228    0.3233      2.7287      1.1994      2.2672      0.0439      0.813       0.9711      
3065.4      3090.4      3090.4      110.0461    0.3233      2.7326      1.2544      2.2554      0.0878      0.626       0.9656      
3065.6      3090.6      3090.6      103.5492    0.3228      2.7549      1.3054      2.2306      0.0943      0.5736      0.8956      
3065.8      3090.8      3090.8      96.7907     0.3222      2.8131      1.3455      2.2238      0.1009      0.5211      0.8257      
3066.0      3091.0      3091.0      90.931      0.3217      2.9905      1.3713      2.2466      0.1074      0.4687      0.7557      
3066.2      3091.2      3091.2      87.6035     0.3221      3.1962      1.3837      2.274       0.1648      0.2712      0.6219      
3066.4      3091.4      3091.4      85.0397     0.3226      3.3626      1.3908      2.2891      0.2222      0.0737      0.488       
3066.6      3091.6      3091.6      82.0522     0.323       3.4399      1.4022      2.2853      0.234       0.0492      0.4384      
