#----------------------------------------------------------------------------
~VERSION INFORMATION
VERS.            2.0                  :CWLS LOG ASCII STANDARD -VERSION 2.0
WRAP.            NO                   :ONE LINE PER DEPTH STEP
#
#--------------------------------------------------------------------
~WELL INFORMATION
#MNEM .UNIT      DATA                 :DESCRIPTION OF MNEMONIC
#----------      ------------         -------------------------------
STRT  .m         2796.1109            :START DEPTH
STEP  .m         0.2                  :STEP DEPTH
STOP  .m         3026.1109            :STOP DEPTH
NULL  .          -999.25              :NULL VALUE
COMP  .          	              :COMPANY
WELL  .                               :WELL
LOC   .                               :LOCATION - AREA
FLD   .                               :FIELD
CTRY  .                               :COUNTRY
DATE  .                               :WELL DATE
UWI   .          	              :UWI
ZSTK  .          TVDss                :Z-STICK
XWELL .m                              :X POS
YWELL .m                              :Y POS
EDF   .          30.0                 :DERRICK FLOOR ELEVATION
#
#----------------------------------------------------------------------------
~CURVE INFORMATION
#MNEM.UNIT                                  : CURVE DESCRIPTION
#----------                                 -------------------------------
DEPT        .m                              : 1      DEPTH
MD          .m                              : 2      Depth
Depth_TVDkb .m                              : 3      Depth
COTA        .m                              : 4      Depth
GR          .API                            : 5      GR
CALIPER     .m                              : 6      Cal
VP          .km/s                           : 7      Vp
VS          .km/s                           : 8      Vs
RHO         .g/cm3                          : 9      Rho
Porosidade  .fract                          : 10     Por
Argilosidade.fract                          : 11     Volume
Saturacao   .fract                          : 12     Sat
#
#----------------------------------------------------------------------------
~A          MD          Depth_TVDkb COTA        GR          CALIPER     VP          VS          RHO         Porosidade  Argilosidade Saturacao   
# ...
2975.3109   3016.5783   3005.3109   -2986.5783  105.2025    0.3148      2.4439      1.0984      2.1861      0.2059      0.2922      0.208       
2975.5109   3016.755    3005.5109   -2986.755   100.2023    0.3153      2.4476      1.0982      2.1987      0.1994      0.3117      0.1992      
2975.7109   3016.9317   3005.7109   -2986.9317  97.4253     0.3164      2.4469      1.0968      2.2006      0.1876      0.3545      0.1824      
2975.9109   3017.1085   3005.9109   -2987.1085  101.0766    0.317       2.4433      1.0961      2.1941      0.1769      0.4272      0.1621      
2976.1109   3017.2851   3006.1109   -2987.2851  104.4452    0.3174      2.4346      1.0974      2.1837      0.1708      0.477       0.1495      
2976.3109   3017.4617   3006.3109   -2987.4617  99.1359     0.3178      2.4146      1.1022      2.1847      0.203       0.3149      0.1688      
2976.5109   3017.6384   3006.5109   -2987.6384  97.4527     0.3183      2.393       1.1104      2.1985      0.2309      0.174       0.1855      
2976.7109   3017.8151   3006.7109   -2987.8151  98.9779     0.3191      2.3925      1.1215      2.2174      0.2189      0.2067      0.1644      
2976.9109   3017.9916   3006.9109   -2987.9916  96.7452     0.3202      2.4115      1.1314      2.2208      0.2095      0.2326      0.1465      
2977.1109   3018.1681   3007.1109   -2988.1681  95.2998     0.3214      2.4328      1.1379      2.2123      0.2125      0.2329      0.1452      
2977.3109   3018.3446   3007.3109   -2988.3446  95.529      0.3224      2.4427      1.1442      2.2046      0.2142      0.2338      0.1436      
2977.5109   3018.5211   3007.5109   -2988.5211  96.2274     0.3231      2.45        1.1532      2.2085      0.2013      0.2506      0.1373      
2977.7109   3018.6976   3007.7109   -2988.6976  90.3422     0.3235      2.4602      1.1627      2.2228      0.1936      0.2602      0.134       
2977.9109   3018.874    3007.9109   -2988.874   89.8177     0.3238      2.4706      1.1706      2.2273      0.2016      0.2398      0.1364      
2978.1109   3019.0504   3008.1109   -2989.0504  92.8013     0.3242      2.4755      1.1792      2.2257      0.208       0.2128      0.1409      
2978.3109   3019.2268   3008.3109   -2989.2268  99.9016     0.3246      2.4785      1.1884      2.2279      0.2104      0.1817      0.1509      
2978.5109   3019.4031   3008.5109   -2989.4031  98.8879     0.3247      2.4841      1.194       2.2349      0.2104      0.1738      0.1545      
2978.7109   3019.5794   3008.7109   -2989.5794  94.4808     0.3244      2.4916      1.1969      2.2356      0.2003      0.2246      0.1439      
2978.9109   3019.7557   3008.9109   -2989.7557  94.8562     0.3241      2.4991      1.2001      2.2367      0.191       0.247       0.136       
2979.1109   3019.932    3009.1109   -2989.932   99.6318     0.3238      2.5084      1.2044      2.2437      0.1845      0.2427      0.1325      
2979.3109   3020.1082   3009.3109   -2990.1082  97.5832     0.3229      2.514       1.2051      2.2537      0.1834      0.2364      0.1318      
2979.5109   3020.2843   3009.5109   -2990.2843  95.2447     0.3212      2.5101      1.2018      2.2551      0.1913      0.2273      0.134       
2979.7109   3020.4605   3009.7109   -2990.4605  95.7256     0.3195      2.4892      1.1942      2.2438      0.2014      0.2162      0.1344      
2979.9109   3020.6367   3009.9109   -2990.6367  96.4647     0.318       2.4698      1.1906      2.2194      0.2143      0.2021      0.1309      
2980.1109   3020.8129   3010.1109   -2990.8129  98.6347     0.3166      2.4733      1.1926      2.2149      0.2098      0.2178      0.1242      
2980.3109   3020.9889   3010.3109   -2990.9889  96.8621     0.3158      2.5014      1.2029      2.2309      0.1621      0.3359      0.1107      
2980.5109   3021.165    3010.5109   -2991.165   96.3995     0.3155      2.5396      1.2192      2.2609      0.1519      0.3574      0.1086      
2980.7109   3021.3411   3010.7109   -2991.3411  95.5711     0.3152      2.5709      1.2349      2.2679      0.1671      0.2994      0.1151      
2980.9109   3021.517    3010.9109   -2991.517   95.4823     0.3153      2.5878      1.2431      2.2622      0.1719      0.2874      0.1166      
2981.1109   3021.6929   3011.1109   -2991.6929  97.0309     0.3154      2.589       1.2431      2.2523      0.1725      0.2971      0.1157      
2981.3109   3021.8689   3011.3109   -2991.8689  94.5491     0.3156      2.5785      1.238       2.2478      0.1747      0.3027      0.1138      
2981.5109   3022.0449   3011.5109   -2992.0449  92.6663     0.3159      2.5588      1.2315      2.2419      0.181       0.3059      0.1105      
2981.7109   3022.2208   3011.7109   -2992.2208  89.914      0.3163      2.5435      1.2264      2.2297      0.1901      0.2963      0.1119      
2981.9109   3022.3966   3011.9109   -2992.3966  91.3544     0.3162      2.5361      1.2217      2.2198      0.2014      0.2621      0.1191      
2982.1109   3022.5725   3012.1109   -2992.5725  93.8837     0.316       2.5329      1.2164      2.2214      0.2005      0.2608      0.1209      
2982.3109   3022.7483   3012.3109   -2992.7483  95.2556     0.3156      2.5278      1.2107      2.2294      0.1911      0.2782      0.1214      
2982.5109   3022.9241   3012.5109   -2992.9241  93.9661     0.315       2.5255      1.2078      2.23        0.1825      0.3101      0.117       
2982.7109   3023.0998   3012.7109   -2993.0998  93.7314     0.3145      2.5312      1.2107      2.2264      0.1734      0.3594      0.104       
2982.9109   3023.2755   3012.9109   -2993.2755  95.2232     0.3142      2.5485      1.2247      2.2261      0.1581      0.3867      0.099       
2983.1109   3023.4512   3013.1109   -2993.4512  95.5378     0.3142      2.5678      1.2451      2.2344      0.1409      0.4032      0.0966      
2983.3109   3023.6269   3013.3109   -2993.6269  92.7075     0.3144      2.5855      1.2591      2.259       0.1434      0.3816      0.098       
2983.5109   3023.8025   3013.5109   -2993.8025  91.4479     0.3146      2.5889      1.2603      2.2666      0.1529      0.3344      0.1012      
2983.7109   3023.9781   3013.7109   -2993.9781  90.6116     0.315       2.5812      1.2537      2.2596      0.1576      0.3345      0.1012      
2983.9109   3024.1537   3013.9109   -2994.1537  90.4719     0.3155      2.5611      1.2429      2.2509      0.1611      0.34        0.1007      
2984.1109   3024.3293   3014.1109   -2994.3293  88.3359     0.316       2.5451      1.2349      2.2475      0.165       0.3363      0.1016      
2984.3109   3024.5048   3014.3109   -2994.5048  90.3225     0.3167      2.5433      1.2329      2.2451      0.1692      0.3242      0.1043      
2984.5109   3024.6803   3014.5109   -2994.6803  91.6955     0.3173      2.5482      1.2345      2.2482      0.1749      0.2954      0.1121      
2984.7109   3024.8558   3014.7109   -2994.8558  93.9719     0.3176      2.5551      1.2408      2.2521      0.1793      0.2654      0.1208      
2984.9109   3025.0312   3014.9109   -2995.0312  96.0463     0.3178      2.5648      1.2483      2.2522      0.176       0.2763      0.1188      
2985.1109   3025.2066   3015.1109   -2995.2066  95.2402     0.3178      2.5748      1.2535      2.2537      0.1716      0.2912      0.1161      
2985.3109   3025.382    3015.3109   -2995.382   97.3244     0.3177      2.5755      1.2568      2.2497      0.1871      0.2635      0.1203      
2985.5109   3025.5574   3015.5109   -2995.5574  95.5158     0.3178      2.5667      1.2613      2.2295      0.2052      0.2311      0.1252      
2985.7109   3025.7327   3015.7109   -2995.7327  95.7039     0.3175      2.5594      1.2697      2.2274      0.1649      0.3445      0.1083      
2985.9109   3025.9079   3015.9109   -2995.9079  92.484      0.3171      2.5641      1.2812      2.2517      0.1233      0.4613      0.0909      
2986.1109   3026.0832   3016.1109   -2996.0832  92.2389     0.3171      2.5823      1.2859      2.2674      0.131       0.4319      0.0962      
2986.3109   3026.2585   3016.3109   -2996.2585  95.0111     0.3166      2.5868      1.2804      2.265       0.1442      0.388       0.1017      
