#----------------------------------------------------------------------------
~VERSION INFORMATION
VERS.            2.0                  :CWLS LOG ASCII STANDARD -VERSION 2.0
WRAP.            NO                   :ONE LINE PER DEPTH STEP
#
#--------------------------------------------------------------------
~WELL INFORMATION
#MNEM .UNIT      DATA                 :DESCRIPTION OF MNEMONIC
#----------      ------------         -------------------------------
STRT  .m         2775.191             :START DEPTH
STEP  .m         0.2                  :STEP DEPTH
STOP  .m         3093.191             :STOP DEPTH
NULL  .          -999.25              :NULL VALUE
COMP  .                               :COMPANY
WELL  .                               :WELL
LOC   .                               :LOCATION - AREA
FLD   .                               :FIELD
CTRY  .                               :COUNTRY
DATE  .                               :WELL DATE
UWI   .                               :UWI
ZSTK  .          TVDss                :Z-STICK
XWELL .m         	              :X POS
YWELL .m         	              :Y POS
EDF   .          24.0                 :DERRICK FLOOR ELEVATION
#
#----------------------------------------------------------------------------
~CURVE INFORMATION
#MNEM.UNIT                                  : CURVE DESCRIPTION
#----------                                 -------------------------------
DEPT        .m                              : 1      DEPTH
COTA        .m                              : 2      Depth
Depth_TVDkb .m                              : 3      Depth
TVD         .m                              : 4      Depth
GR          .API                            : 5      GR
CALIPER     .m                              : 6      Cal
VP          .km/s                           : 7      Vp
VS          .km/s                           : 8      Vs
RHO         .g/cm3                          : 9      Rho
Porosidade  .fract                          : 10     Por
Argilosidade.fract                          : 11     Volume
Saturacao   .fract                          : 12     Sat
#
#----------------------------------------------------------------------------
~A          COTA        Depth_TVDkb TVD         GR          CALIPER     VP          VS          RHO         Porosidade  Argilosidade Saturacao   
# ...
3077.591    -3077.8089  3101.591    3101.8089   84.6968     0.3229      3.0251      1.4243      2.4235      0.0         1.0         0.7144      
3077.791    -3078.0086  3101.791    3102.0086   84.6027     0.3233      3.0513      1.4262      2.3988      0.0         1.0         0.727       
3077.991    -3078.2084  3101.991    3102.2084   82.2578     0.3206      3.061       1.428       2.3835      0.0         1.0         0.7465      
3078.191    -3078.4081  3102.191    3102.4081   79.7338     0.3205      3.0114      1.4088      2.3733      0.0         1.0         0.7651      
3078.391    -3078.6078  3102.391    3102.6078   79.6514     0.3233      2.9665      1.3946      2.3704      0.0         1.0         0.7854      
3078.591    -3078.8075  3102.591    3102.8075   82.7203     0.3244      2.9187      1.3753      2.3711      0.0         1.0         0.813       
3078.791    -3079.0071  3102.791    3103.0071   86.7092     0.3225      2.8587      1.3452      2.3706      0.0         1.0         0.8248      
3078.991    -3079.2068  3102.991    3103.2068   92.2823     0.3196      2.8375      1.3333      2.3644      0.0         1.0         0.813       
3079.191    -3079.4066  3103.191    3103.4066   93.9523     0.3199      2.8476      1.3359      2.3543      0.0         1.0         0.8031      
3079.391    -3079.6062  3103.391    3103.6062   88.9146     0.3233      2.8591      1.3418      2.3535      0.0         0.9981      0.7851      
3079.591    -3079.8059  3103.591    3103.8059   84.2316     0.3237      2.8951      1.3596      2.3685      0.0         0.9917      0.7493      
3079.791    -3080.0055  3103.791    3104.0055   82.0514     0.3213      2.9485      1.3809      2.3853      0.0         0.9834      0.762       
3079.991    -3080.2052  3103.991    3104.2052   83.3481     0.3213      2.9836      1.3918      2.3866      0.0         0.9723      0.8278      
3080.191    -3080.4049  3104.191    3104.4049   86.6439     0.3233      2.9471      1.3742      2.3721      0.0         0.96        0.8951      
3080.391    -3080.6045  3104.391    3104.6045   88.9971     0.3247      2.8636      1.339       2.3533      0.0         0.9688      0.8855      
3080.591    -3080.8041  3104.591    3104.8041   90.3746     0.3248      2.8347      1.3287      2.3531      0.0         0.9959      0.8273      
3080.791    -3081.0038  3104.791    3105.0038   91.7228     0.3232      2.8372      1.3297      2.3537      0.0         0.9632      0.8348      
3080.991    -3081.2034  3104.991    3105.2034   93.889      0.3223      2.8687      1.3409      2.3507      0.0         0.8985      0.8637      
3081.191    -3081.4031  3105.191    3105.4031   89.7118     0.3236      2.9337      1.3673      2.3494      0.0         0.8294      0.8947      
3081.391    -3081.6027  3105.391    3105.6027   88.179      0.3248      2.9698      1.3825      2.3467      0.0         0.8557      0.881       
3081.591    -3081.8023  3105.591    3105.8023   84.7721     0.3237      2.9594      1.379       2.3486      0.0         0.9046      0.8548      
3081.791    -3082.0019  3105.791    3106.0019   88.15       0.3213      2.935       1.3689      2.3552      0.0         0.9238      0.8941      
3081.991    -3082.2015  3105.991    3106.2015   96.6687     0.3212      2.8786      1.3469      2.3531      0.0         0.9403      0.9455      
3082.191    -3082.4011  3106.191    3106.4011   104.4409    0.3235      2.7867      1.3075      2.3479      0.0         0.9567      0.9993      
3082.391    -3082.6007  3106.391    3106.6007   119.6986    0.3239      2.7682      1.298       2.3366      0.0         0.978       0.9695      
3082.591    -3082.8002  3106.591    3106.8002   124.2866    0.322       2.8447      1.3337      2.3293      0.0         1.0         0.9362      
3082.791    -3082.9998  3106.791    3106.9998   116.861     0.3213      2.9211      1.3677      2.3366      0.0         0.9802      0.8936      
3082.991    -3083.1995  3106.991    3107.1995   102.762     0.3227      2.9344      1.3734      2.3379      0.0         0.9602      0.8509      
3083.191    -3083.399   3107.191    3107.399    88.1899     0.3237      2.9909      1.4009      2.3433      0.0         0.938       0.8127      
3083.391    -3083.5985  3107.391    3107.5985   82.9529     0.3228      3.0337      1.4237      2.3527      0.0034      0.8185      0.9175      
3083.591    -3083.7981  3107.591    3107.7981   83.895      0.3217      3.0406      1.4368      2.3458      0.0058      0.7261      0.9979      
3083.791    -3083.9976  3107.791    3107.9976   83.154      0.3218      2.9738      1.4234      2.3282      0.0036      0.83        0.9378      
3083.991    -3084.1972  3107.991    3108.1972   84.038      0.3223      2.939       1.4191      2.3231      0.0015      0.9275      0.8814      
3084.191    -3084.3968  3108.191    3108.3968   80.7313     0.3223      2.9295      1.4207      2.3395      0.0         0.9903      0.8464      
3084.391    -3084.5963  3108.391    3108.5963   79.7268     0.3219      2.9193      1.4167      2.3523      0.0         0.9239      0.8999      
3084.591    -3084.7958  3108.591    3108.7958   84.2816     0.3225      2.9181      1.4162      2.3527      0.0         0.8943      0.9254      
3084.791    -3084.9953  3108.791    3108.9953   84.0981     0.3235      2.9319      1.4197      2.3535      0.0         0.9384      0.9015      
3084.991    -3085.1949  3108.991    3109.1949   85.554      0.3237      2.9358      1.4169      2.3777      0.0         0.9803      0.8788      
3085.191    -3085.3944  3109.191    3109.3944   93.6877     0.3234      2.9302      1.4063      2.4074      0.0         1.0         0.8683      
3085.391    -3085.5939  3109.391    3109.5939   95.2587     0.3229      2.8978      1.3875      2.4093      0.0         1.0         0.8688      
3085.591    -3085.7934  3109.591    3109.7934   89.7001     0.3223      2.8226      1.3526      2.3836      0.0         0.9937      0.8803      
3085.791    -3085.9929  3109.791    3109.9929   86.4595     0.3226      2.7753      1.3276      2.3589      0.0         0.9728      0.9165      
3085.991    -3086.1924  3109.991    3110.1924   84.7592     0.3234      2.7719      1.3215      2.3497      0.0         0.9519      0.9531      
3086.191    -3086.3919  3110.191    3110.3919   83.2875     0.3235      2.7638      1.3105      2.3516      0.0         0.9594      0.952       
3086.391    -3086.5913  3110.391    3110.5913   84.0579     0.3235      2.7623      1.3033      2.3577      0.0         0.9938      0.9273      
3086.591    -3086.7908  3110.591    3110.7908   86.0756     0.3241      2.7735      1.3035      2.3631      0.0         1.0         0.8948      
3086.791    -3086.9903  3110.791    3110.9903   86.1796     0.3254      2.7866      1.3079      2.3701      0.0         1.0         0.8564      
3086.991    -3087.1898  3110.991    3111.1898   85.8221     0.3257      2.7983      1.3174      2.3698      0.0         1.0         0.8188      
3087.191    -3087.3892  3111.191    3111.3892   83.8829     0.3243      2.8155      1.333       2.3682      0.0         0.9834      0.7797      
3087.391    -3087.5886  3111.391    3111.5886   85.5791     0.323       2.8622      1.3617      2.3624      0.0         0.9553      0.7353      
3087.591    -3087.7881  3111.591    3111.7881   89.3665     0.3229      2.9313      1.3976      2.3472      0.0         0.966       0.7326      
3087.791    -3087.9875  3111.791    3111.9875   83.7268     0.3233      2.9725      1.4126      2.3499      0.0         0.9824      0.7331      
3087.991    -3088.1871  3111.991    3112.1871   82.7049     0.3235      2.9954      1.4222      2.377       0.0         0.9997      0.7333      
3088.191    -3088.387   3112.191    3112.387    81.7718     0.3225      2.9492      1.4029      2.3978      0.0         1.0         0.7389      
3088.391    -3088.5872  3112.391    3112.5872   84.501      0.3215      2.9007      1.3839      2.3971      0.0         1.0         0.7449      
3088.591    -3088.7873  3112.591    3112.7873   88.9812     0.3225      2.8589      1.3631      2.405       0.0         0.9735      0.7621      
