#----------------------------------------------------------------------------
~VERSION INFORMATION
VERS.            2.0                  :CWLS LOG ASCII STANDARD -VERSION 2.0
WRAP.            NO                   :ONE LINE PER DEPTH STEP
#
#--------------------------------------------------------------------
~WELL INFORMATION
#MNEM .UNIT      DATA                 :DESCRIPTION OF MNEMONIC
#----------      ------------         -------------------------------
STRT  .m         2796.1109            :START DEPTH
STEP  .m         0.2                  :STEP DEPTH
STOP  .m         3026.1109            :STOP DEPTH
NULL  .          -999.25              :NULL VALUE
COMP  .          	              :COMPANY
WELL  .                               :WELL
LOC   .                               :LOCATION - AREA
FLD   .                               :FIELD
CTRY  .                               :COUNTRY
DATE  .                               :WELL DATE
UWI   .          	              :UWI
ZSTK  .          TVDss                :Z-STICK
XWELL .m                              :X POS
YWELL .m                              :Y POS
EDF   .          30.0                 :DERRICK FLOOR ELEVATION
#
#----------------------------------------------------------------------------
~CURVE INFORMATION
#MNEM.UNIT                                  : CURVE DESCRIPTION
#----------                                 -------------------------------
DEPT        .m                              : 1      DEPTH
MD          .m                              : 2      Depth
Depth_TVDkb .m                              : 3      Depth
COTA        .m                              : 4      Depth
GR          .API                            : 5      GR
CALIPER     .m                              : 6      Cal
VP          .km/s                           : 7      Vp
VS          .km/s                           : 8      Vs
RHO         .g/cm3                          : 9      Rho
Porosidade  .fract                          : 10     Por
Argilosidade.fract                          : 11     Volume
Saturacao   .fract                          : 12     Sat
#
#----------------------------------------------------------------------------
~A          MD          Depth_TVDkb COTA        GR          CALIPER     VP          VS          RHO         Porosidade  Argilosidade Saturacao   
# ...
2829.7109   2882.7775   2859.7109   -2852.7775  124.4223    0.3517      2.372       0.9011      2.1858      0.132       0.6758      0.4268      
2829.9109   2882.9626   2859.9109   -2852.9626  124.525     0.3541      2.3682      0.8988      2.139       0.1647      0.5843      0.4237      
2830.1109   2883.1478   2860.1109   -2853.1478  125.7597    0.3579      2.3778      0.8989      2.1354      0.1765      0.5491      0.4219      
2830.3109   2883.3331   2860.3109   -2853.3331  128.8463    0.3635      2.4057      0.9101      2.1556      0.1375      0.6359      0.4318      
2830.5109   2883.5184   2860.5109   -2853.5184  131.1309    0.366       2.4189      0.9325      2.1924      0.0972      0.7413      0.4378      
2830.7109   2883.7037   2860.7109   -2853.7037  132.6853    0.3588      2.4135      0.9471      2.2164      0.0747      0.8297      0.4129      
2830.9109   2883.889    2860.9109   -2853.889   131.5899    0.3535      2.397       0.9493      2.2132      0.0665      0.8667      0.3961      
2831.1109   2884.0745   2861.1109   -2854.0745  131.4582    0.3581      2.3886      0.9476      2.1874      0.0941      0.8004      0.4039      
2831.3109   2884.2599   2861.3109   -2854.2599  133.7429    0.3631      2.3961      0.9428      2.1658      0.1315      0.7078      0.4161      
2831.5109   2884.4454   2861.5109   -2854.4454  144.8641    0.364       2.4393      0.954       2.1518      0.1704      0.6176      0.4342      
2831.7109   2884.6309   2861.7109   -2854.6309  139.2413    0.3621      2.4987      1.0101      2.1295      0.1885      0.5438      0.4429      
2831.9109   2884.8165   2861.9109   -2854.8165  135.9527    0.3538      2.5331      1.0952      2.1325      0.1705      0.4878      0.4127      
2832.1109   2885.0021   2862.1109   -2855.0021  143.8321    0.3447      2.5344      1.1465      2.1859      0.158       0.4663      0.3918      
2832.3109   2885.1878   2862.3109   -2855.1878  152.2665    0.3398      2.5036      1.162       2.221       0.1726      0.5483      0.4179      
2832.5109   2885.373    2862.5109   -2855.373   147.5586    0.3363      2.4542      1.1661      2.2171      0.2003      0.6041      0.4347      
2832.7109   2885.5572   2862.7109   -2855.5572  144.1613    0.3335      2.4302      1.1656      2.191       0.2623      0.4095      0.3115      
2832.9109   2885.7411   2862.9109   -2855.7411  138.574     0.3315      2.3985      1.1557      2.1293      0.3083      0.2327      0.2004      
2833.1109   2885.925    2863.1109   -2855.925   131.5442    0.3289      2.2685      1.1213      2.0521      0.3215      0.1964      0.1775      
2833.3109   2886.1094   2863.3109   -2856.1094  122.6513    0.327       2.1147      1.0717      2.0369      0.3259      0.1589      0.1566      
2833.5109   2886.295    2863.5109   -2856.295   117.6638    0.3267      2.0646      1.0369      2.0354      0.3156      0.0586      0.1171      
2833.7109   2886.4811   2863.7109   -2856.4811  112.1214    0.3266      2.0456      1.0205      2.0132      0.3079      0.0         0.0887      
2833.9109   2886.6669   2863.9109   -2856.6669  103.0075    0.3267      2.0179      1.0105      1.972       0.3083      0.0         0.0777      
2834.1109   2886.8528   2864.1109   -2856.8528  99.0417     0.3265      1.9853      1.0044      1.9648      0.3083      0.0         0.0738      
2834.3109   2887.0388   2864.3109   -2857.0388  96.7014     0.3255      1.9733      1.0038      1.9941      0.2834      0.0         0.0802      
2834.5109   2887.2248   2864.5109   -2857.2248  94.4634     0.3247      1.9732      1.0048      2.0735      0.2642      0.0         0.0851      
2834.7109   2887.4108   2864.7109   -2857.4108  95.3753     0.3246      1.9737      1.0044      2.1323      0.2663      0.0         0.0836      
2834.9109   2887.5968   2864.9109   -2857.5968  94.8608     0.3245      1.9689      0.9994      2.131       0.2709      0.0         0.0808      
2835.1109   2887.7828   2865.1109   -2857.7828  97.4229     0.3238      1.9437      0.9874      2.0784      0.289       0.0         0.0759      
2835.3109   2887.9689   2865.3109   -2857.9689  93.0925     0.3232      1.9027      0.9746      2.0372      0.304       0.0         0.073       
2835.5109   2888.1549   2865.5109   -2858.1549  91.0541     0.3232      1.8772      0.9682      2.0429      0.3075      0.0         0.0752      
2835.7109   2888.341    2865.7109   -2858.341   89.5785     0.3234      1.8727      0.9649      2.0577      0.3088      0.0         0.077       
2835.9109   2888.5271   2865.9109   -2858.5271  85.5438     0.3233      1.8712      0.9582      2.0566      0.304       0.0         0.0763      
2836.1109   2888.7133   2866.1109   -2858.7133  86.4125     0.3233      1.865       0.9463      2.0587      0.3001      0.0         0.0749      
2836.3109   2888.8994   2866.3109   -2858.8994  81.2989     0.3234      1.8567      0.9378      2.0719      0.3024      0.0         0.0716      
2836.5109   2889.0856   2866.5109   -2859.0856  79.2431     0.3232      1.8545      0.9367      2.0782      0.3042      0.0         0.0696      
2836.7109   2889.2718   2866.7109   -2859.2718  81.0129     0.3231      1.8527      0.9395      2.085       0.2987      0.0         0.0779      
2836.9109   2889.458    2866.9109   -2859.458   80.5621     0.3231      1.8506      0.9449      2.1058      0.2942      0.0         0.0847      
2837.1109   2889.6442   2867.1109   -2859.6442  80.9945     0.3229      1.8528      0.9498      2.1119      0.2973      0.0         0.0795      
2837.3109   2889.8305   2867.3109   -2859.8305  83.6848     0.3225      1.8608      0.9525      2.0972      0.2998      0.0         0.0743      
2837.5109   2890.0168   2867.5109   -2860.0168  86.171      0.3224      1.8675      0.9543      2.0817      0.295       0.0         0.0731      
2837.7109   2890.2031   2867.7109   -2860.2031  86.6975     0.3223      1.8695      0.9583      2.0857      0.2891      0.0         0.0724      
2837.9109   2890.3894   2867.9109   -2860.3894  85.4949     0.3223      1.8703      0.9692      2.0958      0.2866      0.0         0.0717      
2838.1109   2890.5757   2868.1109   -2860.5757  85.7731     0.3224      1.8782      0.9978      2.0947      0.2835      0.0         0.0715      
2838.3109   2890.7621   2868.3109   -2860.7621  84.2235     0.3226      1.907       1.0576      2.094       0.2738      0.0         0.0961      
2838.5109   2890.9485   2868.5109   -2860.9485  81.9101     0.3227      1.9572      1.142       2.108       0.263       0.0         0.1219      
2838.7109   2891.1349   2868.7109   -2861.1349  80.7577     0.3228      2.0553      1.216       2.1428      0.2564      0.0101      0.1282      
2838.9109   2891.3213   2868.9109   -2861.3213  84.8166     0.3228      2.1971      1.2597      2.1711      0.2511      0.022       0.1323      
2839.1109   2891.5078   2869.1109   -2861.5078  89.2333     0.3226      2.2694      1.2774      2.1858      0.2456      0.0275      0.1365      
2839.3109   2891.6942   2869.3109   -2861.6942  89.2189     0.3221      2.2579      1.2742      2.2053      0.2428      0.0299      0.1386      
2839.5109   2891.8807   2869.5109   -2861.8807  90.3057     0.3213      2.192       1.2522      2.2083      0.2622      0.026       0.1288      
2839.7109   2892.0672   2869.7109   -2862.0672  95.0695     0.3207      2.129       1.2199      2.1699      0.2817      0.019       0.1176      
2839.9109   2892.2537   2869.9109   -2862.2537  95.8129     0.3208      2.0811      1.1887      2.1041      0.2852      0.0074      0.1141      
2840.1109   2892.4402   2870.1109   -2862.4402  96.1776     0.321       2.0479      1.1707      2.0936      0.2865      0.0         0.1113      
2840.3109   2892.6268   2870.3109   -2862.6268  96.6728     0.3213      2.0204      1.1691      2.1046      0.2821      0.0         0.1066      
2840.5109   2892.8134   2870.5109   -2862.8134  96.0496     0.3217      2.0045      1.1772      2.1112      0.2782      0.0         0.1039      
2840.7109   2893.0      2870.7109   -2863.0     96.6141     0.322       2.005       1.1835      2.1202      0.2789      0.0         0.1039      
