#----------------------------------------------------------------------------
~VERSION INFORMATION
VERS.            2.0                  :CWLS LOG ASCII STANDARD -VERSION 2.0
WRAP.            NO                   :ONE LINE PER DEPTH STEP
#
#--------------------------------------------------------------------
~WELL INFORMATION
#MNEM .UNIT      DATA                 :DESCRIPTION OF MNEMONIC
#----------      ------------         -------------------------------
STRT  .m         2910.0               :START DEPTH
STEP  .m         0.2                  :STEP DEPTH
STOP  .m         3110.0               :STOP DEPTH
NULL  .          -999.25              :NULL VALUE
COMP  .                               :COMPANY
WELL  .                               :WELL
LOC   .                               :LOCATION - AREA
FLD   .                               :FIELD
CTRY  .                               :COUNTRY
DATE  .                               :WELL DATE
UWI   .                               :UWI
ZSTK  .          TVDss                :Z-STICK
XWELL .m         	              :X POS
YWELL .m         	              :Y POS
EDF   .          14.0                 :DERRICK FLOOR ELEVATION
#
#----------------------------------------------------------------------------
~CURVE INFORMATION
#MNEM.UNIT                                  : CURVE DESCRIPTION
#----------                                 -------------------------------
DEPT        .m                              : 1      DEPTH
MD          .m                              : 2      Depth
GR          .API                            : 3      GR
CALIPER     .m                              : 4      Cal
VP          .km/s                           : 5      Vp
VS          .km/s                           : 6      Vs
RHO         .g/cm3                          : 7      Rho
Porosidade  .fract                          : 8      Por
Argilosidade.fract                          : 9      Volume
Saturacao   .fract                          : 10     Sat
#
#----------------------------------------------------------------------------
~A          MD          GR          CALIPER     VP          VS          RHO         Porosidade  Argilosidade Saturacao   
# ...
3017.2      3030.1898   101.9275    0.3081      2.9723      1.5175      2.25        0.2105      0.1849      0.2173      
3017.4      3030.3897   103.7965    0.3093      2.9749      1.5021      2.2615      0.1834      0.2822      0.2663      
3017.6      3030.5894   109.3005    0.3095      2.9712      1.4872      2.2823      0.1417      0.4263      0.3385      
3017.8      3030.7892   113.2168    0.3085      2.9169      1.4554      2.3044      0.1102      0.527       0.4007      
3018.0      3030.989    114.4977    0.3075      2.8543      1.4305      2.2818      0.1269      0.5129      0.4039      
3018.2      3031.1888   116.8627    0.307       2.8348      1.4192      2.2129      0.187       0.4104      0.361       
3018.4      3031.3886   119.3211    0.3066      2.776       1.4144      2.1632      0.2326      0.3373      0.3249      
3018.6      3031.5883   119.2103    0.3066      2.7056      1.4296      2.1493      0.2394      0.3539      0.2981      
3018.8      3031.7881   115.6883    0.3067      2.6929      1.4804      2.1468      0.223       0.4336      0.2657      
3019.0      3031.9879   109.6262    0.3067      2.7292      1.4701      2.1528      0.2116      0.4727      0.2403      
3019.2      3032.1877   103.9718    0.3068      2.7842      1.4357      2.1582      0.2263      0.3896      0.2332      
3019.4      3032.3874   102.5531    0.3068      2.8113      1.4454      2.1555      0.26        0.2326      0.2371      
3019.6      3032.5872   103.6127    0.3066      2.8286      1.4841      2.1549      0.2766      0.1485      0.2436      
3019.8      3032.787    104.7916    0.3063      2.8373      1.4704      2.1624      0.2729      0.1468      0.2466      
3020.0      3032.9868   105.5622    0.3065      2.85        1.462       2.1709      0.2703      0.1349      0.2459      
3020.2      3033.1866   106.3831    0.3069      2.8802      1.5067      2.1778      0.2715      0.108       0.2444      
3020.4      3033.3863   108.315     0.3072      2.8584      1.5027      2.1859      0.2595      0.1422      0.2404      
3020.6      3033.5861   108.7675    0.3073      2.7957      1.4916      2.1908      0.2316      0.2656      0.2285      
3020.8      3033.7859   103.7211    0.3076      2.8034      1.4966      2.1887      0.2121      0.3665      0.2162      
3021.0      3033.9857   97.6598     0.3082      2.8129      1.5056      2.1871      0.2187      0.3368      0.2163      
3021.2      3034.1855   94.9125     0.3084      2.8303      1.5093      2.1933      0.2341      0.2415      0.2264      
3021.4      3034.3852   94.7007     0.3084      2.8824      1.5019      2.2044      0.2305      0.228       0.233       
3021.6      3034.585    96.862      0.3084      2.9554      1.4885      2.2125      0.2198      0.2568      0.2308      
3021.8      3034.7848   101.9903    0.3084      3.009       1.4897      2.2121      0.2265      0.2262      0.2197      
3022.0      3034.9846   104.8708    0.3085      3.0427      1.512       2.202       0.2452      0.1628      0.2029      
3022.2      3035.1844   100.5531    0.3086      3.0476      1.518       2.1909      0.2509      0.1654      0.1848      
3022.4      3035.3842   94.0757     0.3086      3.0482      1.4497      2.19        0.235       0.2485      0.1681      
3022.6      3035.5839   89.7221     0.3092      3.1198      1.4603      2.1982      0.2218      0.2912      0.159       
3022.8      3035.7837   86.9137     0.3094      3.2852      1.5169      2.2065      0.2364      0.197       0.1633      
3023.0      3035.9835   86.6402     0.3088      3.4003      1.5477      2.2018      0.2694      0.0423      0.1763      
3023.2      3036.1833   88.6938     0.3081      3.3515      1.5687      2.1957      0.2832      0.0         0.1871      
3023.4      3036.3831   91.9027     0.3079      3.1552      1.5598      2.2007      0.2684      0.0504      0.1954      
3023.6      3036.5828   95.3567     0.308       3.0321      1.5508      2.2084      0.2408      0.1671      0.2022      
3023.8      3036.7826   99.5338     0.3087      3.039       1.5385      2.2101      0.2247      0.2385      0.2074      
3024.0      3036.9824   103.5564    0.309       3.0856      1.4347      2.2112      0.2204      0.2565      0.214       
3024.2      3037.1822   105.8801    0.3085      3.1672      1.3948      2.2135      0.2183      0.2614      0.2207      
3024.4      3037.382    103.8459    0.3079      3.2938      1.4067      2.2145      0.2237      0.2296      0.2253      
3024.6      3037.5817   101.2929    0.3078      3.2698      1.4313      2.2173      0.2352      0.1631      0.2328      
3024.8      3037.7815   102.4487    0.3079      3.1702      1.5405      2.2239      0.231       0.1664      0.2376      
3025.0      3037.9813   104.4427    0.3081      3.1036      1.5604      2.2299      0.2064      0.2689      0.2294      
3025.2      3038.1811   102.6884    0.3082      3.0728      1.564       2.2312      0.1851      0.37        0.2175      
3025.4      3038.3809   102.0691    0.3085      3.0816      1.6389      2.2259      0.1844      0.3894      0.219       
3025.6      3038.5807   105.1013    0.3089      3.1168      1.692       2.2162      0.2035      0.3246      0.2303      
3025.8      3038.7804   107.0127    0.309       3.0998      1.6748      2.2066      0.2272      0.2361      0.2397      
3026.0      3038.9802   103.1336    0.3083      3.062       1.6296      2.2096      0.2276      0.2175      0.2478      
3026.2      3039.18     97.9925     0.3081      3.0537      1.6615      2.2612      0.1804      0.2912      0.2499      
3026.4      3039.3798   97.6232     0.3092      3.0278      1.7073      2.3632      0.0962      0.3991      0.2261      
3026.6      3039.5796   100.4426    0.3113      3.0975      1.7419      2.4589      0.0217      0.5015      0.1867      
3026.8      3039.7793   101.4445    0.3122      3.1623      1.7296      2.4493      0.0155      0.5466      0.1856      
3027.0      3039.9791   101.5933    0.311       3.1543      1.6898      2.3505      0.0898      0.4775      0.2246      
3027.2      3040.1789   102.0001    0.3093      3.1523      1.6719      2.247       0.1788      0.3395      0.2415      
3027.4      3040.3787   102.0544    0.3086      3.1528      1.5562      2.1992      0.2317      0.2281      0.2209      
3027.6      3040.5785   100.0339    0.3087      3.1002      1.507       2.1922      0.2581      0.1193      0.2052      
3027.8      3040.7783   97.4134     0.3092      3.1449      1.6812      2.2431      0.236       0.0666      0.2267      
3028.0      3040.9781   95.9206     0.3095      3.3071      1.8376      2.3703      0.13        0.2064      0.2434      
3028.2      3041.1778   94.5941     0.3097      3.3203      1.8728      2.4801      0.019       0.481       0.2089      
3028.4      3041.3776   95.9921     0.3096      3.1594      1.8694      2.4856      0.0         0.644       0.1908      
3028.6      3041.5774   100.1123    0.3091      3.0736      1.7979      2.392       0.0407      0.61        0.2385      
3028.8      3041.7772   103.7608    0.3089      3.028       1.6639      2.2891      0.1293      0.443       0.2734      
3029.0      3041.977    107.1501    0.3088      3.0279      1.5535      2.2295      0.2068      0.2669      0.2602      
3029.2      3042.1767   108.8509    0.3086      3.0394      1.5046      2.2088      0.2324      0.2005      0.2473      
3029.4      3042.3766   108.8536    0.3082      3.1267      1.4892      2.2105      0.221       0.2499      0.2509      
3029.6      3042.5764   110.6887    0.3079      3.2695      1.5092      2.2214      0.1984      0.3366      0.258       
3029.8      3042.7761   113.9805    0.3078      3.2656      1.5055      2.235       0.1817      0.3745      0.2753      
3030.0      3042.9759   114.7829    0.3079      3.1993      1.4966      2.2462      0.1746      0.3758      0.2918      
3030.2      3043.1757   112.7829    0.3084      3.1202      1.4877      2.2468      0.1742      0.3798      0.2771      
3030.4      3043.3755   108.5145    0.3089      3.0244      1.4959      2.2316      0.1882      0.3541      0.2312      
