#----------------------------------------------------------------------------
~VERSION INFORMATION
VERS.            2.0                  :CWLS LOG ASCII STANDARD -VERSION 2.0
WRAP.            NO                   :ONE LINE PER DEPTH STEP
#
#--------------------------------------------------------------------
~WELL INFORMATION
#MNEM .UNIT      DATA                 :DESCRIPTION OF MNEMONIC
#----------      ------------         -------------------------------
STRT  .m         2910.0               :START DEPTH
STEP  .m         0.2                  :STEP DEPTH
STOP  .m         3110.0               :STOP DEPTH
NULL  .          -999.25              :NULL VALUE
COMP  .                               :COMPANY
WELL  .                               :WELL
LOC   .                               :LOCATION - AREA
FLD   .                               :FIELD
CTRY  .                               :COUNTRY
DATE  .                               :WELL DATE
UWI   .                               :UWI
ZSTK  .          TVDss                :Z-STICK
XWELL .m         	              :X POS
YWELL .m         	              :Y POS
EDF   .          14.0                 :DERRICK FLOOR ELEVATION
#
#----------------------------------------------------------------------------
~CURVE INFORMATION
#MNEM.UNIT                                  : CURVE DESCRIPTION
#----------                                 -------------------------------
DEPT        .m                              : 1      DEPTH
MD          .m                              : 2      Depth
GR          .API                            : 3      GR
CALIPER     .m                              : 4      Cal
VP          .km/s                           : 5      Vp
VS          .km/s                           : 6      Vs
RHO         .g/cm3                          : 7      Rho
Porosidade  .fract                          : 8      Por
Argilosidade.fract                          : 9      Volume
Saturacao   .fract                          : 10     Sat
#
#----------------------------------------------------------------------------
~A          MD          GR          CALIPER     VP          VS          RHO         Porosidade  Argilosidade Saturacao   
# ...
2977.0      2990.0372   89.6372     0.3135      2.8517      1.4538      2.2371      0.2192      0.1834      0.1365      
2977.2      2990.237    90.0068     0.3193      2.8918      1.5132      2.2109      0.2347      0.1885      0.1286      
2977.4      2990.4368   86.7067     0.3296      2.8464      1.5847      2.1774      0.2663      0.1364      0.1239      
2977.6      2990.6365   84.2484     0.3392      2.7848      1.6227      2.1298      0.315       0.0421      0.1155      
2977.8      2990.8363   87.6739     0.3466      2.7489      1.5403      2.0723      0.3526      0.0         0.1032      
2978.0      2991.0361   90.8674     0.3476      2.7615      1.4006      2.0619      0.3581      0.0         0.1015      
2978.2      2991.2359   90.2644     0.3427      2.8127      1.3534      2.1193      0.3147      0.0761      0.1086      
2978.4      2991.4357   88.7339     0.3383      2.8735      1.3688      2.1743      0.2484      0.2367      0.111       
2978.6      2991.6355   89.316      0.3385      2.9025      1.4014      2.1836      0.2348      0.2769      0.1155      
2978.8      2991.8352   91.5469     0.3407      2.9321      1.445       2.1789      0.2404      0.2394      0.128       
2979.0      2992.035    92.7354     0.344       2.9367      1.4697      2.2593      0.1661      0.3547      0.1366      
2979.2      2992.2348   93.1241     0.3469      2.9192      1.5281      2.3807      0.0777      0.4799      0.1492      
2979.4      2992.4346   95.8171     0.3458      2.9467      1.6087      2.3697      0.0922      0.4074      0.1737      
2979.6      2992.6344   100.064     0.3401      2.939       1.5712      2.3107      0.1404      0.3405      0.1802      
2979.8      2992.8342   102.6871    0.3358      2.8985      1.5547      2.2839      0.153       0.372       0.1601      
2980.0      2993.034    100.785     0.3361      2.8627      1.5715      2.2524      0.1864      0.2944      0.1443      
2980.2      2993.2337   94.2761     0.3366      2.8632      1.6024      2.2218      0.2305      0.1657      0.1388      
2980.4      2993.4335   90.6711     0.3345      2.8787      1.6025      2.2402      0.2068      0.2295      0.1291      
2980.6      2993.6333   93.4491     0.3319      2.8937      1.5541      2.2847      0.1461      0.4048      0.1189      
2980.8      2993.8331   97.327      0.3324      2.9031      1.5394      2.2914      0.1238      0.4875      0.1145      
2981.0      2994.0329   97.8935     0.3374      2.9095      1.4065      2.2913      0.1269      0.4758      0.1216      
2981.2      2994.2326   96.7563     0.3406      2.9266      1.3261      2.3028      0.1272      0.4291      0.1449      
2981.4      2994.4324   97.125      0.339       2.9511      1.319       2.2968      0.144       0.3816      0.1626      
2981.6      2994.6322   97.8602     0.3404      2.9564      1.4098      2.2748      0.1493      0.4145      0.152       
2981.8      2994.832    95.8381     0.3482      2.898       1.637       2.2964      0.0921      0.5607      0.1182      
2982.0      2995.0318   91.1363     0.35        2.7943      1.7216      2.4256      0.0178      0.7067      0.0783      
2982.2      2995.2316   85.6563     0.3453      2.7554      1.682       2.5531      0.0         0.6853      0.0684      
2982.4      2995.4314   86.1532     0.3399      2.7483      1.6654      2.5241      0.0121      0.5102      0.104       
2982.6      2995.6312   91.8868     0.3359      2.8024      1.6745      2.3912      0.0715      0.3906      0.1293      
2982.8      2995.8309   97.1319     0.3369      2.8836      1.6332      2.3173      0.1173      0.4289      0.1086      
2983.0      2996.0307   98.7695     0.3434      2.9052      1.6273      2.3053      0.1129      0.5085      0.0846      
2983.2      2996.2305   97.36       0.3481      2.9068      1.6596      2.3077      0.1069      0.5104      0.0844      
2983.4      2996.4303   94.8019     0.3491      2.9332      1.6276      2.3063      0.1249      0.4396      0.0939      
2983.6      2996.6301   95.2692     0.3486      2.9824      1.5876      2.3103      0.1369      0.3669      0.1074      
2983.8      2996.8298   96.4172     0.3479      2.994       1.5186      2.3147      0.1403      0.3323      0.1281      
2984.0      2997.0296   95.2063     0.3474      2.9633      1.4654      2.3115      0.1414      0.3421      0.1476      
2984.2      2997.2294   94.4988     0.3483      2.9602      1.4571      2.3062      0.1291      0.4171      0.1489      
2984.4      2997.4292   97.8246     0.3516      2.9824      1.4414      2.2962      0.115       0.5162      0.1379      
2984.6      2997.629    100.9003    0.3526      3.0664      1.4167      2.2798      0.1213      0.5347      0.1378      
2984.8      2997.8288   99.1885     0.3473      3.1818      1.4703      2.2727      0.1399      0.4605      0.1416      
2985.0      2998.0286   93.7572     0.3415      3.2725      1.6788      2.2809      0.1559      0.3618      0.1304      
2985.2      2998.2283   90.0985     0.3419      3.3612      1.8099      2.2871      0.1731      0.2603      0.115       
2985.4      2998.4281   88.6973     0.3457      3.4007      1.8014      2.2829      0.1964      0.1568      0.1121      
2985.6      2998.6279   88.8285     0.3462      3.3626      1.7894      2.2699      0.2164      0.099       0.119       
2985.8      2998.8277   90.476      0.3419      3.2174      1.7365      2.254       0.212       0.162       0.1199      
2986.0      2999.0275   91.9793     0.3352      3.0699      1.6689      2.2589      0.1706      0.3512      0.1033      
2986.2      2999.2272   94.0082     0.3293      3.026       1.6108      2.2837      0.1202      0.5317      0.0834      
2986.4      2999.427    98.16       0.3272      3.0126      1.5696      2.3001      0.1051      0.5563      0.0872      
2986.6      2999.6268   101.3359    0.3301      3.0237      1.5384      2.2996      0.1271      0.4469      0.1139      
2986.8      2999.8266   101.2927    0.3359      3.0459      1.5565      2.2934      0.1473      0.365       0.1308      
2987.0      3000.0264   99.8491     0.3402      3.0522      1.5525      2.2895      0.1447      0.3895      0.1277      
2987.2      3000.2262   99.6406     0.3414      3.0385      1.5287      2.2894      0.1343      0.441       0.131       
2987.4      3000.4259   102.0882    0.3384      3.0197      1.5585      2.2905      0.1377      0.4238      0.1463      
2987.6      3000.6257   103.8928    0.3353      3.0275      1.6014      2.2826      0.1577      0.3488      0.1501      
2987.8      3000.8255   102.6182    0.3369      3.0647      1.6233      2.2677      0.1762      0.2993      0.1363      
2988.0      3001.0253   99.4318     0.3369      3.0173      1.643       2.262       0.1737      0.3284      0.1184      
2988.2      3001.225    99.0762     0.3283      2.9702      1.6213      2.2695      0.1591      0.3802      0.1198      
2988.4      3001.4249   100.4804    0.3201      3.0424      1.568       2.2752      0.1622      0.3514      0.1517      
2988.6      3001.6247   100.5652    0.3197      3.1469      1.5147      2.2663      0.1867      0.2563      0.179       
2988.8      3001.8244   99.1252     0.3229      3.1051      1.4614      2.2516      0.2009      0.2225      0.1764      
2989.0      3002.0242   97.595      0.3247      3.015       1.4685      2.2596      0.1751      0.3274      0.1593      
2989.2      3002.224    97.1357     0.3265      2.9456      1.4864      2.2953      0.1154      0.514       0.1356      
2989.4      3002.4238   96.3365     0.3298      2.8933      1.4794      2.3333      0.0741      0.6173      0.1191      
2989.6      3002.6236   95.9772     0.3324      2.8858      1.4586      2.3222      0.0978      0.5275      0.1388      
2989.8      3002.8233   96.1136     0.3313      2.9033      1.4346      2.2782      0.1531      0.3808      0.171       
2990.0      3003.0231   94.9071     0.3283      2.9434      1.4465      2.2512      0.171       0.3719      0.1674      
2990.2      3003.2229   94.8407     0.3256      2.9576      1.5207      2.2501      0.164       0.4185      0.1422      
