#----------------------------------------------------------------------------
~VERSION INFORMATION
VERS.            2.0                  :CWLS LOG ASCII STANDARD -VERSION 2.0
WRAP.            NO                   :ONE LINE PER DEPTH STEP
#
#--------------------------------------------------------------------
~WELL INFORMATION
#MNEM .UNIT      DATA                 :DESCRIPTION OF MNEMONIC
#----------      ------------         -------------------------------
STRT  .m         2796.1109            :START DEPTH
STEP  .m         0.2                  :STEP DEPTH
STOP  .m         3026.1109            :STOP DEPTH
NULL  .          -999.25              :NULL VALUE
COMP  .          	              :COMPANY
WELL  .                               :WELL
LOC   .                               :LOCATION - AREA
FLD   .                               :FIELD
CTRY  .                               :COUNTRY
DATE  .                               :WELL DATE
UWI   .          	              :UWI
ZSTK  .          TVDss                :Z-STICK
XWELL .m                              :X POS
YWELL .m                              :Y POS
EDF   .          30.0                 :DERRICK FLOOR ELEVATION
#
#----------------------------------------------------------------------------
~CURVE INFORMATION
#MNEM.UNIT                                  : CURVE DESCRIPTION
#----------                                 -------------------------------
DEPT        .m                              : 1      DEPTH
MD          .m                              : 2      Depth
Depth_TVDkb .m                              : 3      Depth
COTA        .m                              : 4      Depth
GR          .API                            : 5      GR
CALIPER     .m                              : 6      Cal
VP          .km/s                           : 7      Vp
VS          .km/s                           : 8      Vs
RHO         .g/cm3                          : 9      Rho
Porosidade  .fract                          : 10     Por
Argilosidade.fract                          : 11     Volume
Saturacao   .fract                          : 12     Sat
#
#----------------------------------------------------------------------------
~A          MD          Depth_TVDkb COTA        GR          CALIPER     VP          VS          RHO         Porosidade  Argilosidade Saturacao   
2796.1109   2852.2079   2826.1109   -2822.2079  94.8018     0.3661      2.6546      1.1279      2.3595      0.0         0.8676      0.3202      
2796.3109   2852.3868   2826.3109   -2822.3868  94.2538     0.3668      2.6393      1.1047      2.3519      0.0         0.895       0.3184      
2796.5109   2852.5658   2826.5109   -2822.5658  97.6092     0.3668      2.6262      1.0943      2.3503      0.0         0.8828      0.3217      
2796.7109   2852.7449   2826.7109   -2822.7449  97.5848     0.3669      2.619       1.091       2.3477      0.0         0.8597      0.3284      
2796.9109   2852.9239   2826.9109   -2822.9239  97.9386     0.3675      2.623       1.0899      2.345       3.0E-4      0.8185      0.3422      
2797.1109   2853.1029   2827.1109   -2823.1029  96.6084     0.3682      2.6435      1.0883      2.3437      0.0011      0.7865      0.3536      
2797.3109   2853.2821   2827.3109   -2823.2821  92.1373     0.3688      2.6657      1.0857      2.3427      0.004       0.78        0.3564      
2797.5109   2853.4612   2827.5109   -2823.4612  93.332      0.3692      2.6695      1.0851      2.3394      0.0063      0.7775      0.3575      
2797.7109   2853.6404   2827.7109   -2823.6404  95.5595     0.3693      2.6652      1.0863      2.3328      0.0032      0.8083      0.3409      
2797.9109   2853.8196   2827.9109   -2823.8196  99.8103     0.3693      2.6622      1.0894      2.3315      0.0         0.848       0.3204      
2798.1109   2853.9989   2828.1109   -2823.9989  100.1706    0.3693      2.6633      1.0924      2.3347      0.0         0.8644      0.3136      
2798.3109   2854.1782   2828.3109   -2824.1782  96.4708     0.3693      2.6639      1.0934      2.3401      0.0         0.8721      0.3105      
2798.5109   2854.3575   2828.5109   -2824.3575  96.0581     0.3695      2.6612      1.0929      2.3448      0.0         0.8647      0.3161      
2798.7109   2854.5368   2828.7109   -2824.5368  97.7926     0.3698      2.6455      1.0919      2.3456      0.0         0.8508      0.3223      
2798.9109   2854.7162   2828.9109   -2824.7162  97.4834     0.3698      2.6129      1.0916      2.3431      0.0         0.8339      0.3214      
2799.1109   2854.8957   2829.1109   -2824.8957  96.8469     0.3699      2.6051      1.092       2.3431      0.0         0.8219      0.3186      
2799.3109   2855.0751   2829.3109   -2825.0751  99.9752     0.3705      2.6136      1.0958      2.3505      0.0         0.8891      0.2908      
2799.5109   2855.2546   2829.5109   -2825.2546  97.9714     0.3711      2.6325      1.1092      2.3584      0.0         0.9696      0.26        
2799.7109   2855.4342   2829.7109   -2825.4342  97.0736     0.3711      2.6444      1.132       2.3631      0.0015      0.8527      0.2851      
2799.9109   2855.6138   2829.9109   -2825.6138  96.2813     0.3713      2.6546      1.1597      2.3701      0.0054      0.6943      0.3348      
2800.1109   2855.7933   2830.1109   -2825.7933  94.1907     0.3724      2.7024      1.1868      2.3698      0.02        0.6705      0.3869      
2800.3109   2855.9729   2830.3109   -2825.9729  93.1249     0.3736      2.7831      1.2027      2.3529      0.0354      0.6608      0.4246      
2800.5109   2856.1527   2830.5109   -2826.1527  96.1705     0.3741      2.7757      1.1934      2.3308      0.022       0.7197      0.3979      
2800.7109   2856.3324   2830.7109   -2826.3324  97.8249     0.3745      2.6541      1.1463      2.3225      0.0027      0.835       0.3478      
2800.9109   2856.5121   2830.9109   -2826.5121  100.5506    0.3754      2.5388      1.0898      2.3227      7.0E-4      0.9319      0.3133      
2801.1109   2856.6918   2831.1109   -2826.6918  96.8401     0.3759      2.5218      1.0544      2.3351      0.0         0.9988      0.2914      
2801.3109   2856.8717   2831.3109   -2826.8717  99.3615     0.3763      2.5375      1.0364      2.3592      0.0         0.9622      0.3043      
2801.5109   2857.0516   2831.5109   -2827.0516  99.4939     0.376       2.5814      1.0241      2.361       0.0         0.9068      0.3237      
2801.7109   2857.2314   2831.7109   -2827.2314  99.8446     0.3716      2.5961      1.0178      2.3442      0.0         0.9176      0.3219      
2801.9109   2857.4113   2831.9109   -2827.4113  99.4166     0.3669      2.5853      1.0161      2.3318      0.0         0.936       0.3185      
2802.1109   2857.5913   2832.1109   -2827.5913  99.3866     0.369       2.5782      1.0181      2.317       0.0079      0.8915      0.3267      
2802.3109   2857.7713   2832.3109   -2827.7713  101.7327    0.3731      2.6009      1.0301      2.3012      0.0205      0.8204      0.34        
2802.5109   2857.9513   2832.5109   -2827.9513  103.3724    0.3718      2.6662      1.0509      2.308       0.0132      0.8664      0.3236      
2802.7109   2858.1313   2832.7109   -2828.1313  104.5854    0.3677      2.6959      1.0695      2.3288      5.0E-4      0.946       0.296       
2802.9109   2858.3114   2832.9109   -2828.3114  103.3079    0.3672      2.6896      1.0804      2.33        0.0021      0.9052      0.3107      
2803.1109   2858.4916   2833.1109   -2828.4916  101.3634    0.368       2.6689      1.0869      2.3206      0.0057      0.8302      0.3384      
2803.3109   2858.6718   2833.3109   -2828.6718  104.6142    0.3687      2.66        1.0879      2.3165      0.0038      0.8436      0.3411      
2803.5109   2858.8519   2833.5109   -2828.8519  106.6667    0.3698      2.653       1.0788      2.3157      2.0E-4      0.8785      0.3418      
2803.7109   2859.0322   2833.7109   -2829.0322  105.9036    0.3704      2.6328      1.0485      2.314       4.0E-4      0.8933      0.3382      
2803.9109   2859.2125   2833.9109   -2829.2125  102.5484    0.3709      2.602       1.0116      2.3047      0.0018      0.9015      0.3315      
2804.1109   2859.3927   2834.1109   -2829.3927  101.0794    0.3715      2.5877      0.9905      2.2886      0.0081      0.8818      0.3377      
2804.3109   2859.573    2834.3109   -2829.573   99.4237     0.3717      2.5876      0.9899      2.2868      0.0222      0.8284      0.3554      
2804.5109   2859.7535   2834.5109   -2829.7535  100.582     0.3715      2.596       1.0035      2.2875      0.0385      0.7765      0.374       
2804.7109   2859.9339   2834.7109   -2829.9339  103.3921    0.3712      2.6037      1.0261      2.2829      0.0537      0.7322      0.3904      
2804.9109   2860.1143   2834.9109   -2830.1143  101.1464    0.371       2.6047      1.0429      2.2902      0.0376      0.7661      0.3723      
2805.1109   2860.2948   2835.1109   -2830.2948  96.1373     0.3707      2.6083      1.0492      2.3209      0.0026      0.8413      0.333       
2805.3109   2860.4753   2835.3109   -2830.4753  97.9001     0.3702      2.619       1.0536      2.3304      0.0089      0.8086      0.3445      
2805.5109   2860.6559   2835.5109   -2830.6559  97.2946     0.3697      2.6235      1.0605      2.3262      0.0289      0.7267      0.3753      
2805.7109   2860.8365   2835.7109   -2830.8365  97.2778     0.3691      2.625       1.069       2.3157      0.0333      0.7248      0.3682      
2805.9109   2861.0171   2835.9109   -2831.0171  97.1136     0.369       2.6349      1.0767      2.3052      0.0348      0.7428      0.3419      
2806.1109   2861.1977   2836.1109   -2831.1977  96.6836     0.3705      2.6582      1.081       2.3039      0.0279      0.7902      0.324       
2806.3109   2861.3784   2836.3109   -2831.3784  95.8623     0.3733      2.6625      1.0816      2.3027      0.0114      0.8671      0.3112      
2806.5109   2861.5592   2836.5109   -2831.5592  97.9968     0.3754      2.6514      1.079       2.2901      0.0092      0.8901      0.3109      
2806.7109   2861.7399   2836.7109   -2831.7399  95.0372     0.3766      2.6256      1.067       2.2852      0.0088      0.9         0.3138      
2806.9109   2861.9207   2836.9109   -2831.9207  96.5646     0.3773      2.5941      1.0478      2.2857      0.0139      0.8758      0.3323      
2807.1109   2862.1015   2837.1109   -2832.1015  102.5557    0.3772      2.575       1.0313      2.2867      0.0263      0.8144      0.37        
