#----------------------------------------------------------------------------
~VERSION INFORMATION
VERS.            2.0                  :CWLS LOG ASCII STANDARD -VERSION 2.0
WRAP.            NO                   :ONE LINE PER DEPTH STEP
#
#--------------------------------------------------------------------
~WELL INFORMATION
#MNEM .UNIT      DATA                 :DESCRIPTION OF MNEMONIC
#----------      ------------         -------------------------------
STRT  .m         3166.1892            :START DEPTH
STEP  .m         0.2                  :STEP DEPTH
STOP  .m         3426.1892            :STOP DEPTH
NULL  .          -999.25              :NULL VALUE
COMP  .                               :COMPANY
WELL  .                               :WELL
LOC   .                               :LOCATION - AREA
FLD   .          	              :FIELD
CTRY  .                               :COUNTRY
DATE  .                               :WELL DATE
UWI   .            	              :UWI
ZSTK  .          TVDss                :Z-STICK
XWELL .m         	              :X POS
YWELL .m         	              :Y POS
EDF   .          14.0                 :DERRICK FLOOR ELEVATION
#
#----------------------------------------------------------------------------
~CURVE INFORMATION
#MNEM.UNIT                                              : CURVE DESCRIPTION
#----------                                             -------------------------------
DEPT                    .m                              : 1      DEPTH
MD                      .m                              : 2      Depth
GR                      .API                            : 3      GR
CALIPER                 .m                              : 4      Cal
VP                      .km/s                           : 5      Vp
Vs_calculado_de_VPVS    .km/s                           : 6      Vs
RHO                     .g/cm3                          : 7      Rho
Porosidade              .fract                          : 8      Por
Argilosidade            .fract                          : 9      Volume
Saturacao               .fract                          : 10     Sat
#
#----------------------------------------------------------------------------
~A                      MD                      GR                      CALIPER                 VP                      Vs_calculado_de_VPVS    RHO                     Porosidade              Argilosidade            Saturacao               
# ...
3370.1892               3384.1892               80.6322                 0.3182                  2.774                   1.1384                  2.1813                  0.2505                  0.1449                  0.215                   
3370.3892               3384.3892               78.9198                 0.317                   2.762                   1.139                   2.1811                  0.2641                  0.1139                  0.2178                  
3370.5892               3384.5892               75.8448                 0.3187                  2.7528                  1.1406                  2.1797                  0.2804                  0.0781                  0.2205                  
3370.7892               3384.7892               75.5767                 0.3183                  2.7488                  1.1414                  2.1784                  0.2743                  0.1004                  0.223                   
3370.9892               3384.9892               76.2298                 0.3141                  2.7508                  1.1401                  2.1779                  0.2668                  0.1272                  0.2255                  
3371.1892               3385.1892               78.3025                 0.3101                  2.7581                  1.1366                  2.1782                  0.2566                  0.1642                  0.2305                  
3371.3892               3385.3892               81.561                  0.311                   2.7694                  1.134                   2.1791                  0.243                   0.2134                  0.2386                  
3371.5892               3385.5892               85.917                  0.3135                  2.783                   1.1356                  2.1796                  0.2278                  0.2683                  0.2478                  
3371.7892               3385.7892               84.8238                 0.3155                  2.7975                  1.1399                  2.1791                  0.2417                  0.2305                  0.2472                  
3371.9892               3385.9892               83.6924                 0.3172                  2.8115                  1.1427                  2.1774                  0.2592                  0.1825                  0.2463                  
3372.1892               3386.1892               83.8423                 0.3164                  2.8237                  1.1412                  2.1746                  0.2653                  0.165                   0.2476                  
3372.3892               3386.3892               89.3479                 0.314                   2.8323                  1.1373                  2.1715                  0.2596                  0.1788                  0.2515                  
3372.5892               3386.5892               90.0628                 0.313                   2.8356                  1.1354                  2.1687                  0.2523                  0.1967                  0.256                   
3372.7892               3386.7892               88.6067                 0.3131                  2.8326                  1.1369                  2.1661                  0.2594                  0.181                   0.2467                  
3372.9892               3386.9892               84.4161                 0.314                   2.8239                  1.1425                  2.1636                  0.2682                  0.1624                  0.2355                  
3373.1892               3387.1892               82.6018                 0.3173                  2.8114                  1.1486                  2.1614                  0.2738                  0.1427                  0.2294                  
3373.3892               3387.3892               83.9799                 0.3201                  2.7984                  1.1501                  2.1601                  0.2754                  0.1217                  0.229                   
3373.5892               3387.5892               83.9011                 0.3185                  2.7884                  1.1446                  2.1601                  0.2772                  0.0987                  0.2288                  
3373.7892               3387.7892               81.7844                 0.3148                  2.7842                  1.135                   2.162                   0.2767                  0.1001                  0.2283                  
3373.9892               3387.9892               76.9532                 0.3149                  2.7877                  1.1265                  2.166                   0.2761                  0.1023                  0.2276                  
3374.1892               3388.1892               73.4338                 0.3157                  2.7993                  1.1222                  2.1718                  0.2682                  0.1224                  0.2316                  
3374.3892               3388.3892               72.4219                 0.3145                  2.8176                  1.1215                  2.1791                  0.2508                  0.1653                  0.2412                  
3374.5892               3388.5892               72.123                  0.3146                  2.8405                  1.1221                  2.1871                  0.231                   0.2141                  0.2522                  
3374.7892               3388.7892               71.9766                 0.3146                  2.8643                  1.1225                  2.1944                  0.2322                  0.2053                  0.2529                  
3374.9892               3388.9892               71.8615                 0.3151                  2.8847                  1.1264                  2.1999                  0.2345                  0.1926                  0.2532                  
3375.1892               3389.1892               72.0319                 0.3165                  2.8977                  1.1356                  2.203                   0.2333                  0.2003                  0.2512                  
3375.3892               3389.3892               73.0846                 0.3142                  2.9006                  1.1464                  2.2034                  0.2284                  0.2288                  0.2461                  
3375.5892               3389.5892               76.3506                 0.3113                  2.8929                  1.153                   2.2012                  0.2228                  0.2625                  0.2407                  
3375.7892               3389.7892               81.1834                 0.3132                  2.877                   1.1553                  2.1966                  0.2345                  0.2323                  0.2369                  
3375.9892               3389.9892               81.2669                 0.3152                  2.8573                  1.1521                  2.1905                  0.2482                  0.1962                  0.2332                  
3376.1892               3390.1892               80.4475                 0.3146                  2.8388                  1.1437                  2.1841                  0.2604                  0.1616                  0.2292                  
3376.3892               3390.3892               79.4938                 0.3138                  2.8255                  1.134                   2.1786                  0.2711                  0.1283                  0.2246                  
3376.5892               3390.5892               80.6791                 0.314                   2.8192                  1.1264                  2.1751                  0.2826                  0.0921                  0.2196                  
3376.7892               3390.7892               82.9463                 0.3142                  2.8191                  1.1213                  2.1739                  0.2736                  0.1168                  0.2228                  
