#----------------------------------------------------------------------------
~VERSION INFORMATION
VERS.            2.0                  :CWLS LOG ASCII STANDARD -VERSION 2.0
WRAP.            NO                   :ONE LINE PER DEPTH STEP
#
#--------------------------------------------------------------------
~WELL INFORMATION
#MNEM .UNIT      DATA                 :DESCRIPTION OF MNEMONIC
#----------      ------------         -------------------------------
STRT  .m         2775.191             :START DEPTH
STEP  .m         0.2                  :STEP DEPTH
STOP  .m         3093.191             :STOP DEPTH
NULL  .          -999.25              :NULL VALUE
COMP  .                               :COMPANY
WELL  .                               :WELL
LOC   .                               :LOCATION - AREA
FLD   .                               :FIELD
CTRY  .                               :COUNTRY
DATE  .                               :WELL DATE
UWI   .                               :UWI
ZSTK  .          TVDss                :Z-STICK
XWELL .m         	              :X POS
YWELL .m         	              :Y POS
EDF   .          24.0                 :DERRICK FLOOR ELEVATION
#
#----------------------------------------------------------------------------
~CURVE INFORMATION
#MNEM.UNIT                                  : CURVE DESCRIPTION
#----------                                 -------------------------------
DEPT        .m                              : 1      DEPTH
COTA        .m                              : 2      Depth
Depth_TVDkb .m                              : 3      Depth
TVD         .m                              : 4      Depth
GR          .API                            : 5      GR
CALIPER     .m                              : 6      Cal
VP          .km/s                           : 7      Vp
VS          .km/s                           : 8      Vs
RHO         .g/cm3                          : 9      Rho
Porosidade  .fract                          : 10     Por
Argilosidade.fract                          : 11     Volume
Saturacao   .fract                          : 12     Sat
#
#----------------------------------------------------------------------------
~A          COTA        Depth_TVDkb TVD         GR          CALIPER     VP          VS          RHO         Porosidade  Argilosidade Saturacao   
# ...
2931.991    -2931.8456  2955.991    2955.8456   89.8215     0.3239      2.6599      1.1373      2.3494      0.001       0.8483      0.4519      
2932.191    -2932.0448  2956.191    2956.0448   86.497      0.3263      2.7204      1.1433      2.3711      0.0239      0.7532      0.3822      
2932.391    -2932.244   2956.391    2956.244    85.2191     0.3236      2.7565      1.1417      2.2741      0.2006      0.3253      0.3322      
2932.591    -2932.4433  2956.591    2956.4433   87.0374     0.3185      2.7524      1.1308      2.1698      0.2901      0.1105      0.293       
2932.791    -2932.6425  2956.791    2956.6425   88.7669     0.3178      2.6582      1.0994      2.1284      0.2751      0.1983      0.278       
2932.991    -2932.8418  2956.991    2956.8418   87.5758     0.3185      2.568       1.08        2.1086      0.2612      0.2795      0.2619      
2933.191    -2933.0411  2957.191    2957.0411   87.3424     0.318       2.5218      1.0754      2.0966      0.2532      0.3203      0.2447      
2933.391    -2933.2403  2957.391    2957.2403   81.9845     0.3181      2.4868      1.0715      2.1056      0.2566      0.2544      0.2226      
2933.591    -2933.4396  2957.591    2957.4396   74.6435     0.3182      2.4672      1.069       2.1292      0.2604      0.2007      0.2099      
2933.791    -2933.6388  2957.791    2957.6388   72.5416     0.3181      2.4789      1.0829      2.1455      0.2679      0.158       0.2157      
2933.991    -2933.8381  2957.991    2957.8381   73.3865     0.3182      2.525       1.1099      2.1552      0.2748      0.114       0.2209      
2934.191    -2934.0374  2958.191    2958.0374   74.5106     0.318       2.5577      1.1359      2.1615      0.2825      0.0731      0.2256      
2934.391    -2934.2366  2958.391    2958.2366   77.3684     0.3181      2.5681      1.1523      2.164       0.2938      0.0397      0.2293      
2934.591    -2934.4359  2958.591    2958.4359   79.0738     0.318       2.5844      1.1679      2.1602      0.2978      0.0259      0.2386      
2934.791    -2934.6352  2958.791    2958.6352   79.9716     0.3178      2.5952      1.1752      2.1583      0.2706      0.1018      0.286       
2934.991    -2934.8345  2958.991    2958.8345   81.7614     0.3183      2.6357      1.1834      2.1685      0.2455      0.1715      0.3284      
2935.191    -2935.0338  2959.191    2959.0338   80.5071     0.3176      2.646       1.1771      2.185       0.2331      0.2125      0.3697      
2935.391    -2935.233   2959.391    2959.233    90.6533     0.3177      2.5996      1.1381      2.1869      0.2769      0.1605      0.4087      
2935.591    -2935.4323  2959.591    2959.4323   94.5233     0.3213      2.503       1.078       2.1441      0.2997      0.1413      0.435       
2935.791    -2935.6316  2959.791    2959.6316   90.6493     0.3271      2.3843      1.0047      2.0991      0.2688      0.2615      0.4339      
2935.991    -2935.8309  2959.991    2959.8309   92.9966     0.3386      2.3499      0.963       2.0765      0.2416      0.3707      0.4329      
2936.191    -2936.0302  2960.191    2960.0302   95.3327     0.3494      2.3955      0.9554      2.066       0.2157      0.4511      0.4253      
2936.391    -2936.2294  2960.391    2960.2294   88.8438     0.3407      2.5289      0.9934      2.0978      0.1938      0.4618      0.3499      
2936.591    -2936.4287  2960.591    2960.4287   86.3416     0.3225      2.6678      1.0572      2.1493      0.1798      0.4631      0.2958      
2936.791    -2936.628   2960.791    2960.628    81.7253     0.3172      2.758       1.1277      2.1608      0.1972      0.3775      0.2789      
2936.991    -2936.8273  2960.991    2960.8273   78.0955     0.3185      2.7983      1.1954      2.1591      0.2133      0.2992      0.2597      
2937.191    -2937.0266  2961.191    2961.0266   74.6621     0.3174      2.7989      1.2374      2.1696      0.2223      0.2476      0.2474      
2937.391    -2937.226   2961.391    2961.226    73.5541     0.3172      2.7736      1.2535      2.1891      0.1915      0.3019      0.2622      
2937.591    -2937.4253  2961.591    2961.4253   74.9511     0.3174      2.7677      1.2586      2.2169      0.1719      0.3371      0.2776      
2937.791    -2937.6246  2961.791    2961.6246   76.3081     0.3169      2.746       1.2488      2.2289      0.1734      0.3382      0.3094      
2937.991    -2937.8239  2961.991    2961.8239   79.2052     0.3171      2.7014      1.2317      2.22        0.1747      0.3393      0.3394      
2938.191    -2938.0233  2962.191    2962.0233   80.0009     0.3172      2.6375      1.2072      2.2151      0.1739      0.3486      0.3714      
2938.391    -2938.2226  2962.391    2962.2226   81.1502     0.3169      2.5963      1.1867      2.2226      0.1474      0.4686      0.4162      
2938.591    -2938.4219  2962.591    2962.4219   84.4852     0.317       2.572       1.1597      2.2256      0.129       0.5572      0.4534      
2938.791    -2938.6213  2962.791    2962.6213   88.32       0.3167      2.5696      1.1361      2.1994      0.1271      0.5792      0.4652      
2938.991    -2938.8206  2962.991    2962.8206   93.0625     0.3164      2.5507      1.1033      2.1679      0.1249      0.6038      0.4782      
2939.191    -2939.02    2963.191    2963.02     98.1461     0.3163      2.5295      1.074       2.1656      0.1242      0.6202      0.485       
2939.391    -2939.2193  2963.391    2963.2193   102.9134    0.3163      2.5217      1.0564      2.187       0.1422      0.5781      0.4301      
2939.591    -2939.4187  2963.591    2963.4187   103.9893    0.3164      2.5186      1.0462      2.192       0.1593      0.5357      0.3857      
2939.791    -2939.618   2963.791    2963.618    102.5082    0.3165      2.5091      1.0385      2.1585      0.1851      0.4533      0.3631      
2939.991    -2939.8174  2963.991    2963.8174   83.2658     0.3164      2.4929      1.0347      2.1185      0.21        0.3743      0.3397      
2940.191    -2940.0168  2964.191    2964.0168   83.6602     0.3164      2.4968      1.0428      2.1167      0.2362      0.2949      0.3128      
2940.391    -2940.2161  2964.391    2964.2161   86.2647     0.3163      2.4798      1.0415      2.1472      0.2709      0.2122      0.2508      
2940.591    -2940.4155  2964.591    2964.4155   89.535      0.3159      2.4622      1.0374      2.1442      0.3036      0.1349      0.1967      
2940.791    -2940.6148  2964.791    2964.6148   89.9011     0.3157      2.4294      1.0247      2.1008      0.3282      0.0884      0.1694      
2940.991    -2940.8142  2964.991    2964.8142   85.186      0.3157      2.39        1.0121      2.0771      0.3535      0.0394      0.1403      
2941.191    -2941.0136  2965.191    2965.0136   75.4057     0.3155      2.3647      1.0078      2.0569      0.3747      0.0         0.1167      
2941.391    -2941.213   2965.391    2965.213    73.528      0.3152      2.3702      1.0203      2.0268      0.3768      0.0         0.1159      
2941.591    -2941.4123  2965.591    2965.4123   75.3892     0.3152      2.3931      1.0352      2.016       0.3785      0.0         0.1147      
2941.791    -2941.6117  2965.791    2965.6117   76.5573     0.3153      2.4317      1.0558      2.025       0.3745      0.0         0.1109      
2941.991    -2941.8112  2965.991    2965.8112   75.3484     0.3156      2.463       1.0748      2.0339      0.3708      0.0         0.1072      
2942.191    -2942.0106  2966.191    2966.0106   75.5846     0.3157      2.4575      1.0816      2.04        0.3674      0.0         0.1036      
2942.391    -2942.21    2966.391    2966.21     75.6767     0.3154      2.4507      1.0938      2.0497      0.3659      0.0         0.1006      
2942.591    -2942.4094  2966.591    2966.4094   72.7497     0.3151      2.4613      1.1158      2.0536      0.3639      0.0         0.0982      
2942.791    -2942.6088  2966.791    2966.6088   72.2187     0.3152      2.487       1.147       2.0533      0.3532      0.0         0.1006      
2942.991    -2942.8082  2966.991    2966.8082   70.6279     0.3152      2.5126      1.1833      2.0621      0.3433      0.0         0.1027      
