#----------------------------------------------------------------------------
~VERSION INFORMATION
VERS.            2.0                  :CWLS LOG ASCII STANDARD -VERSION 2.0
WRAP.            NO                   :ONE LINE PER DEPTH STEP
#
#--------------------------------------------------------------------
~WELL INFORMATION
#MNEM .UNIT      DATA                 :DESCRIPTION OF MNEMONIC
#----------      ------------         -------------------------------
STRT  .m         3166.0               :START DEPTH
STEP  .m         0.2                  :STEP DEPTH
STOP  .m         3406.0               :STOP DEPTH
NULL  .          -999.25              :NULL VALUE
COMP  .          	              :COMPANY
WELL  .                               :WELL
LOC   .                               :LOCATION - AREA
FLD   .                               :FIELD
CTRY  .                               :COUNTRY
DATE  .                               :WELL DATE
UWI   .          	              :UWI
ZSTK  .          TVDss                :Z-STICK
XWELL .m         		      :X POS
YWELL .m         	              :Y POS
EDF   .          24.0                 :DERRICK FLOOR ELEVATION
#
#----------------------------------------------------------------------------
~CURVE INFORMATION
#MNEM.UNIT                                  : CURVE DESCRIPTION
#----------                                 -------------------------------
DEPT        .m                              : 1      DEPTH
MD          .m                              : 2      Depth
GR          .API                            : 3      GR
CALIPER     .m                              : 4      Cal
VP          .km/s                           : 5      Vp
VS          .km/s                           : 6      Vs
RHO         .g/cm3                          : 7      Rho
Porosidade  .fract                          : 8      Por
Argilosidade.fract                          : 9      Volume
Saturacao   .fract                          : 10     Sat
#
#----------------------------------------------------------------------------
~A          MD          GR          CALIPER     VP          VS          RHO         Porosidade  Argilosidade Saturacao   
# ...
3259.8      3283.8      107.6835    0.3353      2.6701      1.1067      2.2646      0.0044      0.987       0.8876      
3260.0      3284.0      109.8472    0.3349      2.7044      1.0941      2.3084      9.0E-4      0.9996      0.9627      
3260.2      3284.2      115.2335    0.3353      2.7281      1.0831      2.3034      8.0E-4      0.9934      0.9632      
3260.4      3284.4      118.3111    0.3328      2.7403      1.0745      2.2785      0.0076      0.958       0.9934      
3260.6      3284.6      117.1569    0.3297      2.7417      1.068       2.2801      0.0015      0.9907      0.995       
3260.8      3284.8      116.0153    0.3288      2.7347      1.0629      2.2873      0.0         1.0         0.9992      
3261.0      3285.0      118.5969    0.33        2.7206      1.0591      2.2821      2.0E-4      0.9988      0.9996      
3261.2      3285.2      121.6574    0.3321      2.7018      1.0576      2.2773      0.0         1.0         1.0         
3261.4      3285.4      121.2481    0.3321      2.6801      1.0596      2.2773      2.0E-4      0.9995      0.9991      
3261.6      3285.6      122.4338    0.3302      2.6577      1.0664      2.2789      0.0         1.0         1.0         
3261.8      3285.8      126.7446    0.3296      2.6387      1.0773      2.2758      2.0E-4      1.0         0.9985      
3262.0      3286.0      128.7987    0.3295      2.6264      1.0898      2.2603      0.0         0.9995      1.0         
3262.2      3286.2      129.2267    0.3265      2.6208      1.1016      2.2516      3.0E-4      1.0         0.983       
3262.4      3286.4      127.6629    0.3211      2.6188      1.1104      2.2632      0.0043      0.9829      0.9452      
3262.6      3286.6      118.8512    0.3176      2.617       1.1146      2.2613      0.0595      0.8043      0.8963      
3262.8      3286.8      111.457     0.3161      2.6128      1.1148      2.2291      0.0647      0.8277      0.7619      
3263.0      3287.0      112.6398    0.3157      2.6058      1.1119      2.2035      0.0538      0.8685      0.6505      
3263.2      3287.2      114.6569    0.3159      2.5979      1.1078      2.1974      0.1205      0.6896      0.5646      
3263.4      3287.4      113.473     0.316       2.591       1.1042      2.1878      0.1656      0.5518      0.4947      
3263.6      3287.6      108.0451    0.316       2.5867      1.1026      2.1723      0.2247      0.3253      0.4312      
3263.8      3287.8      100.3388    0.3158      2.5861      1.1038      2.162       0.2497      0.2498      0.3895      
3264.0      3288.0      98.2424     0.3158      2.5885      1.1098      2.1565      0.2761      0.1523      0.3562      
3264.2      3288.2      101.3233    0.3157      2.5929      1.1218      2.1535      0.3007      0.0621      0.3308      
3264.4      3288.4      102.926     0.3157      2.5993      1.1393      2.1537      0.2605      0.2291      0.3405      
3264.6      3288.6      105.0288    0.3158      2.6094      1.1602      2.1597      0.2036      0.4685      0.3531      
3264.8      3288.8      107.5336    0.3158      2.6257      1.1815      2.171       0.2072      0.4148      0.3527      
3265.0      3289.0      104.1917    0.3159      2.6491      1.2         2.1752      0.2853      0.0558      0.3293      
3265.2      3289.2      97.0608     0.3159      2.6789      1.2134      2.1686      0.2981      0.0116      0.3266      
3265.4      3289.4      92.5103     0.3158      2.7119      1.2215      2.1724      0.2694      0.1322      0.3443      
3265.6      3289.6      91.0151     0.3158      2.741       1.2256      2.2001      0.2493      0.1443      0.3816      
3265.8      3289.8      94.2568     0.3158      2.7572      1.2275      2.2336      0.2054      0.2284      0.4489      
3266.0      3290.0      97.2583     0.3158      2.7573      1.2282      2.2457      0.1601      0.3906      0.5126      
3266.2      3290.2      98.5929     0.3158      2.7403      1.2279      2.2275      0.1472      0.5149      0.5255      
3266.4      3290.4      101.9834    0.3158      2.7144      1.2262      2.1926      0.0875      0.7694      0.5584      
3266.6      3290.6      106.5628    0.3158      2.6896      1.2225      2.1724      0.0852      0.7844      0.5827      
3266.8      3290.8      110.8554    0.3158      2.6729      1.2174      2.1755      0.1988      0.418       0.5277      
3267.0      3291.0      110.154     0.3158      2.6658      1.2119      2.1739      0.2333      0.2969      0.5146      
3267.2      3291.2      101.4497    0.3159      2.6657      1.207       2.1535      0.2379      0.322       0.5013      
3267.4      3291.4      93.4504     0.316       2.67        1.2029      2.1391      0.2661      0.2388      0.449       
3267.6      3291.6      94.4435     0.3159      2.6765      1.1987      2.1438      0.2683      0.215       0.4283      
3267.8      3291.8      97.7231     0.3159      2.684       1.1935      2.1513      0.2546      0.2554      0.431       
3268.0      3292.0      97.1425     0.3159      2.6905      1.1875      2.1553      0.2518      0.2555      0.4332      
3268.2      3292.2      95.7593     0.3159      2.6919      1.1817      2.1595      0.2467      0.2639      0.4437      
3268.4      3292.4      96.7966     0.3159      2.6855      1.1758      2.1616      0.2782      0.1231      0.4294      
3268.6      3292.6      99.3714     0.3159      2.6677      1.1684      2.1633      0.258       0.2072      0.4545      
3268.8      3292.8      101.4598    0.3158      2.6415      1.1577      2.1657      0.2254      0.3567      0.49        
3269.0      3293.0      105.6618    0.3158      2.6133      1.1442      2.1602      0.1984      0.4623      0.5394      
3269.2      3293.2      106.9719    0.3159      2.5883      1.1295      2.1426      0.1159      0.7062      0.6585      
3269.4      3293.4      101.3251    0.316       2.569       1.1152      2.1258      0.162       0.5938      0.5843      
3269.6      3293.6      97.001      0.316       2.5553      1.1022      2.1222      0.2682      0.2581      0.423       
3269.8      3293.8      97.6558     0.3159      2.5445      1.0908      2.1272      0.2853      0.186       0.3653      
3270.0      3294.0      97.8791     0.3159      2.5336      1.0813      2.1331      0.3064      0.0832      0.3325      
3270.2      3294.2      93.5908     0.316       2.5214      1.0753      2.1384      0.3105      0.0628      0.3226      
3270.4      3294.4      89.6514     0.3159      2.5084      1.0738      2.1387      0.227       0.4118      0.3474      
3270.6      3294.6      92.1878     0.3159      2.4963      1.0772      2.1387      0.1897      0.5341      0.3709      
3270.8      3294.8      100.9648    0.3158      2.4874      1.0867      2.1538      0.1372      0.6521      0.4292      
3271.0      3295.0      110.2537    0.3158      2.4843      1.1008      2.1711      0.0961      0.7628      0.4935      
3271.2      3295.2      113.2283    0.3159      2.4892      1.1167      2.1635      0.1799      0.5372      0.4834      
3271.4      3295.4      108.8447    0.3159      2.5087      1.1298      2.141       0.221       0.4356      0.4511      
3271.6      3295.6      102.5146    0.3158      2.5477      1.1357      2.1322      0.2301      0.3986      0.3953      
3271.8      3295.8      97.5343     0.3157      2.6069      1.134       2.1348      0.2604      0.2724      0.3116      
3272.0      3296.0      90.8215     0.3158      2.6762      1.1234      2.1344      0.2885      0.1549      0.2677      
3272.2      3296.2      85.8711     0.3159      2.7348      1.1076      2.1304      0.309       0.0848      0.258       
3272.4      3296.4      89.1078     0.3159      2.7625      1.0902      2.1286      0.3136      0.061       0.2689      
3272.6      3296.6      94.5127     0.3158      2.755       1.0745      2.1344      0.3133      0.0444      0.2911      
3272.8      3296.8      96.0458     0.3158      2.7138      1.0622      2.146       0.2631      0.2194      0.3346      
3273.0      3297.0      96.2112     0.3158      2.6529      1.0542      2.1499      0.2471      0.281       0.3618      
