#----------------------------------------------------------------------------
~VERSION INFORMATION
VERS.            2.0                  :CWLS LOG ASCII STANDARD -VERSION 2.0
WRAP.            NO                   :ONE LINE PER DEPTH STEP
#
#--------------------------------------------------------------------
~WELL INFORMATION
#MNEM .UNIT      DATA                 :DESCRIPTION OF MNEMONIC
#----------      ------------         -------------------------------
STRT  .m         1761.0               :START DEPTH
STEP  .m         0.2                  :STEP DEPTH
STOP  .m         3172.6718            :STOP DEPTH
NULL  .          -999.25              :NULL VALUE
COMP  .          Petrobras            :COMPANY
WELL  .          RO82                 :WELL
LOC   .                               :LOCATION - AREA
FLD   .                               :FIELD
CTRY  .                               :COUNTRY
DATE  .                               :WELL DATE
UWI   .          742810331400         :UWI
ZSTK  .          TVDss                :Z-STICK
XWELL .m         421843.59            :X POS
YWELL .m         7571342              :Y POS
EDF   .          25.0                 :DERRICK FLOOR ELEVATION
#
#----------------------------------------------------------------------------
~CURVE INFORMATION
#MNEM.UNIT                                  : CURVE DESCRIPTION
#----------                                 -------------------------------
DEPT        .m                              : 1      DEPTH
Depth_TVDkb .m                              : 2      Depth
Depth_MD    .m                              : 3      Depth
GR          .API                            : 4      GR
CALIPER     .m                              : 5      Cal
VP          .km/s                           : 6      Vp
VS          .km/s                           : 7      Vs
RHO         .g/cm3                          : 8      Rho
Porosidade  .fract                          : 9      Por
Argilosidade.fract                          : 10     Volume
Saturacao   .fract                          : 11     Sat
#
#----------------------------------------------------------------------------
~A          Depth_TVDkb Depth_MD    GR          CALIPER     VP          VS          RHO         Porosidade  Argilosidade Saturacao   
# ...
3030.2      3055.2      3055.2      109.2052    0.3205      2.8364      1.128       2.3004      0.0042      0.8254      0.9487      
3030.4      3055.4      3055.4      109.0847    0.3199      2.984       1.168       2.3297      0.0084      0.6832      1.0         
3030.6      3055.6      3055.6      110.1625    0.3213      3.0427      1.2111      2.3224      0.0442      0.6647      0.9674      
3030.8      3055.8      3055.8      112.7912    0.3227      2.9509      1.2474      2.2818      0.08        0.6462      0.9348      
3031.0      3056.0      3056.0      113.3954    0.3241      2.799       1.2676      2.2276      0.1158      0.6277      0.9022      
3031.2      3056.2      3056.2      110.4377    0.3255      2.6786      1.2723      2.1881      0.0667      0.789       0.9059      
3031.4      3056.4      3056.4      107.5484    0.3268      2.5578      1.2641      2.1781      0.0175      0.9504      0.9096      
3031.6      3056.6      3056.6      107.9838    0.3272      2.5038      1.2393      2.1855      0.0425      0.8475      0.9397      
3031.8      3056.8      3056.8      110.6159    0.3275      2.4932      1.1926      2.1917      0.0675      0.7446      0.9699      
3032.0      3057.0      3057.0      111.4297    0.3279      2.5088      1.1304      2.2001      0.0926      0.6416      1.0         
3032.2      3057.2      3057.2      108.5042    0.3281      2.5101      1.076       2.2162      0.0478      0.7602      1.0         
3032.4      3057.4      3057.4      106.5529    0.3284      2.4967      1.0416      2.2341      0.0031      0.8787      1.0         
3032.6      3057.6      3057.6      109.9373    0.3286      2.5013      1.0255      2.2401      0.0021      0.9191      1.0         
3032.8      3057.8      3057.8      116.2858    0.3287      2.4998      1.0228      2.2338      0.001       0.9596      1.0         
3033.0      3058.0      3058.0      120.1748    0.3288      2.488       1.0229      2.2182      0.0         1.0         1.0         
3033.2      3058.2      3058.2      120.3032    0.3285      2.4782      1.0208      2.209       0.0         1.0         1.0         
3033.4      3058.4      3058.4      118.5458    0.3282      2.471       1.01        2.2221      0.0         1.0         1.0         
3033.6      3058.6      3058.6      116.5435    0.328       2.4866      0.9935      2.2371      0.0         1.0         1.0         
3033.8      3058.8      3058.8      114.0971    0.3279      2.4885      0.9782      2.2327      0.0         1.0         1.0         
3034.0      3059.0      3059.0      111.977     0.3277      2.4894      0.974       2.2278      0.0         1.0         1.0         
3034.2      3059.2      3059.2      111.3253    0.3269      2.4868      0.9851      2.2314      0.0287      0.89        0.9744      
3034.4      3059.4      3059.4      110.0382    0.3261      2.4836      1.0063      2.2308      0.0574      0.7801      0.9488      
3034.6      3059.6      3059.6      105.6279    0.326       2.4698      1.03        2.2048      0.1587      0.52        0.7346      
3034.8      3059.8      3059.8      99.4369     0.3258      2.4474      1.0476      2.144       0.2601      0.26        0.5204      
3035.0      3060.0      3060.0      95.2111     0.3257      2.4364      1.055       2.089       0.3615      0.0         0.3061      
3035.2      3060.2      3060.2      94.4684     0.3267      2.4483      1.0552      2.0713      0.3749      0.0         0.2729      
3035.4      3060.4      3060.4      95.0938     0.3276      2.4806      1.061       2.0748      0.3883      0.0         0.2397      
3035.6      3060.6      3060.6      95.442      0.3281      2.5192      1.0823      2.071       0.2905      0.2294      0.2466      
3035.8      3060.8      3060.8      95.7784     0.3285      2.5441      1.118       2.0913      0.1928      0.4588      0.2536      
3036.0      3061.0      3061.0      96.4703     0.3289      2.5621      1.1586      2.1337      0.095       0.6882      0.2605      
3036.2      3061.2      3061.2      97.8326     0.3287      2.5896      1.2001      2.1912      0.0475      0.8441      0.2411      
3036.4      3061.4      3061.4      99.0988     0.3284      2.6177      1.2412      2.2264      0.0         1.0         0.2217      
3036.6      3061.6      3061.6      99.2813     0.3281      2.6186      1.2618      2.2367      0.0         1.0         0.222       
3036.8      3061.8      3061.8      98.9988     0.3277      2.6259      1.2443      2.2458      0.0         1.0         0.2223      
3037.0      3062.0      3062.0      99.0364     0.3273      2.6483      1.1973      2.2545      0.0         1.0         0.2227      
3037.2      3062.2      3062.2      99.3477     0.3278      2.6722      1.1563      2.2546      0.0         1.0         0.2124      
3037.4      3062.4      3062.4      99.9603     0.3284      2.6838      1.1409      2.2347      0.0         1.0         0.2021      
3037.6      3062.6      3062.6      100.9616    0.3289      2.6852      1.146       2.2029      0.0108      0.9298      0.182       
3037.8      3062.8      3062.8      102.4243    0.3294      2.691       1.1653      2.1774      0.0216      0.8595      0.1618      
3038.0      3063.0      3063.0      102.974     0.3299      2.7193      1.1964      2.1837      0.0324      0.7893      0.1416      
3038.2      3063.2      3063.2      101.8613    0.3303      2.7591      1.2337      2.2377      0.0162      0.8946      0.1128      
3038.4      3063.4      3063.4      100.4574    0.3306      2.787       1.268       2.3125      0.0         1.0         0.084       
3038.6      3063.6      3063.6      100.4042    0.3279      2.7799      1.2943      2.3237      0.1078      0.6682      0.1169      
3038.8      3063.8      3063.8      101.0573    0.3253      2.7561      1.3201      2.245       0.2157      0.3365      0.1498      
3039.0      3064.0      3064.0      101.0555    0.3226      2.7427      1.3526      2.1813      0.3235      0.0047      0.1827      
3039.2      3064.2      3064.2      100.0255    0.3214      2.755       1.3933      2.1665      0.3081      0.0023      0.1954      
3039.4      3064.4      3064.4      98.9261     0.3202      2.7802      1.4294      2.1734      0.2928      0.0         0.2081      
3039.6      3064.6      3064.6      98.7696     0.3216      2.795       1.4481      2.1834      0.2941      6.0E-4      0.2062      
3039.8      3064.8      3064.8      99.045      0.3229      2.8217      1.4427      2.1922      0.2954      0.0012      0.2043      
3040.0      3065.0      3065.0      98.9405     0.3243      2.865       1.4359      2.2         0.2968      0.0017      0.2025      
3040.2      3065.2      3065.2      98.2874     0.3273      2.8892      1.443       2.2076      0.2749      0.0626      0.2008      
3040.4      3065.4      3065.4      97.4951     0.3302      2.8814      1.4627      2.2104      0.2529      0.1234      0.1991      
3040.6      3065.6      3065.6      96.7886     0.3294      2.8674      1.4776      2.2167      0.2314      0.1804      0.1981      
3040.8      3065.8      3065.8      96.1267     0.3286      2.8668      1.478       2.2279      0.2099      0.2373      0.1972      
3041.0      3066.0      3066.0      95.5409     0.3278      2.8685      1.461       2.2353      0.1884      0.2942      0.1962      
3041.2      3066.2      3066.2      94.7038     0.3247      2.8659      1.4263      2.234       0.2196      0.2121      0.1992      
3041.4      3066.4      3066.4      94.212      0.3216      2.8695      1.3809      2.2258      0.2507      0.1301      0.2021      
3041.6      3066.6      3066.6      94.7624     0.3218      2.8707      1.3338      2.2169      0.274       0.0917      0.1989      
3041.8      3066.8      3066.8      95.3394     0.322       2.8606      1.2934      2.2069      0.2973      0.0533      0.1956      
3042.0      3067.0      3067.0      96.4424     0.3222      2.8682      1.2594      2.1906      0.3206      0.0149      0.1924      
3042.2      3067.2      3067.2      99.6698     0.3265      2.8918      1.2287      2.1661      0.3208      0.0075      0.2016      
