#----------------------------------------------------------------------------
~VERSION INFORMATION
VERS.            2.0                  :CWLS LOG ASCII STANDARD -VERSION 2.0
WRAP.            NO                   :ONE LINE PER DEPTH STEP
#
#--------------------------------------------------------------------
~WELL INFORMATION
#MNEM .UNIT      DATA                 :DESCRIPTION OF MNEMONIC
#----------      ------------         -------------------------------
STRT  .m         3166.0               :START DEPTH
STEP  .m         0.2                  :STEP DEPTH
STOP  .m         3406.0               :STOP DEPTH
NULL  .          -999.25              :NULL VALUE
COMP  .          	              :COMPANY
WELL  .                               :WELL
LOC   .                               :LOCATION - AREA
FLD   .                               :FIELD
CTRY  .                               :COUNTRY
DATE  .                               :WELL DATE
UWI   .          	              :UWI
ZSTK  .          TVDss                :Z-STICK
XWELL .m         		      :X POS
YWELL .m         	              :Y POS
EDF   .          24.0                 :DERRICK FLOOR ELEVATION
#
#----------------------------------------------------------------------------
~CURVE INFORMATION
#MNEM.UNIT                                  : CURVE DESCRIPTION
#----------                                 -------------------------------
DEPT        .m                              : 1      DEPTH
MD          .m                              : 2      Depth
GR          .API                            : 3      GR
CALIPER     .m                              : 4      Cal
VP          .km/s                           : 5      Vp
VS          .km/s                           : 6      Vs
RHO         .g/cm3                          : 7      Rho
Porosidade  .fract                          : 8      Por
Argilosidade.fract                          : 9      Volume
Saturacao   .fract                          : 10     Sat
#
#----------------------------------------------------------------------------
~A          MD          GR          CALIPER     VP          VS          RHO         Porosidade  Argilosidade Saturacao   
# ...
3246.4      3270.4      105.5815    0.3282      2.7694      1.0889      2.3722      0.0         1.0         0.9877      
3246.6      3270.6      102.563     0.3293      2.775       1.0881      2.3804      0.0012      0.9956      0.9638      
3246.8      3270.8      103.0292    0.3295      2.7636      1.0829      2.3723      0.0         1.0         0.9493      
3247.0      3271.0      104.5487    0.33        2.7352      1.075       2.3441      0.0018      0.9939      0.9538      
3247.2      3271.2      104.1067    0.3335      2.6979      1.0671      2.2948      0.0         1.0         0.9915      
3247.4      3271.4      105.7507    0.3339      2.6615      1.0621      2.2494      0.0426      0.89        0.9979      
3247.6      3271.6      109.7259    0.3321      2.6337      1.0617      2.2434      0.0559      0.8628      0.9994      
3247.8      3271.8      113.5458    0.3289      2.6184      1.066       2.2421      0.0142      0.9618      0.8923      
3248.0      3272.0      116.6678    0.3217      2.6146      1.0753      2.1951      0.0         1.0         0.6718      
3248.2      3272.2      114.3502    0.3176      2.6173      1.0876      2.1442      0.0949      0.7511      0.5078      
3248.4      3272.4      107.7784    0.3169      2.6222      1.1         2.138       0.2237      0.3767      0.3678      
3248.6      3272.6      99.8532     0.3168      2.6243      1.1104      2.1503      0.2341      0.3385      0.321       
3248.8      3272.8      96.5281     0.3168      2.6225      1.1179      2.1571      0.2686      0.1689      0.3019      
3249.0      3273.0      101.804     0.3168      2.6166      1.123       2.1613      0.2946      0.0587      0.288       
3249.2      3273.2      108.5742    0.3168      2.6084      1.1278      2.1552      0.2668      0.1905      0.2917      
3249.4      3273.4      110.6778    0.3167      2.5993      1.1337      2.1364      0.2839      0.1782      0.2784      
3249.6      3273.6      108.8091    0.3168      2.5916      1.1411      2.1204      0.2698      0.26        0.2613      
3249.8      3273.8      102.7804    0.3169      2.588       1.1491      2.1167      0.2197      0.4436      0.233       
3250.0      3274.0      97.102      0.3169      2.5898      1.1558      2.1216      0.2162      0.4694      0.2072      
3250.2      3274.2      95.5378     0.3169      2.5983      1.1595      2.1257      0.2478      0.35        0.1957      
3250.4      3274.4      96.5236     0.317       2.6108      1.1591      2.1278      0.2931      0.1407      0.2018      
3250.6      3274.6      98.722      0.3173      2.623       1.1547      2.1372      0.2936      0.1216      0.203       
3250.8      3274.8      100.4343    0.3172      2.6298      1.1475      2.1549      0.2744      0.1594      0.2107      
3251.0      3275.0      100.6548    0.3169      2.6289      1.1399      2.1633      0.2669      0.1698      0.2178      
3251.2      3275.2      102.3159    0.3169      2.6208      1.1338      2.1517      0.2583      0.2406      0.2303      
3251.4      3275.4      106.6436    0.3172      2.6083      1.13        2.1308      0.2833      0.1887      0.2423      
3251.6      3275.6      109.0005    0.3176      2.5965      1.1289      2.1136      0.3196      0.0838      0.2569      
3251.8      3275.8      106.9533    0.3178      2.5909      1.1308      2.1042      0.3018      0.1808      0.2685      
3252.0      3276.0      104.2983    0.3179      2.5937      1.137       2.107       0.2898      0.2446      0.2666      
3252.2      3276.2      104.4342    0.3179      2.6101      1.1478      2.1153      0.2816      0.2577      0.2598      
3252.4      3276.4      108.7103    0.318       2.6377      1.1621      2.1344      0.2827      0.1781      0.2678      
3252.6      3276.6      111.2639    0.3183      2.6707      1.1781      2.1999      0.1945      0.3853      0.2863      
3252.8      3276.8      105.7424    0.3208      2.6993      1.1925      2.2849      0.0549      0.7536      0.2788      
3253.0      3277.0      101.1511    0.3282      2.7161      1.2017      2.3116      0.0515      0.6753      0.3805      
3253.2      3277.2      99.0129     0.3359      2.7214      1.2038      2.3086      0.0412      0.7363      0.6123      
3253.4      3277.4      97.2672     0.3364      2.7233      1.1997      2.3437      0.0038      0.9713      0.8402      
3253.6      3277.6      99.6883     0.3306      2.7323      1.192       2.3723      2.0E-4      1.0         0.9681      
3253.8      3277.8      102.9859    0.3259      2.7576      1.1859      2.3524      0.0         0.9994      0.9678      
3254.0      3278.0      102.3685    0.3239      2.8005      1.185       2.3254      2.0E-4      0.9977      0.9446      
3254.2      3278.2      99.4191     0.3225      2.853       1.1889      2.312       0.0         0.9763      0.903       
3254.4      3278.4      100.6447    0.3225      2.899       1.1971      2.3148      2.0E-4      0.995       0.7733      
3254.6      3278.6      101.2888    0.3255      2.9208      1.2077      2.3361      0.0         1.0         0.6708      
3254.8      3278.8      97.1348     0.328       2.9128      1.2198      2.3383      3.0E-4      0.9986      0.6615      
3255.0      3279.0      95.5353     0.3283      2.8761      1.2337      2.3203      0.0         1.0         0.7293      
3255.2      3279.2      95.3224     0.328       2.8223      1.2478      2.3246      4.0E-4      0.9958      0.8553      
3255.4      3279.4      96.2198     0.3275      2.7692      1.2578      2.3255      0.0         0.9822      0.9481      
3255.6      3279.6      99.6025     0.3258      2.727       1.2567      2.2972      5.0E-4      0.9946      0.963       
3255.8      3279.8      102.6642    0.3235      2.7001      1.2381      2.2939      0.0         1.0         0.9704      
3256.0      3280.0      103.2864    0.3231      2.6907      1.2055      2.3185      7.0E-4      0.9976      0.9738      
3256.2      3280.2      101.8249    0.325       2.6956      1.1701      2.3218      0.0         1.0         0.9632      
3256.4      3280.4      102.675     0.3278      2.7124      1.1419      2.3267      0.001       0.9971      0.9505      
3256.6      3280.6      103.0117    0.33        2.7362      1.1262      2.3569      0.0         1.0         0.922       
3256.8      3280.8      100.4244    0.3304      2.7619      1.1216      2.3759      0.0015      0.9962      0.8751      
3257.0      3281.0      97.365      0.3303      2.7852      1.1231      2.3585      0.0         1.0         0.8228      
3257.2      3281.2      95.4682     0.3312      2.8009      1.1282      2.3062      0.0057      0.986       0.8278      
3257.4      3281.4      95.4704     0.3324      2.8009      1.135       2.2617      0.0303      0.9239      0.9023      
3257.6      3281.6      95.58       0.3336      2.7826      1.1422      2.2758      0.0074      0.9815      0.9237      
3257.8      3281.8      98.5512     0.333       2.7461      1.1478      2.3101      0.0         1.0         0.9284      
3258.0      3282.0      101.5234    0.3317      2.6983      1.1504      2.3226      0.0034      0.8987      0.9725      
3258.2      3282.2      104.0808    0.3331      2.6476      1.1502      2.3184      0.0228      0.7891      0.9262      
3258.4      3282.4      103.3134    0.3282      2.6007      1.1482      2.2742      0.0771      0.7077      0.6496      
3258.6      3282.6      98.235      0.32        2.5644      1.1459      2.2062      0.1841      0.3842      0.4152      
3258.8      3282.8      92.9331     0.3177      2.5446      1.1438      2.1854      0.2673      0.0316      0.3406      
3259.0      3283.0      88.8914     0.3183      2.5424      1.1413      2.2118      0.2622      0.0255      0.3388      
3259.2      3283.2      92.8166     0.323       2.5579      1.1369      2.2335      0.1469      0.4988      0.3998      
3259.4      3283.4      104.6396    0.3347      2.5892      1.1295      2.2317      0.0352      0.9089      0.4902      
3259.6      3283.6      109.9135    0.3394      2.6295      1.1191      2.2299      0.0027      0.9962      0.6683      
