#----------------------------------------------------------------------------
~VERSION INFORMATION
VERS.            2.0                  :CWLS LOG ASCII STANDARD -VERSION 2.0
WRAP.            NO                   :ONE LINE PER DEPTH STEP
#
#--------------------------------------------------------------------
~WELL INFORMATION
#MNEM .UNIT      DATA                 :DESCRIPTION OF MNEMONIC
#----------      ------------         -------------------------------
STRT  .m         2775.191             :START DEPTH
STEP  .m         0.2                  :STEP DEPTH
STOP  .m         3093.191             :STOP DEPTH
NULL  .          -999.25              :NULL VALUE
COMP  .                               :COMPANY
WELL  .                               :WELL
LOC   .                               :LOCATION - AREA
FLD   .                               :FIELD
CTRY  .                               :COUNTRY
DATE  .                               :WELL DATE
UWI   .                               :UWI
ZSTK  .          TVDss                :Z-STICK
XWELL .m         	              :X POS
YWELL .m         	              :Y POS
EDF   .          24.0                 :DERRICK FLOOR ELEVATION
#
#----------------------------------------------------------------------------
~CURVE INFORMATION
#MNEM.UNIT                                  : CURVE DESCRIPTION
#----------                                 -------------------------------
DEPT        .m                              : 1      DEPTH
COTA        .m                              : 2      Depth
Depth_TVDkb .m                              : 3      Depth
TVD         .m                              : 4      Depth
GR          .API                            : 5      GR
CALIPER     .m                              : 6      Cal
VP          .km/s                           : 7      Vp
VS          .km/s                           : 8      Vs
RHO         .g/cm3                          : 9      Rho
Porosidade  .fract                          : 10     Por
Argilosidade.fract                          : 11     Volume
Saturacao   .fract                          : 12     Sat
#
#----------------------------------------------------------------------------
~A          COTA        Depth_TVDkb TVD         GR          CALIPER     VP          VS          RHO         Porosidade  Argilosidade Saturacao   
# ...
2920.791    -2920.69    2944.791    2944.69     93.7836     0.3181      2.5275      1.0514      2.1601      0.2117      0.3735      0.3497      
2920.991    -2920.8892  2944.991    2944.8892   90.43       0.3181      2.5333      1.0545      2.1472      0.231       0.3244      0.3194      
2921.191    -2921.0884  2945.191    2945.0884   84.0626     0.3179      2.5381      1.0597      2.1369      0.2517      0.2559      0.3122      
2921.391    -2921.2876  2945.391    2945.2876   82.4449     0.3179      2.5427      1.0653      2.1354      0.2764      0.1566      0.3163      
2921.591    -2921.4868  2945.591    2945.4868   85.6403     0.3181      2.5488      1.069       2.1369      0.2761      0.151       0.3269      
2921.791    -2921.6859  2945.791    2945.6859   85.9894     0.3182      2.5524      1.0686      2.1417      0.2545      0.2167      0.3471      
2921.991    -2921.8851  2945.991    2945.8851   87.0636     0.3181      2.5431      1.0622      2.1532      0.2328      0.283       0.3683      
2922.191    -2922.0843  2946.191    2946.0843   89.6573     0.3181      2.5252      1.0555      2.1565      0.2263      0.3012      0.3741      
2922.391    -2922.2835  2946.391    2946.2835   89.7374     0.318       2.5154      1.0535      2.1548      0.2278      0.2916      0.371       
2922.591    -2922.4827  2946.591    2946.4827   89.3793     0.3181      2.5221      1.0571      2.156       0.2274      0.2898      0.3682      
2922.791    -2922.6819  2946.791    2946.6819   88.3735     0.3186      2.5498      1.0695      2.1597      0.2249      0.2929      0.3653      
2922.991    -2922.8811  2946.991    2946.8811   86.4112     0.3187      2.5702      1.0827      2.1627      0.2225      0.296       0.362       
2923.191    -2923.0802  2947.191    2947.0802   86.4832     0.3185      2.5703      1.0908      2.1657      0.2272      0.2856      0.3663      
2923.391    -2923.2794  2947.391    2947.2794   89.983      0.3188      2.557       1.0976      2.1609      0.2463      0.2462      0.3824      
2923.591    -2923.4786  2947.591    2947.4786   94.9327     0.3191      2.5312      1.098       2.1454      0.2392      0.2723      0.412       
2923.791    -2923.6778  2947.791    2947.6778   96.914      0.3192      2.4987      1.0918      2.1483      0.1975      0.3953      0.4658      
2923.991    -2923.877   2947.991    2947.877    97.017      0.3192      2.4942      1.091       2.174       0.1614      0.5032      0.5182      
2924.191    -2924.0762  2948.191    2948.0762   96.6219     0.3191      2.5137      1.0968      2.1822      0.1162      0.6205      0.5553      
2924.391    -2924.2754  2948.391    2948.2754   95.3407     0.3187      2.5612      1.113       2.1859      0.0523      0.7639      0.5791      
2924.591    -2924.4745  2948.591    2948.4745   94.6167     0.3186      2.6279      1.1364      2.2225      0.034       0.8054      0.5989      
2924.791    -2924.6737  2948.791    2948.6737   96.1523     0.3191      2.6888      1.1567      2.2717      0.0521      0.7641      0.6132      
2924.991    -2924.8729  2948.991    2948.8729   98.5506     0.3198      2.7051      1.1606      2.2736      0.0698      0.7236      0.6296      
2925.191    -2925.0721  2949.191    2949.0721   99.9539     0.3197      2.6886      1.1484      2.2362      0.075       0.7166      0.6291      
2925.391    -2925.2713  2949.391    2949.2713   99.6618     0.3194      2.6491      1.1284      2.2192      0.0676      0.7517      0.6052      
2925.591    -2925.4705  2949.591    2949.4705   97.8449     0.3194      2.6135      1.1087      2.2184      0.0745      0.742       0.5656      
2925.791    -2925.6697  2949.791    2949.6697   94.4155     0.3199      2.5778      1.0868      2.2121      0.11        0.6584      0.4908      
2925.991    -2925.8689  2949.991    2949.8689   90.7701     0.3203      2.5715      1.0759      2.1814      0.1443      0.5825      0.4154      
2926.191    -2926.0681  2950.191    2950.0681   89.2868     0.3198      2.5781      1.0707      2.1621      0.1595      0.5256      0.3761      
2926.391    -2926.2673  2950.391    2950.2673   87.2558     0.3191      2.5783      1.0651      2.1662      0.1604      0.4918      0.3679      
2926.591    -2926.4665  2950.591    2950.4665   83.1527     0.3191      2.5809      1.065       2.186       0.1701      0.4361      0.3532      
2926.791    -2926.6657  2950.791    2950.6657   80.794      0.3191      2.5869      1.0688      2.1869      0.2044      0.3415      0.3284      
2926.991    -2926.8649  2950.991    2950.8649   80.9508     0.3189      2.5834      1.0702      2.1715      0.2378      0.243       0.3026      
2927.191    -2927.0641  2951.191    2951.0641   83.7874     0.3189      2.5711      1.0703      2.1599      0.25        0.2107      0.2916      
2927.391    -2927.2633  2951.391    2951.2633   86.1448     0.3189      2.543       1.066       2.1575      0.2372      0.2639      0.2936      
2927.591    -2927.4625  2951.591    2951.4625   85.5906     0.319       2.5208      1.063       2.1575      0.2349      0.2804      0.296       
2927.791    -2927.6617  2951.791    2951.6617   82.3405     0.3191      2.4961      1.0574      2.1505      0.2474      0.2584      0.2992      
2927.991    -2927.8609  2951.991    2951.8609   82.4075     0.3191      2.4842      1.055       2.1448      0.2594      0.2374      0.3021      
2928.191    -2928.0601  2952.191    2952.0601   86.1676     0.3191      2.4766      1.0518      2.1385      0.2612      0.2386      0.3097      
2928.391    -2928.2593  2952.391    2952.2593   88.2988     0.3191      2.4761      1.0505      2.1189      0.2441      0.2902      0.3296      
2928.591    -2928.4585  2952.591    2952.4585   88.8263     0.3191      2.503       1.0581      2.1171      0.2247      0.341       0.3623      
2928.791    -2928.6577  2952.791    2952.6577   89.7106     0.319       2.5263      1.065       2.1495      0.1953      0.4035      0.4346      
2928.991    -2928.8569  2952.991    2952.8569   92.5539     0.3189      2.5335      1.0655      2.1804      0.1663      0.4653      0.5044      
2929.191    -2929.0562  2953.191    2953.0562   97.2307     0.3193      2.5483      1.0701      2.1919      0.1439      0.5216      0.5533      
2929.391    -2929.2554  2953.391    2953.2554   100.2707    0.3202      2.566       1.0787      2.1918      0.1314      0.5689      0.5737      
2929.591    -2929.4546  2953.591    2953.4546   101.3223    0.3209      2.5779      1.0881      2.1889      0.1189      0.6102      0.5956      
2929.791    -2929.6538  2953.791    2953.6538   102.1995    0.3208      2.5591      1.0871      2.202       0.1076      0.6396      0.617       
2929.991    -2929.853   2953.991    2953.853    104.3808    0.3203      2.5567      1.0906      2.2227      0.0958      0.6715      0.6401      
2930.191    -2930.0522  2954.191    2954.0522   104.9198    0.32        2.5597      1.0916      2.2221      0.0867      0.692       0.6511      
2930.391    -2930.2515  2954.391    2954.2515   102.9693    0.3202      2.5515      1.0875      2.2105      0.0818      0.6969      0.6438      
2930.591    -2930.4508  2954.591    2954.4508   99.8175     0.3208      2.5503      1.0879      2.2128      0.0764      0.7041      0.6452      
2930.791    -2930.65    2954.791    2954.65     97.9364     0.3219      2.5687      1.0986      2.2263      0.0701      0.7166      0.6737      
2930.991    -2930.8493  2954.991    2954.8493   97.1278     0.3228      2.6004      1.1123      2.2334      0.0642      0.7278      0.7005      
2931.191    -2931.0486  2955.191    2955.0486   97.0403     0.3228      2.6277      1.1223      2.2375      0.0533      0.7571      0.7079      
2931.391    -2931.2478  2955.391    2955.2478   97.7702     0.3229      2.6455      1.1297      2.2346      0.0218      0.8708      0.6627      
2931.591    -2931.4471  2955.591    2955.4471   97.1905     0.3235      2.6329      1.1273      2.2253      0.0044      0.9224      0.613       
2931.791    -2931.6463  2955.791    2955.6463   93.3195     0.3229      2.6316      1.1306      2.2595      0.0029      0.8817      0.5312      
