#----------------------------------------------------------------------------
~VERSION INFORMATION
VERS.            2.0                  :CWLS LOG ASCII STANDARD -VERSION 2.0
WRAP.            NO                   :ONE LINE PER DEPTH STEP
#
#--------------------------------------------------------------------
~WELL INFORMATION
#MNEM .UNIT      DATA                 :DESCRIPTION OF MNEMONIC
#----------      ------------         -------------------------------
STRT  .m         3166.1892            :START DEPTH
STEP  .m         0.2                  :STEP DEPTH
STOP  .m         3426.1892            :STOP DEPTH
NULL  .          -999.25              :NULL VALUE
COMP  .                               :COMPANY
WELL  .                               :WELL
LOC   .                               :LOCATION - AREA
FLD   .          	              :FIELD
CTRY  .                               :COUNTRY
DATE  .                               :WELL DATE
UWI   .            	              :UWI
ZSTK  .          TVDss                :Z-STICK
XWELL .m         	              :X POS
YWELL .m         	              :Y POS
EDF   .          14.0                 :DERRICK FLOOR ELEVATION
#
#----------------------------------------------------------------------------
~CURVE INFORMATION
#MNEM.UNIT                                              : CURVE DESCRIPTION
#----------                                             -------------------------------
DEPT                    .m                              : 1      DEPTH
MD                      .m                              : 2      Depth
GR                      .API                            : 3      GR
CALIPER                 .m                              : 4      Cal
VP                      .km/s                           : 5      Vp
Vs_calculado_de_VPVS    .km/s                           : 6      Vs
RHO                     .g/cm3                          : 7      Rho
Porosidade              .fract                          : 8      Por
Argilosidade            .fract                          : 9      Volume
Saturacao               .fract                          : 10     Sat
#
#----------------------------------------------------------------------------
~A                      MD                      GR                      CALIPER                 VP                      Vs_calculado_de_VPVS    RHO                     Porosidade              Argilosidade            Saturacao               
# ...
3349.7892               3363.7892               84.4853                 0.3119                  2.5609                  1.0746                  2.1585                  0.2575                  0.2349                  0.3259                  
3349.9892               3363.9892               83.9756                 0.3109                  2.5606                  1.0747                  2.1584                  0.2205                  0.3639                  0.3354                  
3350.1892               3364.1892               81.9016                 0.3123                  2.5652                  1.0695                  2.1576                  0.2206                  0.369                   0.3415                  
3350.3892               3364.3892               79.8851                 0.3131                  2.5742                  1.0687                  2.1567                  0.2519                  0.2736                  0.3437                  
3350.5892               3364.5892               79.3469                 0.3127                  2.5864                  1.0746                  2.1572                  0.2928                  0.1461                  0.3453                  
3350.7892               3364.7892               81.1627                 0.3122                  2.6002                  1.0801                  2.161                   0.2665                  0.2246                  0.4181                  
3350.9892               3364.9892               85.3261                 0.3122                  2.6136                  1.076                   2.1678                  0.2328                  0.3244                  0.507                   
3351.1892               3365.1892               88.2411                 0.3128                  2.6238                  1.0634                  2.1761                  0.1994                  0.4313                  0.5736                  
3351.3892               3365.3892               88.2857                 0.3152                  2.6283                  1.0512                  2.1835                  0.1653                  0.5486                  0.6157                  
3351.5892               3365.5892               88.4286                 0.3174                  2.6257                  1.0488                  2.1878                  0.1278                  0.6793                  0.6599                  
3351.7892               3365.7892               88.8476                 0.316                   2.6163                  1.0561                  2.1872                  0.1552                  0.612                   0.5653                  
3351.9892               3365.9892               89.1537                 0.3129                  2.6022                  1.0676                  2.1816                  0.1902                  0.5258                  0.4474                  
3352.1892               3366.1892               88.4525                 0.3103                  2.5865                  1.0733                  2.1724                  0.2203                  0.4315                  0.3574                  
3352.3892               3366.3892               85.7833                 0.3096                  2.573                   1.0691                  2.162                   0.2454                  0.3259                  0.2982                  
3352.5892               3366.5892               81.9463                 0.3116                  2.5649                  1.0643                  2.1528                  0.2716                  0.2131                  0.237                   
3352.7892               3366.7892               80.0065                 0.3146                  2.5642                  1.0675                  2.1457                  0.278                   0.177                   0.2262                  
3352.9892               3366.9892               80.6114                 0.3153                  2.5712                  1.0789                  2.141                   0.2832                  0.1455                  0.2181                  
3353.1892               3367.1892               82.5                    0.315                   2.5853                  1.0915                  2.1385                  0.2881                  0.1219                  0.2068                  
3353.3892               3367.3892               86.3129                 0.3142                  2.6052                  1.1013                  2.138                   0.2927                  0.1079                  0.1918                  
3353.5892               3367.5892               90.7051                 0.314                   2.6294                  1.1069                  2.1394                  0.2976                  0.0933                  0.1748                  
3353.7892               3367.7892               93.2979                 0.3151                  2.6563                  1.1076                  2.1425                  0.2897                  0.1088                  0.1769                  
3353.9892               3367.9892               90.8099                 0.3156                  2.6848                  1.1064                  2.1474                  0.2799                  0.1286                  0.18                    
3354.1892               3368.1892               86.0984                 0.3153                  2.7138                  1.1084                  2.1535                  0.2726                  0.1399                  0.1868                  
3354.3892               3368.3892               80.7014                 0.3153                  2.7425                  1.1143                  2.1604                  0.2684                  0.1403                  0.1979                  
3354.5892               3368.5892               76.983                  0.3153                  2.7701                  1.1209                  2.1672                  0.2645                  0.1405                  0.2099                  
3354.7892               3368.7892               78.681                  0.3157                  2.7948                  1.1252                  2.1734                  0.2588                  0.1501                  0.2162                  
3354.9892               3368.9892               84.2729                 0.3162                  2.814                   1.1228                  2.1784                  0.2526                  0.1628                  0.2219                  
3355.1892               3369.1892               89.0632                 0.3164                  2.8254                  1.1109                  2.1819                  0.2512                  0.1631                  0.2315                  
3355.3892               3369.3892               90.5237                 0.3165                  2.8272                  1.096                   2.1838                  0.2546                  0.1534                  0.2459                  
3355.5892               3369.5892               89.2227                 0.316                   2.8192                  1.0874                  2.184                   0.2591                  0.1405                  0.2601                  
3355.7892               3369.7892               87.2928                 0.3147                  2.8029                  1.0864                  2.1829                  0.2545                  0.1714                  0.2915                  
3355.9892               3369.9892               85.3363                 0.3134                  2.7812                  1.0912                  2.1813                  0.2487                  0.2088                  0.3277                  
3356.1892               3370.1892               83.3064                 0.3146                  2.7576                  1.0981                  2.1791                  0.2422                  0.2493                  0.3367                  
3356.3892               3370.3892               80.6842                 0.3184                  2.7354                  1.1043                  2.1765                  0.2345                  0.2945                  0.3201                  
