#----------------------------------------------------------------------------
~VERSION INFORMATION
VERS.            2.0                  :CWLS LOG ASCII STANDARD -VERSION 2.0
WRAP.            NO                   :ONE LINE PER DEPTH STEP
#
#--------------------------------------------------------------------
~WELL INFORMATION
#MNEM .UNIT      DATA                 :DESCRIPTION OF MNEMONIC
#----------      ------------         -------------------------------
STRT  .m         1761.0               :START DEPTH
STEP  .m         0.2                  :STEP DEPTH
STOP  .m         3172.6718            :STOP DEPTH
NULL  .          -999.25              :NULL VALUE
COMP  .          Petrobras            :COMPANY
WELL  .          RO82                 :WELL
LOC   .                               :LOCATION - AREA
FLD   .                               :FIELD
CTRY  .                               :COUNTRY
DATE  .                               :WELL DATE
UWI   .          742810331400         :UWI
ZSTK  .          TVDss                :Z-STICK
XWELL .m         421843.59            :X POS
YWELL .m         7571342              :Y POS
EDF   .          25.0                 :DERRICK FLOOR ELEVATION
#
#----------------------------------------------------------------------------
~CURVE INFORMATION
#MNEM.UNIT                                  : CURVE DESCRIPTION
#----------                                 -------------------------------
DEPT        .m                              : 1      DEPTH
Depth_TVDkb .m                              : 2      Depth
Depth_MD    .m                              : 3      Depth
GR          .API                            : 4      GR
CALIPER     .m                              : 5      Cal
VP          .km/s                           : 6      Vp
VS          .km/s                           : 7      Vs
RHO         .g/cm3                          : 8      Rho
Porosidade  .fract                          : 9      Por
Argilosidade.fract                          : 10     Volume
Saturacao   .fract                          : 11     Sat
#
#----------------------------------------------------------------------------
~A          Depth_TVDkb Depth_MD    GR          CALIPER     VP          VS          RHO         Porosidade  Argilosidade Saturacao   
# ...
3018.0      3043.0      3043.0      105.3181    0.3302      2.5256      1.0406      2.1892      0.0385      0.8484      1.0         
3018.2      3043.2      3043.2      106.4551    0.3304      2.5472      1.045       2.2014      0.0192      0.9242      1.0         
3018.4      3043.4      3043.4      108.8449    0.3306      2.5453      1.0403      2.2124      0.0         1.0         1.0         
3018.6      3043.6      3043.6      111.9615    0.3305      2.5246      1.0243      2.2004      0.055       0.8624      1.0         
3018.8      3043.8      3043.8      116.8877    0.3304      2.4616      1.0003      2.1406      0.1101      0.7248      1.0         
3019.0      3044.0      3044.0      118.9012    0.3304      2.4061      0.9752      2.0896      0.1651      0.5873      1.0         
3019.2      3044.2      3044.2      114.3682    0.3288      2.3813      0.956       2.1094      0.1389      0.5899      1.0         
3019.4      3044.4      3044.4      108.4879    0.3272      2.4027      0.9532      2.1665      0.1127      0.5925      1.0         
3019.6      3044.6      3044.6      106.9663    0.3267      2.4641      0.9721      2.209       0.1361      0.5197      0.9475      
3019.8      3044.8      3044.8      106.8225    0.3262      2.5447      1.0139      2.2195      0.1595      0.4469      0.8951      
3020.0      3045.0      3045.0      105.2978    0.3257      2.6167      1.0719      2.2141      0.183       0.3741      0.8426      
3020.2      3045.2      3045.2      101.9614    0.3267      2.6702      1.1304      2.2052      0.1803      0.3954      0.732       
3020.4      3045.4      3045.4      98.2475     0.3278      2.7144      1.1848      2.197       0.1777      0.4167      0.6213      
3020.6      3045.6      3045.6      95.7148     0.3282      2.7637      1.2344      2.1934      0.2228      0.2778      0.5303      
3020.8      3045.8      3045.8      93.5859     0.3286      2.7958      1.2756      2.1828      0.268       0.1389      0.4393      
3021.0      3046.0      3046.0      91.6078     0.3289      2.7845      1.2989      2.1739      0.3131      0.0         0.3483      
3021.2      3046.2      3046.2      90.6898     0.3287      2.7453      1.2994      2.1566      0.3196      0.0         0.3287      
3021.4      3046.4      3046.4      91.2875     0.3284      2.7275      1.2886      2.1353      0.3261      0.0         0.3091      
3021.6      3046.6      3046.6      94.8965     0.3267      2.7338      1.2784      2.1284      0.329       0.0         0.2952      
3021.8      3046.8      3046.8      100.5637    0.3251      2.7645      1.273       2.134       0.3319      0.0         0.2813      
3022.0      3047.0      3047.0      104.3675    0.3234      2.8035      1.2727      2.1429      0.3347      0.0         0.2674      
3022.2      3047.2      3047.2      104.5753    0.3238      2.8115      1.2809      2.1485      0.3283      0.0         0.2639      
3022.4      3047.4      3047.4      103.7257    0.3242      2.8131      1.3053      2.147       0.3218      0.0         0.2605      
3022.6      3047.6      3047.6      103.4447    0.3241      2.8293      1.3458      2.1397      0.3166      0.0         0.2572      
3022.8      3047.8      3047.8      103.4796    0.324       2.8374      1.3884      2.136       0.3114      0.0         0.2538      
3023.0      3048.0      3048.0      103.0061    0.324       2.8324      1.4237      2.1468      0.3062      0.0         0.2505      
3023.2      3048.2      3048.2      101.4311    0.324       2.8168      1.4504      2.1642      0.3187      0.0         0.2288      
3023.4      3048.4      3048.4      99.9292     0.324       2.7964      1.4719      2.1697      0.3311      0.0         0.2071      
3023.6      3048.6      3048.6      99.7102     0.325       2.7765      1.4861      2.1545      0.3331      0.0         0.2026      
3023.8      3048.8      3048.8      100.226     0.3261      2.7604      1.4905      2.1312      0.3351      0.0         0.1981      
3024.0      3049.0      3049.0      99.9627     0.3271      2.7586      1.4865      2.1158      0.3371      0.0         0.1936      
3024.2      3049.2      3049.2      98.0288     0.3283      2.7792      1.4698      2.11        0.3387      0.0         0.1941      
3024.4      3049.4      3049.4      96.3396     0.3294      2.8124      1.4366      2.107       0.3403      0.0         0.1946      
3024.6      3049.6      3049.6      96.6229     0.329       2.8422      1.3943      2.1065      0.3319      0.0014      0.2143      
3024.8      3049.8      3049.8      97.7812     0.3285      2.837       1.3562      2.116       0.3234      0.0028      0.2341      
3025.0      3050.0      3050.0      98.5797     0.3281      2.7982      1.3364      2.1454      0.315       0.0042      0.2539      
3025.2      3050.2      3050.2      99.3235     0.3273      2.7229      1.3454      2.1792      0.2548      0.1963      0.2748      
3025.4      3050.4      3050.4      99.5695     0.3265      2.6567      1.3736      2.1954      0.1946      0.3884      0.2957      
3025.6      3050.6      3050.6      98.9227     0.3265      2.595       1.3939      2.1813      0.1959      0.419       0.3216      
3025.8      3050.8      3050.8      97.363      0.3264      2.5331      1.3705      2.1387      0.1972      0.4496      0.3475      
3026.0      3051.0      3051.0      97.1577     0.3264      2.4626      1.3064      2.1151      0.1984      0.4802      0.3735      
3026.2      3051.2      3051.2      99.4511     0.3265      2.4232      1.2303      2.1332      0.1345      0.6356      0.406       
3026.4      3051.4      3051.4      101.6786    0.3265      2.4175      1.1823      2.1635      0.0705      0.7909      0.4386      
3026.6      3051.6      3051.6      100.9133    0.327       2.4323      1.1757      2.1803      0.1578      0.5273      0.3759      
3026.8      3051.8      3051.8      98.5682     0.3274      2.4672      1.2007      2.1611      0.245       0.2636      0.3131      
3027.0      3052.0      3052.0      97.7464     0.3279      2.5354      1.2248      2.1329      0.3323      0.0         0.2504      
3027.2      3052.2      3052.2      98.3868     0.3281      2.6105      1.219       2.1225      0.3162      0.0601      0.3048      
3027.4      3052.4      3052.4      99.8299     0.3284      2.6653      1.1889      2.1271      0.3         0.1202      0.3593      
3027.6      3052.6      3052.6      101.4194    0.3271      2.6817      1.1633      2.1481      0.2471      0.2476      0.4876      
3027.8      3052.8      3052.8      101.988     0.3257      2.6719      1.1573      2.1804      0.1941      0.375       0.6159      
3028.0      3053.0      3053.0      104.2278    0.3244      2.6591      1.161       2.2046      0.1412      0.5024      0.7441      
3028.2      3053.2      3053.2      112.5827    0.3241      2.6705      1.1559      2.2082      0.077       0.6947      0.8721      
3028.4      3053.4      3053.4      120.9711    0.3237      2.6886      1.1334      2.2103      0.0129      0.8869      1.0         
3028.6      3053.6      3053.6      122.907     0.3237      2.6644      1.1026      2.2217      0.0441      0.7923      1.0         
3028.8      3053.8      3053.8      123.4564    0.3237      2.6093      1.0748      2.2279      0.0752      0.6977      1.0         
3029.0      3054.0      3054.0      123.4352    0.3237      2.5455      1.056       2.2217      0.1064      0.6032      1.0         
3029.2      3054.2      3054.2      119.435     0.3235      2.4915      1.0428      2.2135      0.0532      0.8016      1.0         
3029.4      3054.4      3054.4      114.902     0.3234      2.4758      1.0346      2.2166      0.0         1.0         1.0         
3029.6      3054.6      3054.6      112.981     0.3226      2.5169      1.0405      2.2149      0.0         0.9892      0.9658      
3029.8      3054.8      3054.8      111.6291    0.3219      2.6118      1.0618      2.2161      0.0         0.9784      0.9316      
3030.0      3055.0      3055.0      110.1099    0.3211      2.7204      1.0926      2.2455      0.0         0.9676      0.8975      
