#----------------------------------------------------------------------------
~VERSION INFORMATION
VERS.            2.0                  :CWLS LOG ASCII STANDARD -VERSION 2.0
WRAP.            NO                   :ONE LINE PER DEPTH STEP
#
#--------------------------------------------------------------------
~WELL INFORMATION
#MNEM .UNIT      DATA                 :DESCRIPTION OF MNEMONIC
#----------      ------------         -------------------------------
STRT  .m         1761.0               :START DEPTH
STEP  .m         0.2                  :STEP DEPTH
STOP  .m         3172.6718            :STOP DEPTH
NULL  .          -999.25              :NULL VALUE
COMP  .          Petrobras            :COMPANY
WELL  .          RO82                 :WELL
LOC   .                               :LOCATION - AREA
FLD   .                               :FIELD
CTRY  .                               :COUNTRY
DATE  .                               :WELL DATE
UWI   .          742810331400         :UWI
ZSTK  .          TVDss                :Z-STICK
XWELL .m         421843.59            :X POS
YWELL .m         7571342              :Y POS
EDF   .          25.0                 :DERRICK FLOOR ELEVATION
#
#----------------------------------------------------------------------------
~CURVE INFORMATION
#MNEM.UNIT                                  : CURVE DESCRIPTION
#----------                                 -------------------------------
DEPT        .m                              : 1      DEPTH
Depth_TVDkb .m                              : 2      Depth
Depth_MD    .m                              : 3      Depth
GR          .API                            : 4      GR
CALIPER     .m                              : 5      Cal
VP          .km/s                           : 6      Vp
VS          .km/s                           : 7      Vs
RHO         .g/cm3                          : 8      Rho
Porosidade  .fract                          : 9      Por
Argilosidade.fract                          : 10     Volume
Saturacao   .fract                          : 11     Sat
#
#----------------------------------------------------------------------------
~A          Depth_TVDkb Depth_MD    GR          CALIPER     VP          VS          RHO         Porosidade  Argilosidade Saturacao   
# ...
2981.4      3006.4      3006.4      101.2009    0.3205      2.5117      1.3254      2.1348      0.3529      0.0         0.1379      
2981.6      3006.6      3006.6      99.7294     0.3205      2.5116      1.3211      2.1208      0.3512      0.0         0.1391      
2981.8      3006.8      3006.8      98.7499     0.3205      2.5096      1.3236      2.113       0.3496      0.0         0.1404      
2982.0      3007.0      3007.0      97.4554     0.3205      2.5082      1.3214      2.123       0.3479      0.0         0.1417      
2982.2      3007.2      3007.2      96.1013     0.3211      2.5059      1.3104      2.1306      0.3501      0.0         0.1406      
2982.4      3007.4      3007.4      95.1653     0.3217      2.5042      1.2983      2.1326      0.3524      0.0         0.1396      
2982.6      3007.6      3007.6      95.3984     0.3226      2.5037      1.2891      2.1249      0.3574      0.0         0.1382      
2982.8      3007.8      3007.8      96.5229     0.3235      2.5049      1.2835      2.1158      0.3625      0.0         0.1369      
2983.0      3008.0      3008.0      97.0496     0.3244      2.5021      1.2793      2.111       0.3676      0.0         0.1356      
2983.2      3008.2      3008.2      96.9973     0.3249      2.4984      1.2771      2.102       0.3563      0.0         0.1415      
2983.4      3008.4      3008.4      98.1948     0.3253      2.4978      1.2788      2.0944      0.3451      0.0         0.1475      
2983.6      3008.6      3008.6      102.4607    0.3241      2.502       1.2848      2.0906      0.3404      0.0         0.1521      
2983.8      3008.8      3008.8      109.1296    0.3229      2.5013      1.2918      2.0966      0.3358      0.0         0.1568      
2984.0      3009.0      3009.0      112.3482    0.3217      2.4943      1.2954      2.1112      0.3312      0.0         0.1614      
2984.2      3009.2      3009.2      107.8702    0.322       2.4846      1.2927      2.118       0.342       0.0         0.1615      
2984.4      3009.4      3009.4      101.6068    0.3222      2.4895      1.287       2.1211      0.3528      0.0         0.1616      
2984.6      3009.6      3009.6      100.9213    0.3223      2.5094      1.2804      2.1224      0.3566      0.0         0.1721      
2984.8      3009.8      3009.8      100.8034    0.3225      2.5163      1.2711      2.1211      0.3604      0.0         0.1826      
2985.0      3010.0      3010.0      101.6842    0.3226      2.5144      1.2574      2.1145      0.3642      0.0         0.1931      
2985.2      3010.2      3010.2      108.7914    0.3232      2.4961      1.241       2.1045      0.3515      0.0         0.2188      
2985.4      3010.4      3010.4      115.5629    0.3238      2.4558      1.2275      2.1066      0.3387      0.0         0.2445      
2985.6      3010.6      3010.6      115.08      0.3241      2.4208      1.2209      2.1119      0.3117      0.1187      0.2436      
2985.8      3010.8      3010.8      112.3699    0.3243      2.3978      1.2223      2.0956      0.2846      0.2373      0.2427      
2986.0      3011.0      3011.0      110.3327    0.3245      2.3924      1.2319      2.077       0.2576      0.356       0.2418      
2986.2      3011.2      3011.2      105.9686    0.3245      2.4145      1.2426      2.081       0.262       0.34        0.2291      
2986.4      3011.4      3011.4      102.6118    0.3245      2.4524      1.2495      2.0897      0.2664      0.324       0.2164      
2986.6      3011.6      3011.6      103.5395    0.3242      2.4767      1.2416      2.1041      0.2707      0.2998      0.2156      
2986.8      3011.8      3011.8      104.8044    0.3239      2.4805      1.235       2.1271      0.275       0.2756      0.2148      
2987.0      3012.0      3012.0      106.9363    0.3236      2.4729      1.2289      2.1318      0.2792      0.2513      0.214       
2987.2      3012.2      3012.2      114.4961    0.324       2.448       1.2208      2.1186      0.2995      0.1666      0.2107      
2987.4      3012.4      3012.4      121.0311    0.3244      2.4328      1.2372      2.1197      0.3197      0.0819      0.2074      
2987.6      3012.6      3012.6      120.1645    0.3242      2.4288      1.2933      2.1365      0.3191      0.0932      0.1987      
2987.8      3012.8      3012.8      116.762     0.324       2.4212      1.3351      2.1403      0.3185      0.1045      0.1899      
2988.0      3013.0      3013.0      114.3166    0.3238      2.427       1.3346      2.1284      0.3179      0.1158      0.1812      
2988.2      3013.2      3013.2      111.6574    0.3236      2.4453      1.3151      2.1236      0.3297      0.0579      0.1776      
2988.4      3013.4      3013.4      108.9556    0.3233      2.4567      1.3029      2.1317      0.3415      0.0         0.174       
2988.6      3013.6      3013.6      106.0816    0.3235      2.4661      1.2967      2.1397      0.3403      0.0         0.1695      
2988.8      3013.8      3013.8      102.4072    0.3237      2.4716      1.3073      2.1438      0.3391      0.0         0.1651      
2989.0      3014.0      3014.0      100.0152    0.3239      2.4781      1.318       2.1471      0.3379      0.0         0.1607      
2989.2      3014.2      3014.2      100.059     0.3239      2.4856      1.3275      2.1469      0.3428      0.001       0.153       
2989.4      3014.4      3014.4      101.3707    0.3239      2.4914      1.3311      2.1402      0.3476      0.002       0.1454      
2989.6      3014.6      3014.6      102.9152    0.3239      2.485       1.3271      2.1318      0.3389      0.0013      0.1496      
2989.8      3014.8      3014.8      104.9759    0.324       2.4727      1.3144      2.1301      0.3303      7.0E-4      0.1538      
2990.0      3015.0      3015.0      106.5727    0.324       2.4613      1.2908      2.1341      0.3216      0.0         0.158       
2990.2      3015.2      3015.2      107.2855    0.3247      2.4558      1.2569      2.1358      0.3367      0.0         0.1565      
2990.4      3015.4      3015.4      107.778     0.3253      2.4566      1.2195      2.1324      0.3518      0.0         0.1549      
2990.6      3015.6      3015.6      108.3236    0.3256      2.4536      1.1915      2.1245      0.3424      0.0573      0.1572      
2990.8      3015.8      3015.8      109.2762    0.3259      2.444       1.1789      2.1139      0.3329      0.1147      0.1594      
2991.0      3016.0      3016.0      109.4035    0.3262      2.4356      1.1808      2.1019      0.3235      0.172       0.1616      
2991.2      3016.2      3016.2      106.7581    0.3262      2.438       1.1915      2.0893      0.3464      0.086       0.1694      
2991.4      3016.4      3016.4      103.9226    0.3262      2.4301      1.2019      2.0889      0.3693      0.0         0.1772      
2991.6      3016.6      3016.6      103.4214    0.3262      2.4228      1.2075      2.0989      0.3363      0.0979      0.1802      
2991.8      3016.8      3016.8      103.2685    0.3263      2.4301      1.2044      2.1032      0.3033      0.1957      0.1832      
2992.0      3017.0      3017.0      103.3804    0.3263      2.4389      1.1961      2.1055      0.2703      0.2936      0.1862      
2992.2      3017.2      3017.2      104.9719    0.3263      2.4341      1.1877      2.1123      0.2734      0.2708      0.1992      
2992.4      3017.4      3017.4      106.3913    0.3263      2.4247      1.1871      2.1234      0.2764      0.2479      0.2122      
2992.6      3017.6      3017.6      106.2101    0.3261      2.4185      1.1934      2.1243      0.3066      0.1653      0.2094      
2992.8      3017.8      3017.8      104.9749    0.3259      2.4204      1.2025      2.108       0.3368      0.0826      0.2067      
2993.0      3018.0      3018.0      104.9444    0.3256      2.4243      1.2079      2.0964      0.3669      0.0         0.2039      
2993.2      3018.2      3018.2      108.2069    0.3247      2.4244      1.2064      2.0995      0.3672      1.0E-4      0.204       
2993.4      3018.4      3018.4      111.3585    0.3238      2.4234      1.2009      2.1052      0.3674      2.0E-4      0.2041      
