#----------------------------------------------------------------------------
~VERSION INFORMATION
VERS.            2.0                  :CWLS LOG ASCII STANDARD -VERSION 2.0
WRAP.            NO                   :ONE LINE PER DEPTH STEP
#
#--------------------------------------------------------------------
~WELL INFORMATION
#MNEM .UNIT      DATA                 :DESCRIPTION OF MNEMONIC
#----------      ------------         -------------------------------
STRT  .m         2775.191             :START DEPTH
STEP  .m         0.2                  :STEP DEPTH
STOP  .m         3093.191             :STOP DEPTH
NULL  .          -999.25              :NULL VALUE
COMP  .                               :COMPANY
WELL  .                               :WELL
LOC   .                               :LOCATION - AREA
FLD   .                               :FIELD
CTRY  .                               :COUNTRY
DATE  .                               :WELL DATE
UWI   .                               :UWI
ZSTK  .          TVDss                :Z-STICK
XWELL .m         	              :X POS
YWELL .m         	              :Y POS
EDF   .          24.0                 :DERRICK FLOOR ELEVATION
#
#----------------------------------------------------------------------------
~CURVE INFORMATION
#MNEM.UNIT                                  : CURVE DESCRIPTION
#----------                                 -------------------------------
DEPT        .m                              : 1      DEPTH
COTA        .m                              : 2      Depth
Depth_TVDkb .m                              : 3      Depth
TVD         .m                              : 4      Depth
GR          .API                            : 5      GR
CALIPER     .m                              : 6      Cal
VP          .km/s                           : 7      Vp
VS          .km/s                           : 8      Vs
RHO         .g/cm3                          : 9      Rho
Porosidade  .fract                          : 10     Por
Argilosidade.fract                          : 11     Volume
Saturacao   .fract                          : 12     Sat
#
#----------------------------------------------------------------------------
~A          COTA        Depth_TVDkb TVD         GR          CALIPER     VP          VS          RHO         Porosidade  Argilosidade Saturacao   
# ...
2797.591    -2797.5854  2821.591    2821.5854   92.2157     0.4356      2.5644      0.9584      2.1227      0.0634      0.8417      0.8902      
2797.791    -2797.7854  2821.791    2821.7854   91.2785     0.4329      2.4923      0.9581      2.1065      0.0424      0.8942      0.9399      
2797.991    -2797.9853  2821.991    2821.9853   92.489      0.441       2.4524      0.9681      2.0325      0.0217      0.9459      0.9888      
2798.191    -2798.1853  2822.191    2822.1853   90.5114     0.4363      2.3818      0.9543      2.0137      0.0224      0.9441      0.988       
2798.391    -2798.3852  2822.391    2822.3852   89.5654     0.4426      2.337       0.9394      2.0718      0.023       0.9423      0.9872      
2798.591    -2798.5852  2822.591    2822.5852   94.2263     0.4676      2.3469      0.9362      2.074       0.0449      0.8876      0.9339      
2798.791    -2798.7851  2822.791    2822.7851   97.3494     0.4839      2.3637      0.9241      2.0779      0.0665      0.8336      0.8814      
2798.991    -2798.9851  2822.991    2822.9851   94.6946     0.4961      2.4397      0.9352      2.0951      0.0878      0.7804      0.8297      
2799.191    -2799.1851  2823.191    2823.1851   92.8075     0.5069      2.5212      0.952       2.1133      0.078       0.7877      0.8582      
2799.391    -2799.385   2823.391    2823.385    89.2688     0.4902      2.57        0.9703      2.1514      0.0684      0.7948      0.886       
2799.591    -2799.585   2823.591    2823.585    95.3734     0.4664      2.59        0.9937      2.2298      0.0681      0.807       0.8877      
2799.791    -2799.7849  2823.791    2823.7849   96.6865     0.4659      2.591       1.0159      2.1348      0.0679      0.8191      0.8894      
2799.991    -2799.9849  2823.991    2823.9849   87.4508     0.4477      2.5668      1.0195      2.123       0.0676      0.8309      0.8911      
2800.191    -2800.1848  2824.191    2824.1848   79.4834     0.3984      2.5292      0.9874      2.1149      0.0827      0.7934      0.8447      
2800.391    -2800.3847  2824.391    2824.3847   84.8813     0.3735      2.5467      0.9587      2.1187      0.0973      0.7568      0.7995      
2800.591    -2800.5847  2824.591    2824.5847   84.5643     0.385       2.5898      0.94        2.128       0.0645      0.8389      0.8673      
2800.791    -2800.7846  2824.791    2824.7846   82.2401     0.409       2.6137      0.9397      2.1331      0.032       0.9199      0.9341      
2800.991    -2800.9846  2824.991    2824.9846   84.1575     0.4391      2.5088      0.9253      2.1104      0.0         1.0         1.0         
2801.191    -2801.1845  2825.191    2825.1845   90.0787     0.4632      2.3821      0.9056      2.0821      0.0018      0.9953      0.9999      
2801.391    -2801.3845  2825.391    2825.3845   106.9922    0.4838      2.314       0.8986      2.0664      0.0037      0.9909      0.9999      
2801.591    -2801.5845  2825.591    2825.5845   108.0741    0.5046      2.3093      0.9046      2.0653      0.0024      0.9939      0.9999      
2801.791    -2801.7844  2825.791    2825.7844   112.3279    0.5053      2.3319      0.9106      2.0705      0.0012      0.997       1.0         
2801.991    -2801.9844  2825.991    2825.9844   124.2855    0.5002      2.352       0.9166      2.0752      0.0         1.0         1.0         
2802.191    -2802.1843  2826.191    2826.1843   123.5693    0.5098      2.3388      0.9228      2.0721      0.0         1.0         1.0         
2802.391    -2802.3843  2826.391    2826.3843   126.9602    0.5081      2.3277      0.929       2.0695      0.0         1.0         1.0         
2802.591    -2802.5843  2826.591    2826.5843   118.947     0.4969      2.3631      0.9353      2.0777      0.0042      0.9895      0.9989      
2802.791    -2802.7842  2826.791    2826.7842   114.9721    0.5056      2.4279      0.9417      2.0925      0.0083      0.9791      0.9977      
2802.991    -2802.9842  2826.991    2826.9842   115.2128    0.518       2.4866      0.9482      2.1055      0.0125      0.9688      0.9966      
2803.191    -2803.1842  2827.191    2827.1842   115.1375    0.515       2.5426      0.9548      2.1178      0.0114      0.9715      0.9972      
2803.391    -2803.3843  2827.391    2827.3843   111.5357    0.5105      2.5993      0.9615      2.13        0.0103      0.9742      0.9978      
2803.591    -2803.5843  2827.591    2827.5843   118.4935    0.5093      2.5741      0.9683      2.1246      0.0072      0.982       0.9985      
2803.791    -2803.7843  2827.791    2827.7843   114.3595    0.5089      2.5354      0.9751      2.1162      0.0042      0.9896      0.9993      
2803.991    -2803.9844  2827.991    2827.9844   122.3103    0.5113      2.4867      0.9821      2.1055      0.0011      0.9972      1.0         
2804.191    -2804.1843  2828.191    2828.1843   122.4238    0.5041      2.4576      0.9892      2.0991      6.0E-4      0.9986      1.0         
2804.391    -2804.3843  2828.391    2828.3843   120.2534    0.4832      2.4469      0.9963      2.0967      0.0         1.0         1.0         
2804.591    -2804.5843  2828.591    2828.5843   120.6303    0.4644      2.4167      1.0036      2.0899      0.0269      0.9327      0.9508      
2804.791    -2804.7842  2828.791    2828.7842   124.2045    0.4442      2.3883      1.011       2.0835      0.0536      0.8659      0.9019      
2804.991    -2804.9842  2828.991    2828.9842   130.4287    0.425       2.411       1.0185      2.0886      0.0802      0.7995      0.8531      
2805.191    -2805.1841  2829.191    2829.1841   116.8417    0.4176      2.5021      1.0261      2.1088      0.092       0.7701      0.8159      
2805.391    -2805.3841  2829.391    2829.3841   130.2078    0.3958      2.5992      1.0338      2.0387      0.1036      0.7409      0.7788      
2805.591    -2805.5841  2829.591    2829.5841   140.8294    0.3553      2.6142      1.0416      2.1467      0.0759      0.8102      0.8495      
2805.791    -2805.784   2829.791    2829.784    135.4565    0.3346      2.5111      1.0495      2.1609      0.0484      0.879       0.9197      
2805.991    -2805.984   2829.991    2829.984    139.7773    0.3402      2.4298      1.0576      2.1487      0.0211      0.9473      0.9893      
2806.191    -2806.1839  2830.191    2830.1839   123.367     0.3519      2.3876      1.0658      2.1504      0.0523      0.8692      0.9162      
2806.391    -2806.3839  2830.391    2830.3839   109.6821    0.3579      2.4074      1.0741      2.1487      0.0833      0.7917      0.8436      
2806.591    -2806.5839  2830.591    2830.5839   105.2937    0.3603      2.4466      1.0826      2.1458      0.1069      0.698       0.7603      
2806.791    -2806.7838  2830.791    2830.7838   98.3774     0.3641      2.4662      1.0912      2.1723      0.1306      0.6044      0.6773      
2806.991    -2806.9838  2830.991    2830.9838   97.587      0.3546      2.4649      1.0995      2.1991      0.1542      0.5108      0.594       
2807.191    -2807.1837  2831.191    2831.1837   100.6399    0.3333      2.4493      1.1417      2.1826      0.1901      0.4347      0.4986      
2807.391    -2807.3837  2831.391    2831.3837   105.5643    0.3255      2.4127      1.1724      2.133       0.2258      0.3586      0.4034      
2807.591    -2807.5837  2831.591    2831.5837   108.9051    0.3281      2.3636      1.1873      2.1088      0.2417      0.3096      0.3555      
2807.791    -2807.7836  2831.791    2831.7836   118.8223    0.3274      2.2925      1.1653      2.1282      0.2575      0.2606      0.3075      
2807.991    -2807.9836  2831.991    2831.9836   112.5786    0.3281      2.2422      1.1317      2.1112      0.2733      0.2116      0.2597      
2808.191    -2808.1836  2832.191    2832.1836   107.635     0.33        2.2094      1.1063      2.0637      0.2689      0.192       0.2477      
2808.391    -2808.3835  2832.391    2832.3835   102.8106    0.3291      2.1558      1.0769      2.063       0.2645      0.1722      0.2357      
2808.591    -2808.5835  2832.591    2832.5835   100.1484    0.3295      2.0772      1.0502      2.0922      0.2805      0.1453      0.2056      
