#----------------------------------------------------------------------------
~VERSION INFORMATION
VERS.            2.0                  :CWLS LOG ASCII STANDARD -VERSION 2.0
WRAP.            NO                   :ONE LINE PER DEPTH STEP
#
#--------------------------------------------------------------------
~WELL INFORMATION
#MNEM .UNIT      DATA                 :DESCRIPTION OF MNEMONIC
#----------      ------------         -------------------------------
STRT  .m         3166.0               :START DEPTH
STEP  .m         0.2                  :STEP DEPTH
STOP  .m         3406.0               :STOP DEPTH
NULL  .          -999.25              :NULL VALUE
COMP  .          	              :COMPANY
WELL  .                               :WELL
LOC   .                               :LOCATION - AREA
FLD   .                               :FIELD
CTRY  .                               :COUNTRY
DATE  .                               :WELL DATE
UWI   .          	              :UWI
ZSTK  .          TVDss                :Z-STICK
XWELL .m         		      :X POS
YWELL .m         	              :Y POS
EDF   .          24.0                 :DERRICK FLOOR ELEVATION
#
#----------------------------------------------------------------------------
~CURVE INFORMATION
#MNEM.UNIT                                  : CURVE DESCRIPTION
#----------                                 -------------------------------
DEPT        .m                              : 1      DEPTH
MD          .m                              : 2      Depth
GR          .API                            : 3      GR
CALIPER     .m                              : 4      Cal
VP          .km/s                           : 5      Vp
VS          .km/s                           : 6      Vs
RHO         .g/cm3                          : 7      Rho
Porosidade  .fract                          : 8      Por
Argilosidade.fract                          : 9      Volume
Saturacao   .fract                          : 10     Sat
#
#----------------------------------------------------------------------------
~A          MD          GR          CALIPER     VP          VS          RHO         Porosidade  Argilosidade Saturacao   
# ...
3313.4      3337.4      141.6161    0.3178      2.5939      0.9623      2.202       0.073       0.818       1.0         
3313.6      3337.6      134.4033    0.3184      2.5887      0.9619      2.2038      0.0485      0.8763      1.0         
3313.8      3337.8      127.997     0.3195      2.5827      0.9598      2.1874      0.1093      0.7204      1.0         
3314.0      3338.0      124.7215    0.322       2.5771      0.9568      2.1612      0.1137      0.7147      1.0         
3314.2      3338.2      122.7581    0.3249      2.5732      0.9541      2.1531      0.0572      0.8573      0.9999      
3314.4      3338.4      124.8481    0.3259      2.5711      0.953       2.1732      0.0709      0.8226      1.0         
3314.6      3338.6      130.0065    0.323       2.5705      0.9535      2.2011      0.0102      0.9746      0.9999      
3314.8      3338.8      128.1165    0.3196      2.571       0.9553      2.2198      0.0131      0.9674      1.0         
3315.0      3339.0      126.6371    0.3191      2.5725      0.9574      2.2267      0.0622      0.8442      0.9999      
3315.2      3339.2      130.3579    0.3175      2.5747      0.9594      2.226       0.0101      0.975       1.0         
3315.4      3339.4      133.6503    0.3139      2.5771      0.9613      2.2264      0.0         1.0         0.9998      
3315.6      3339.6      133.5072    0.312       2.5799      0.9638      2.2314      0.0078      0.9833      1.0         
3315.8      3339.8      132.3514    0.3117      2.5834      0.9678      2.2343      0.0553      0.857       0.9997      
3316.0      3340.0      130.6367    0.3117      2.5883      0.9737      2.2326      0.0805      0.7735      1.0         
3316.2      3340.2      127.2359    0.3117      2.5948      0.9811      2.2321      0.0395      0.8967      0.9996      
3316.4      3340.4      126.71      0.3116      2.6023      0.9889      2.2363      0.0029      0.9934      1.0         
3316.6      3340.6      127.7874    0.3116      2.609       0.9959      2.2418      0.0         1.0         0.9994      
3316.8      3340.8      127.5457    0.3116      2.6117      1.0002      2.2432      4.0E-4      0.9993      1.0         
3317.0      3341.0      123.7707    0.3116      2.6077      1.0008      2.2452      0.0058      0.9829      0.9991      
3317.2      3341.2      121.0311    0.3116      2.5915      0.9981      2.2475      0.0689      0.792       0.9999      
3317.4      3341.4      118.1639    0.3117      2.5613      0.993       2.2189      0.1405      0.5876      0.9445      
3317.6      3341.6      112.4313    0.3118      2.5208      0.9873      2.142       0.2297      0.4054      0.6606      
3317.8      3341.8      105.2703    0.3118      2.4775      0.9832      2.0629      0.3432      0.1227      0.4104      
3318.0      3342.0      99.2955     0.3117      2.4415      0.9818      2.026       0.3884      0.0129      0.3172      
3318.2      3342.2      95.5947     0.3118      2.4217      0.9832      2.0221      0.3894      0.0172      0.2899      
3318.4      3342.4      91.4356     0.3118      2.4206      0.9879      2.0328      0.3759      0.0495      0.2884      
3318.6      3342.6      88.4478     0.3118      2.438       0.9964      2.0554      0.3318      0.1663      0.3135      
3318.8      3342.8      87.4324     0.312       2.4688      1.0084      2.0778      0.3038      0.2414      0.3518      
3319.0      3343.0      87.5323     0.3121      2.5058      1.0233      2.0863      0.3146      0.1724      0.373       
3319.2      3343.2      89.331      0.3119      2.5427      1.0398      2.0875      0.3431      0.0365      0.39        
3319.4      3343.4      90.6114     0.3118      2.5753      1.056       2.0978      0.3273      0.0787      0.4506      
3319.6      3343.6      89.8072     0.3118      2.603       1.0703      2.1189      0.2931      0.1739      0.5599      
3319.8      3343.8      89.7238     0.3117      2.6294      1.0825      2.1386      0.2893      0.1319      0.6395      
3320.0      3344.0      89.7463     0.3118      2.6603      1.0926      2.1611      0.2913      0.0859      0.6907      
3320.2      3344.2      87.4277     0.3118      2.6987      1.1005      2.1914      0.2734      0.1377      0.7577      
3320.4      3344.4      83.4413     0.3117      2.7435      1.1058      2.2006      0.265       0.17        0.7914      
3320.6      3344.6      79.7794     0.3117      2.7864      1.1078      2.1794      0.2773      0.1235      0.7863      
3320.8      3344.8      79.6374     0.3118      2.8138      1.1066      2.1694      0.2797      0.0987      0.8115      
3321.0      3345.0      82.4031     0.3118      2.8188      1.1025      2.1823      0.2262      0.2978      0.9595      
3321.2      3345.2      83.4657     0.3119      2.8023      1.0965      2.1789      0.2438      0.2409      0.9169      
3321.4      3345.4      82.8723     0.312       2.7702      1.0906      2.1514      0.2728      0.1756      0.7944      
3321.6      3345.6      83.764      0.3122      2.7349      1.0864      2.1341      0.2445      0.3299      0.7935      
3321.8      3345.8      85.7267     0.3122      2.706       1.0847      2.1362      0.2685      0.2296      0.7201      
3322.0      3346.0      89.0154     0.3121      2.6871      1.0854      2.1398      0.2662      0.2382      0.7224      
3322.2      3346.2      89.3233     0.3121      2.6773      1.0878      2.1367      0.2374      0.3729      0.7751      
3322.4      3346.4      87.6519     0.3121      2.6727      1.0909      2.1264      0.2379      0.3916      0.7642      
3322.6      3346.6      89.1272     0.3119      2.6688      1.0934      2.1166      0.259       0.3269      0.7134      
3322.8      3346.8      89.6545     0.3118      2.6639      1.0946      2.1216      0.2697      0.2695      0.7003      
3323.0      3347.0      90.3444     0.3117      2.6605      1.0947      2.1279      0.2601      0.3048      0.7293      
3323.2      3347.2      93.1669     0.3117      2.6625      1.0948      2.108       0.2769      0.2919      0.715       
3323.4      3347.4      92.9592     0.3118      2.6754      1.096       2.075       0.2796      0.3036      0.7354      
3323.6      3347.6      87.4405     0.3118      2.7014      1.0993      2.0644      0.2877      0.2635      0.7429      
3323.8      3347.8      80.4052     0.3118      2.7371      1.1048      2.0749      0.3247      0.1317      0.6934      
3324.0      3348.0      78.4517     0.3118      2.7749      1.1117      2.0914      0.2909      0.24        0.7565      
3324.2      3348.2      79.5881     0.3119      2.8038      1.1189      2.1109      0.2857      0.2318      0.7681      
3324.4      3348.4      80.1915     0.3119      2.8131      1.1253      2.1255      0.3022      0.1313      0.7339      
3324.6      3348.6      82.0641     0.3118      2.8043      1.1303      2.1258      0.3184      0.0496      0.6948      
3324.8      3348.8      83.5029     0.3117      2.7796      1.1337      2.119       0.3275      0.0         0.6721      
3325.0      3349.0      83.3002     0.3118      2.7508      1.136       2.114       0.3218      0.0486      0.6792      
3325.2      3349.2      83.9787     0.3118      2.7303      1.1384      2.1092      0.2928      0.2041      0.749       
3325.4      3349.4      82.5031     0.3118      2.7241      1.1425      2.1031      0.2849      0.2585      0.7922      
3325.6      3349.6      81.6692     0.3118      2.7308      1.1494      2.0981      0.3021      0.2009      0.7839      
3325.8      3349.8      85.2607     0.3118      2.7491      1.1589      2.1032      0.3288      0.0738      0.7576      
3326.0      3350.0      87.2356     0.3118      2.7728      1.1704      2.1221      0.2882      0.174       0.8356      
3326.2      3350.2      86.7122     0.3119      2.7982      1.1832      2.1404      0.2087      0.4401      0.9587      
3326.4      3350.4      86.1174     0.312       2.8248      1.1971      2.1442      0.2632      0.2422      0.8528      
3326.6      3350.6      85.6948     0.3121      2.8505      1.2106      2.1363      0.2756      0.2059      0.764       
