#----------------------------------------------------------------------------
~VERSION INFORMATION
VERS.            2.0                  :CWLS LOG ASCII STANDARD -VERSION 2.0
WRAP.            NO                   :ONE LINE PER DEPTH STEP
#
#--------------------------------------------------------------------
~WELL INFORMATION
#MNEM .UNIT      DATA                 :DESCRIPTION OF MNEMONIC
#----------      ------------         -------------------------------
STRT  .m         1761.0               :START DEPTH
STEP  .m         0.2                  :STEP DEPTH
STOP  .m         3172.6718            :STOP DEPTH
NULL  .          -999.25              :NULL VALUE
COMP  .          Petrobras            :COMPANY
WELL  .          RO82                 :WELL
LOC   .                               :LOCATION - AREA
FLD   .                               :FIELD
CTRY  .                               :COUNTRY
DATE  .                               :WELL DATE
UWI   .          742810331400         :UWI
ZSTK  .          TVDss                :Z-STICK
XWELL .m         421843.59            :X POS
YWELL .m         7571342              :Y POS
EDF   .          25.0                 :DERRICK FLOOR ELEVATION
#
#----------------------------------------------------------------------------
~CURVE INFORMATION
#MNEM.UNIT                                  : CURVE DESCRIPTION
#----------                                 -------------------------------
DEPT        .m                              : 1      DEPTH
Depth_TVDkb .m                              : 2      Depth
Depth_MD    .m                              : 3      Depth
GR          .API                            : 4      GR
CALIPER     .m                              : 5      Cal
VP          .km/s                           : 6      Vp
VS          .km/s                           : 7      Vs
RHO         .g/cm3                          : 8      Rho
Porosidade  .fract                          : 9      Por
Argilosidade.fract                          : 10     Volume
Saturacao   .fract                          : 11     Sat
#
#----------------------------------------------------------------------------
~A          Depth_TVDkb Depth_MD    GR          CALIPER     VP          VS          RHO         Porosidade  Argilosidade Saturacao   
2835.0      2860.0      2860.0      100.7194    0.3279      2.5185      1.0295      2.1559      0.0012      0.9002      0.5869      
2835.2      2860.2      2860.2      105.1886    0.3281      2.5711      1.038       2.2329      6.0E-4      0.9501      0.6528      
2835.4      2860.4      2860.4      112.1201    0.3283      2.5608      1.0306      2.2565      0.0         1.0         0.7188      
2835.6      2860.6      2860.6      115.919     0.3261      2.5345      1.0389      2.2461      0.0         1.0         0.7673      
2835.8      2860.8      2860.8      118.7115    0.3239      2.4956      1.0258      2.2326      0.0         1.0         0.8158      
2836.0      2861.0      2861.0      122.197     0.3217      2.4664      1.0084      2.2238      0.0         1.0         0.8643      
2836.2      2861.2      2861.2      126.8256    0.3212      2.4611      0.9909      2.2092      0.0         1.0         0.9033      
2836.4      2861.4      2861.4      130.3249    0.3208      2.4672      0.9776      2.1933      0.0         1.0         0.9424      
2836.6      2861.6      2861.6      129.4977    0.3206      2.4756      0.9693      2.1958      0.0341      0.8848      0.9616      
2836.8      2861.8      2861.8      126.866     0.3205      2.485       0.9641      2.2136      0.0681      0.7697      0.9808      
2837.0      2862.0      2862.0      124.8764    0.3203      2.4871      0.9597      2.2148      0.1022      0.6545      1.0         
2837.2      2862.2      2862.2      122.2356    0.3204      2.4857      0.9583      2.196       0.0511      0.795       1.0         
2837.4      2862.4      2862.4      119.5365    0.3206      2.4942      0.9641      2.1955      0.0         0.9354      1.0         
2837.6      2862.6      2862.6      117.5336    0.3206      2.5085      0.976       2.2268      0.0         0.9078      1.0         
2837.8      2862.8      2862.8      115.2744    0.3205      2.5359      0.99        2.2551      0.0         0.8802      1.0         
2838.0      2863.0      2863.0      113.7123    0.3205      2.5627      1.0028      2.2647      0.0         0.8526      1.0         
2838.2      2863.2      2863.2      113.5454    0.3205      2.5743      1.0124      2.2659      0.0         0.9263      0.9419      
2838.4      2863.4      2863.4      113.6996    0.3205      2.5739      1.0191      2.2606      0.0         1.0         0.8838      
2838.6      2863.6      2863.6      113.6569    0.3205      2.5675      1.0243      2.2521      0.0         0.9859      0.8916      
2838.8      2863.8      2863.8      113.0861    0.3204      2.5677      1.0279      2.2493      0.0         0.9718      0.8994      
2839.0      2864.0      2864.0      113.5226    0.3204      2.5752      1.0285      2.2533      0.0         0.9577      0.9072      
2839.2      2864.2      2864.2      117.1218    0.3203      2.5877      1.0253      2.2558      0.0174      0.872       0.9536      
2839.4      2864.4      2864.4      120.2163    0.3203      2.591       1.0193      2.2471      0.0348      0.7862      1.0         
2839.6      2864.6      2864.6      119.1908    0.3203      2.5846      1.0147      2.2355      0.0232      0.8575      0.9541      
2839.8      2864.8      2864.8      116.6816    0.3203      2.5721      1.0139      2.2312      0.0116      0.9287      0.9082      
2840.0      2865.0      2865.0      114.2328    0.3204      2.5748      1.0179      2.2353      0.0         1.0         0.8623      
2840.2      2865.2      2865.2      109.4065    0.3205      2.5834      1.0229      2.2465      0.0         1.0         0.8555      
2840.4      2865.4      2865.4      105.1453    0.3206      2.593       1.0266      2.2578      0.0         1.0         0.8486      
2840.6      2865.6      2865.6      104.3404    0.3205      2.6025      1.0284      2.2641      0.0         1.0         0.8483      
2840.8      2865.8      2865.8      104.3964    0.3204      2.615       1.0302      2.2663      0.0         1.0         0.848       
2841.0      2866.0      2866.0      104.0459    0.3204      2.6228      1.0322      2.2671      0.0         1.0         0.8477      
2841.2      2866.2      2866.2      103.8819    0.3204      2.6104      1.0325      2.2656      0.0         1.0         0.8486      
2841.4      2866.4      2866.4      103.6341    0.3204      2.5793      1.0307      2.2603      0.0         1.0         0.8496      
2841.6      2866.6      2866.6      103.1419    0.3203      2.5734      1.0291      2.2547      0.0207      0.889       0.8997      
2841.8      2866.8      2866.8      102.4695    0.3202      2.5862      1.0289      2.2561      0.0414      0.778       0.9499      
2842.0      2867.0      2867.0      102.5473    0.3202      2.5828      1.0285      2.2574      0.062       0.667       1.0         
2842.2      2867.2      2867.2      104.869     0.3201      2.5812      1.0261      2.25        0.031       0.8335      0.9341      
2842.4      2867.4      2867.4      108.1718    0.3201      2.5736      1.0204      2.2458      0.0         1.0         0.8682      
2842.6      2867.6      2867.6      111.4384    0.3201      2.5824      1.0095      2.252       0.0         0.9956      0.8825      
2842.8      2867.8      2867.8      115.4438    0.3201      2.5702      0.9963      2.254       0.0         0.9911      0.8968      
2843.0      2868.0      2868.0      118.1758    0.3201      2.5483      0.9849      2.2405      0.0         0.9867      0.9111      
2843.2      2868.2      2868.2      118.3127    0.32        2.5324      0.9796      2.2235      0.0         0.9934      0.9023      
2843.4      2868.4      2868.4      117.647     0.3198      2.5324      0.9808      2.2197      0.0         1.0         0.8936      
2843.6      2868.6      2868.6      117.7102    0.3204      2.5426      0.9881      2.2293      0.0         1.0         0.8805      
2843.8      2868.8      2868.8      118.4261    0.3209      2.5637      1.0005      2.2449      0.0         1.0         0.8675      
2844.0      2869.0      2869.0      117.621     0.3214      2.5875      1.0136      2.2543      0.0         1.0         0.8545      
2844.2      2869.2      2869.2      112.4808    0.3212      2.5904      1.0234      2.2538      0.0         1.0         0.8584      
2844.4      2869.4      2869.4      107.5451    0.3209      2.5786      1.0289      2.2525      0.0         1.0         0.8623      
2844.6      2869.6      2869.6      107.0724    0.3211      2.559       1.0303      2.2542      0.0         0.9824      0.8822      
2844.8      2869.8      2869.8      108.6171    0.3212      2.546       1.0289      2.2559      0.0         0.9648      0.902       
2845.0      2870.0      2870.0      108.8009    0.3213      2.5415      1.0255      2.2496      0.0         0.9472      0.9219      
2845.2      2870.2      2870.2      107.1195    0.3214      2.5389      1.0194      2.2362      0.0         0.9736      0.9106      
2845.4      2870.4      2870.4      105.8429    0.3216      2.532       1.0121      2.2303      0.0         1.0         0.8994      
2845.6      2870.6      2870.6      107.0639    0.3215      2.529       1.0051      2.2333      0.0         0.9861      0.9141      
2845.8      2870.8      2870.8      109.7421    0.3215      2.5271      0.9981      2.2345      0.0         0.9722      0.9287      
2846.0      2871.0      2871.0      111.3437    0.3215      2.5257      0.9901      2.2337      0.0         0.9583      0.9434      
2846.2      2871.2      2871.2      111.2152    0.3214      2.5202      0.9832      2.2299      0.0061      0.9171      0.9717      
2846.4      2871.4      2871.4      110.8227    0.3213      2.5281      0.984       2.2247      0.0122      0.876       1.0         
2846.6      2871.6      2871.6      111.4859    0.3214      2.5514      0.9955      2.2277      0.0197      0.8362      1.0         
2846.8      2871.8      2871.8      112.2596    0.3214      2.5871      1.0135      2.2374      0.0271      0.7964      1.0         
2847.0      2872.0      2872.0      113.5306    0.3215      2.6103      1.0313      2.2468      0.0345      0.7566      1.0         
