#----------------------------------------------------------------------------
~VERSION INFORMATION
VERS.            2.0                  :CWLS LOG ASCII STANDARD -VERSION 2.0
WRAP.            NO                   :ONE LINE PER DEPTH STEP
#
#--------------------------------------------------------------------
~WELL INFORMATION
#MNEM .UNIT      DATA                 :DESCRIPTION OF MNEMONIC
#----------      ------------         -------------------------------
STRT  .m         1761.0               :START DEPTH
STEP  .m         0.2                  :STEP DEPTH
STOP  .m         3172.6718            :STOP DEPTH
NULL  .          -999.25              :NULL VALUE
COMP  .          Petrobras            :COMPANY
WELL  .          RO82                 :WELL
LOC   .                               :LOCATION - AREA
FLD   .                               :FIELD
CTRY  .                               :COUNTRY
DATE  .                               :WELL DATE
UWI   .          742810331400         :UWI
ZSTK  .          TVDss                :Z-STICK
XWELL .m         421843.59            :X POS
YWELL .m         7571342              :Y POS
EDF   .          25.0                 :DERRICK FLOOR ELEVATION
#
#----------------------------------------------------------------------------
~CURVE INFORMATION
#MNEM.UNIT                                  : CURVE DESCRIPTION
#----------                                 -------------------------------
DEPT        .m                              : 1      DEPTH
Depth_TVDkb .m                              : 2      Depth
Depth_MD    .m                              : 3      Depth
GR          .API                            : 4      GR
CALIPER     .m                              : 5      Cal
VP          .km/s                           : 6      Vp
VS          .km/s                           : 7      Vs
RHO         .g/cm3                          : 8      Rho
Porosidade  .fract                          : 9      Por
Argilosidade.fract                          : 10     Volume
Saturacao   .fract                          : 11     Sat
#
#----------------------------------------------------------------------------
~A          Depth_TVDkb Depth_MD    GR          CALIPER     VP          VS          RHO         Porosidade  Argilosidade Saturacao   
# ...
2993.6      3018.6      3018.6      110.9838    0.3248      2.4256      1.1962      2.1032      0.3674      1.0E-4      0.2026      
2993.8      3018.8      3018.8      108.834     0.3258      2.431       1.1971      2.0964      0.3674      1.0E-4      0.2012      
2994.0      3019.0      3019.0      108.3927    0.3268      2.439       1.2044      2.0954      0.3674      0.0         0.1997      
2994.2      3019.2      3019.2      109.7327    0.3266      2.4504      1.2172      2.1002      0.3283      0.1241      0.2029      
2994.4      3019.4      3019.4      111.789     0.3264      2.4536      1.229       2.1052      0.2892      0.2482      0.2061      
2994.6      3019.6      3019.6      113.3182    0.3266      2.4471      1.2326      2.1051      0.3205      0.1724      0.2131      
2994.8      3019.8      3019.8      114.7283    0.3268      2.4386      1.2288      2.0899      0.3517      0.0965      0.2202      
2995.0      3020.0      3020.0      115.9339    0.3271      2.4295      1.2267      2.0695      0.3829      0.0207      0.2272      
2995.2      3020.2      3020.2      116.2746    0.327       2.4248      1.2335      2.0707      0.3643      0.058       0.2351      
2995.4      3020.4      3020.4      116.1928    0.327       2.4327      1.249       2.0856      0.3458      0.0954      0.243       
2995.6      3020.6      3020.6      116.1009    0.3268      2.4538      1.2689      2.0915      0.3339      0.1064      0.242       
2995.8      3020.8      3020.8      115.9562    0.3265      2.4694      1.288       2.1002      0.322       0.1174      0.241       
2996.0      3021.0      3021.0      115.654     0.3263      2.4759      1.2964      2.1213      0.31        0.1284      0.2401      
2996.2      3021.2      3021.2      115.2875    0.3263      2.4526      1.2964      2.1294      0.355       0.0642      0.2126      
2996.4      3021.4      3021.4      114.3073    0.3263      2.3944      1.279       2.0975      0.4         0.0         0.1851      
2996.6      3021.6      3021.6      111.7934    0.3264      2.3408      1.2396      2.0458      0.3084      0.2289      0.1688      
2996.8      3021.8      3021.8      108.7844    0.3265      2.3252      1.2091      2.028       0.2169      0.4578      0.1526      
2997.0      3022.0      3022.0      105.6904    0.3267      2.3396      1.2065      2.07        0.1253      0.6867      0.1363      
2997.2      3022.2      3022.2      101.1323    0.3266      2.371       1.2105      2.1337      0.1899      0.5063      0.1429      
2997.4      3022.4      3022.4      97.078      0.3265      2.4165      1.2545      2.1481      0.2546      0.3258      0.1495      
2997.6      3022.6      3022.6      95.3739     0.3269      2.444       1.2713      2.1209      0.2826      0.234       0.1476      
2997.8      3022.8      3022.8      93.8893     0.3273      2.4579      1.276       2.1109      0.3106      0.1422      0.1458      
2998.0      3023.0      3023.0      93.2958     0.3277      2.4678      1.276       2.1209      0.3386      0.0504      0.144       
2998.2      3023.2      3023.2      95.813      0.3274      2.4794      1.2741      2.1229      0.3483      0.0252      0.1401      
2998.4      3023.4      3023.4      98.7643     0.327       2.4793      1.2704      2.1188      0.3581      0.0         0.1363      
2998.6      3023.6      3023.6      99.6689     0.3265      2.4829      1.2752      2.1159      0.3448      0.0142      0.1381      
2998.8      3023.8      3023.8      99.7058     0.326       2.4973      1.2781      2.1228      0.3316      0.0283      0.1399      
2999.0      3024.0      3024.0      100.9374    0.3255      2.5054      1.2738      2.1403      0.3183      0.0425      0.1418      
2999.2      3024.2      3024.2      104.7624    0.3257      2.4999      1.2797      2.1567      0.2571      0.2132      0.1295      
2999.4      3024.4      3024.4      108.1385    0.326       2.5171      1.2844      2.1691      0.1958      0.384       0.1172      
2999.6      3024.6      3024.6      108.0666    0.3259      2.5323      1.2887      2.1815      0.2015      0.3688      0.1179      
2999.8      3024.8      3024.8      105.9747    0.3259      2.5461      1.2931      2.191       0.2071      0.3536      0.1186      
3000.0      3025.0      3025.0      105.6121    0.3258      2.5593      1.2974      2.1888      0.2128      0.3384      0.1193      
3000.2      3025.2      3025.2      108.3376    0.3258      2.5579      1.3016      2.1773      0.2584      0.206       0.1275      
3000.4      3025.4      3025.4      111.0484    0.3257      2.5247      1.3058      2.1665      0.304       0.0735      0.1356      
3000.6      3025.6      3025.6      110.6634    0.3256      2.5122      1.31        2.1638      0.3094      0.0572      0.1356      
3000.8      3025.8      3025.8      108.3612    0.3256      2.5119      1.3136      2.1706      0.3147      0.0409      0.1356      
3001.0      3026.0      3026.0      108.108     0.3255      2.5034      1.3144      2.1757      0.3201      0.0246      0.1356      
3001.2      3026.2      3026.2      110.7584    0.3253      2.4857      1.3098      2.1623      0.3197      0.0123      0.136       
3001.4      3026.4      3026.4      113.3172    0.325       2.4968      1.3011      2.1439      0.3192      0.0         0.1363      
3001.6      3026.6      3026.6      112.6453    0.325       2.4828      1.2917      2.1347      0.3196      0.0         0.1355      
3001.8      3026.8      3026.8      110.263     0.325       2.4423      1.2832      2.1304      0.3201      0.0         0.1346      
3002.0      3027.0      3027.0      109.177     0.325       2.4141      1.2775      2.1299      0.3205      0.0         0.1338      
3002.2      3027.2      3027.2      109.4066    0.3245      2.4073      1.2748      2.1353      0.3244      0.0         0.1315      
3002.4      3027.4      3027.4      110.1848    0.324       2.4123      1.2732      2.1461      0.3282      0.0         0.1293      
3002.6      3027.6      3027.6      110.7048    0.3241      2.4205      1.2718      2.1593      0.3221      0.0         0.1315      
3002.8      3027.8      3027.8      110.8516    0.3242      2.4361      1.2704      2.1648      0.316       0.0         0.1336      
3003.0      3028.0      3028.0      111.4244    0.3243      2.4559      1.2686      2.1602      0.3098      0.0         0.1357      
3003.2      3028.2      3028.2      113.5188    0.3257      2.479       1.2658      2.154       0.3224      0.0         0.1312      
3003.4      3028.4      3028.4      114.7901    0.327       2.4892      1.263       2.1512      0.335       0.0         0.1268      
3003.6      3028.6      3028.6      113.369     0.3268      2.4733      1.2642      2.1512      0.3338      0.0125      0.124       
3003.8      3028.8      3028.8      110.7385    0.3267      2.4572      1.2753      2.1502      0.3325      0.0251      0.1212      
3004.0      3029.0      3029.0      108.3213    0.3265      2.4659      1.2863      2.1453      0.3313      0.0376      0.1185      
3004.2      3029.2      3029.2      104.5363    0.3256      2.4992      1.2865      2.1397      0.3342      0.0188      0.1236      
3004.4      3029.4      3029.4      101.5415    0.3247      2.537       1.2808      2.1403      0.337       0.0         0.1287      
3004.6      3029.6      3029.6      101.3001    0.3245      2.5895      1.2738      2.146       0.3106      0.0528      0.1477      
3004.8      3029.8      3029.8      101.565     0.3244      2.6488      1.2692      2.1562      0.2842      0.1055      0.1667      
3005.0      3030.0      3030.0      102.3218    0.3242      2.6973      1.2663      2.1775      0.2577      0.1583      0.1856      
3005.2      3030.2      3030.2      106.0002    0.3257      2.7182      1.2617      2.1935      0.2877      0.1094      0.2218      
3005.4      3030.4      3030.4      110.7782    0.3272      2.7138      1.2511      2.175       0.3176      0.0606      0.2579      
3005.6      3030.6      3030.6      115.5293    0.3276      2.6928      1.2295      2.1494      0.2929      0.1395      0.3708      
