#----------------------------------------------------------------------------
~VERSION INFORMATION
VERS.            2.0                  :CWLS LOG ASCII STANDARD -VERSION 2.0
WRAP.            NO                   :ONE LINE PER DEPTH STEP
#
#--------------------------------------------------------------------
~WELL INFORMATION
#MNEM .UNIT      DATA                 :DESCRIPTION OF MNEMONIC
#----------      ------------         -------------------------------
STRT  .m         3166.1892            :START DEPTH
STEP  .m         0.2                  :STEP DEPTH
STOP  .m         3426.1892            :STOP DEPTH
NULL  .          -999.25              :NULL VALUE
COMP  .                               :COMPANY
WELL  .                               :WELL
LOC   .                               :LOCATION - AREA
FLD   .          	              :FIELD
CTRY  .                               :COUNTRY
DATE  .                               :WELL DATE
UWI   .            	              :UWI
ZSTK  .          TVDss                :Z-STICK
XWELL .m         	              :X POS
YWELL .m         	              :Y POS
EDF   .          14.0                 :DERRICK FLOOR ELEVATION
#
#----------------------------------------------------------------------------
~CURVE INFORMATION
#MNEM.UNIT                                              : CURVE DESCRIPTION
#----------                                             -------------------------------
DEPT                    .m                              : 1      DEPTH
MD                      .m                              : 2      Depth
GR                      .API                            : 3      GR
CALIPER                 .m                              : 4      Cal
VP                      .km/s                           : 5      Vp
Vs_calculado_de_VPVS    .km/s                           : 6      Vs
RHO                     .g/cm3                          : 7      Rho
Porosidade              .fract                          : 8      Por
Argilosidade            .fract                          : 9      Volume
Saturacao               .fract                          : 10     Sat
#
#----------------------------------------------------------------------------
~A                      MD                      GR                      CALIPER                 VP                      Vs_calculado_de_VPVS    RHO                     Porosidade              Argilosidade            Saturacao               
# ...
3200.1892               3214.1892               97.9799                 0.3485                  2.6395                  0.9221                  2.2795                  0.0876                  0.781                   1.0                     
3200.3892               3214.3892               93.2691                 0.3421                  2.635                   0.9326                  2.2833                  0.0745                  0.8135                  1.0                     
3200.5892               3214.5892               91.1998                 0.3377                  2.6402                  0.9341                  2.2882                  0.0546                  0.8637                  1.0                     
3200.7892               3214.7892               91.5288                 0.3394                  2.656                   0.9261                  2.2962                  0.0357                  0.911                   1.0                     
3200.9892               3214.9892               94.8596                 0.3411                  2.6797                  0.9159                  2.3071                  0.0154                  0.9615                  1.0                     
3201.1892               3215.1892               95.6605                 0.3389                  2.7066                  0.9128                  2.3188                  0.0061                  0.9848                  1.0                     
3201.3892               3215.3892               95.127                  0.3344                  2.7315                  0.9171                  2.3288                  0.0098                  0.9755                  1.0                     
3201.5892               3215.5892               92.8444                 0.3338                  2.75                    0.9237                  2.3341                  0.0171                  0.9572                  1.0                     
3201.7892               3215.7892               91.4655                 0.3336                  2.7601                  0.9277                  2.3328                  0.0129                  0.9678                  1.0                     
3201.9892               3215.9892               93.4463                 0.3311                  2.7617                  0.9269                  2.3248                  0.0044                  0.9891                  1.0                     
3202.1892               3216.1892               94.6717                 0.3284                  2.7569                  0.9256                  2.3122                  0.0226                  0.9435                  0.974                   
3202.3892               3216.3892               94.0031                 0.33                    2.7489                  0.9309                  2.298                   0.0815                  0.7962                  0.9016                  
3202.5892               3216.5892               91.1245                 0.33                    2.7412                  0.9443                  2.2866                  0.1588                  0.6031                  0.8088                  
3202.7892               3216.7892               93.9084                 0.3282                  2.7366                  0.9607                  2.282                   0.12                    0.6999                  0.8554                  
3202.9892               3216.9892               97.661                  0.3291                  2.7362                  0.9694                  2.2864                  0.0468                  0.883                   0.9432                  
3203.1892               3217.1892               98.12                   0.3328                  2.7388                  0.9668                  2.2982                  0.0055                  0.9862                  0.9961                  
3203.3892               3217.3892               95.662                  0.3352                  2.742                   0.9613                  2.3119                  0.0061                  0.9848                  1.0                     
3203.5892               3217.5892               96.1035                 0.3332                  2.7429                  0.9638                  2.3215                  0.0111                  0.9726                  1.0                     
3203.7892               3217.7892               96.0692                 0.333                   2.7403                  0.9769                  2.3243                  0.028                   0.9221                  1.0                     
3203.9892               3217.9892               94.499                  0.3377                  2.7349                  0.9875                  2.3211                  0.0502                  0.8545                  1.0                     
3204.1892               3218.1892               91.3074                 0.3438                  2.7297                  0.9878                  2.3145                  0.0682                  0.7977                  1.0                     
3204.3892               3218.3892               90.4983                 0.3466                  2.728                   0.9811                  2.3085                  0.0813                  0.7527                  1.0                     
3204.5892               3218.5892               91.0517                 0.3447                  2.7319                  0.9732                  2.3075                  0.0952                  0.7038                  1.0                     
3204.7892               3218.7892               92.7671                 0.3378                  2.7405                  0.9668                  2.3135                  0.0697                  0.7828                  0.9954                  
3204.9892               3218.9892               94.8201                 0.3336                  2.7506                  0.9629                  2.3246                  0.0273                  0.9148                  0.9875                  
3205.1892               3219.1892               97.1961                 0.3335                  2.7578                  0.9616                  2.3365                  0.0019                  0.9942                  0.9867                  
3205.3892               3219.3892               96.8781                 0.333                   2.7584                  0.9623                  2.3451                  0.0                     1.0                     0.9914                  
3205.5892               3219.5892               96.5986                 0.3316                  2.7508                  0.9663                  2.3488                  0.0                     1.0                     0.9993                  
3205.7892               3219.7892               96.8934                 0.3323                  2.7366                  0.9723                  2.3474                  0.0128                  0.9681                  1.0                     
3205.9892               3219.9892               96.1765                 0.3368                  2.7196                  0.9777                  2.3419                  0.0345                  0.9136                  1.0                     
3206.1892               3220.1892               91.7719                 0.34                    2.704                   0.9799                  2.3344                  0.0366                  0.9085                  1.0                     
3206.3892               3220.3892               90.6601                 0.3382                  2.6932                  0.9771                  2.3281                  0.0238                  0.9405                  1.0                     
3206.5892               3220.5892               92.7551                 0.335                   2.6883                  0.9705                  2.3244                  0.0021                  0.9949                  1.0                     
3206.7892               3220.7892               96.5813                 0.334                   2.6887                  0.9621                  2.3221                  0.0151                  0.9623                  1.0                     
