#----------------------------------------------------------------------------
~VERSION INFORMATION
VERS.            2.0                  :CWLS LOG ASCII STANDARD -VERSION 2.0
WRAP.            NO                   :ONE LINE PER DEPTH STEP
#
#--------------------------------------------------------------------
~WELL INFORMATION
#MNEM .UNIT      DATA                 :DESCRIPTION OF MNEMONIC
#----------      ------------         -------------------------------
STRT  .m         3166.0               :START DEPTH
STEP  .m         0.2                  :STEP DEPTH
STOP  .m         3406.0               :STOP DEPTH
NULL  .          -999.25              :NULL VALUE
COMP  .          	              :COMPANY
WELL  .                               :WELL
LOC   .                               :LOCATION - AREA
FLD   .                               :FIELD
CTRY  .                               :COUNTRY
DATE  .                               :WELL DATE
UWI   .          	              :UWI
ZSTK  .          TVDss                :Z-STICK
XWELL .m         		      :X POS
YWELL .m         	              :Y POS
EDF   .          24.0                 :DERRICK FLOOR ELEVATION
#
#----------------------------------------------------------------------------
~CURVE INFORMATION
#MNEM.UNIT                                  : CURVE DESCRIPTION
#----------                                 -------------------------------
DEPT        .m                              : 1      DEPTH
MD          .m                              : 2      Depth
GR          .API                            : 3      GR
CALIPER     .m                              : 4      Cal
VP          .km/s                           : 5      Vp
VS          .km/s                           : 6      Vs
RHO         .g/cm3                          : 7      Rho
Porosidade  .fract                          : 8      Por
Argilosidade.fract                          : 9      Volume
Saturacao   .fract                          : 10     Sat
#
#----------------------------------------------------------------------------
~A          MD          GR          CALIPER     VP          VS          RHO         Porosidade  Argilosidade Saturacao   
# ...
3192.8      3216.8      92.9312     0.3299      2.6328      1.0273      2.2975      0.0156      0.8919      1.0         
3193.0      3217.0      92.0821     0.3304      2.6469      1.0313      2.2992      0.0063      0.9318      0.9913      
3193.2      3217.2      95.0289     0.3317      2.6578      1.0333      2.3062      3.0E-4      0.9909      0.9465      
3193.4      3217.4      97.2157     0.3324      2.6639      1.0337      2.3078      0.0         1.0         0.9387      
3193.6      3217.6      98.0661     0.3346      2.6654      1.0335      2.3121      0.0         0.9986      0.934       
3193.8      3217.8      98.0659     0.3364      2.6638      1.0333      2.3146      0.0         1.0         0.9261      
3194.0      3218.0      97.8833     0.3322      2.6606      1.0334      2.3106      1.0E-4      0.999       0.932       
3194.2      3218.2      99.1449     0.328       2.6581      1.0339      2.3096      0.0         1.0         0.936       
3194.4      3218.4      99.0079     0.3283      2.6577      1.0346      2.3109      2.0E-4      0.9993      0.9347      
3194.6      3218.6      97.3023     0.3316      2.6598      1.0355      2.303       0.0         1.0         0.9335      
3194.8      3218.8      95.4103     0.3338      2.6649      1.0365      2.2874      0.0021      0.9747      0.95        
3195.0      3219.0      92.7017     0.334       2.6719      1.0375      2.2812      0.0143      0.9105      0.9956      
3195.2      3219.2      90.1906     0.3341      2.6788      1.0383      2.2871      0.0112      0.9281      0.9797      
3195.4      3219.4      88.3575     0.3319      2.6835      1.039       2.2907      9.0E-4      0.9908      0.9191      
3195.6      3219.6      88.2175     0.3294      2.6847      1.0394      2.3006      2.0E-4      1.0         0.9183      
3195.8      3219.8      90.1554     0.3295      2.6829      1.0399      2.3261      0.0         0.9988      0.925       
3196.0      3220.0      93.3095     0.3317      2.6794      1.0407      2.3399      2.0E-4      1.0         0.9158      
3196.2      3220.2      94.6915     0.3304      2.6763      1.0419      2.333       0.0         0.9983      0.9271      
3196.4      3220.4      95.6003     0.3301      2.6754      1.0436      2.3218      2.0E-4      1.0         0.9289      
3196.6      3220.6      95.2912     0.3356      2.6773      1.0458      2.309       0.0019      0.9802      0.9552      
3196.8      3220.8      93.2777     0.3365      2.6823      1.048       2.3067      0.0183      0.8712      0.9886      
3197.0      3221.0      91.4318     0.3301      2.6883      1.049       2.2982      0.0319      0.8799      1.0         
3197.2      3221.2      90.5534     0.3263      2.692       1.0474      2.2363      0.0856      0.7491      0.9433      
3197.4      3221.4      88.847      0.3252      2.691       1.0421      2.1768      0.1564      0.4956      0.8503      
3197.6      3221.6      90.0923     0.3251      2.6838      1.0339      2.2019      0.0983      0.6721      0.9619      
3197.8      3221.8      95.6305     0.3252      2.6726      1.0255      2.2632      0.0076      0.9709      0.9939      
3198.0      3222.0      100.3208    0.3253      2.661       1.0196      2.2915      6.0E-4      0.9997      0.992       
3198.2      3222.2      101.4808    0.3255      2.6524      1.018       2.3026      3.0E-4      0.9873      1.0         
3198.4      3222.4      98.4848     0.3265      2.6488      1.0199      2.301       0.0204      0.8357      0.9978      
3198.6      3222.6      96.0187     0.3277      2.6505      1.0253      2.2897      0.0292      0.8291      0.9975      
3198.8      3222.8      96.9605     0.3295      2.6574      1.0328      2.299       0.0143      0.9361      0.978       
3199.0      3223.0      95.358      0.331       2.6677      1.0416      2.3162      0.0258      0.8749      0.9959      
3199.2      3223.2      91.9819     0.3275      2.6801      1.0515      2.3236      0.0077      0.9406      0.9927      
3199.4      3223.4      92.4081     0.3224      2.6945      1.0629      2.3433      0.0         1.0         0.926       
3199.6      3223.6      94.5126     0.3209      2.7113      1.076       2.3663      0.0013      0.9916      0.9008      
3199.8      3223.8      93.6999     0.3209      2.7288      1.0903      2.3678      0.0         1.0         0.8942      
3200.0      3224.0      91.3072     0.3209      2.7432      1.1053      2.3637      0.001       0.9731      0.9133      
3200.2      3224.2      90.6832     0.3209      2.7504      1.1199      2.3639      0.0         0.8826      0.9788      
3200.4      3224.4      91.4853     0.3209      2.7482      1.1303      2.3574      9.0E-4      0.8996      0.9788      
3200.6      3224.6      91.2293     0.321       2.7344      1.133       2.3471      0.0         0.9104      0.9755      
3200.8      3224.8      90.6556     0.321       2.7057      1.1249      2.3387      9.0E-4      0.9729      0.9391      
3201.0      3225.0      92.7181     0.3207      2.6604      1.1046      2.3313      0.0         0.9929      0.9527      
3201.2      3225.2      100.007     0.3199      2.5985      1.0768      2.3156      0.0221      0.8474      0.9678      
3201.4      3225.4      105.8865    0.3191      2.5252      1.0488      2.2588      0.0833      0.7198      0.7497      
3201.6      3225.6      100.2184    0.3186      2.4508      1.0266      2.162       0.2112      0.4248      0.3538      
3201.8      3225.8      88.5526     0.3182      2.3854      1.0132      2.0928      0.3286      0.0531      0.195       
3202.0      3226.0      82.8486     0.3181      2.335       1.0078      2.0844      0.3457      0.0079      0.1749      
3202.2      3226.2      80.9432     0.3181      2.3023      1.0073      2.0968      0.3417      0.0117      0.163       
3202.4      3226.4      80.6304     0.3181      2.2874      1.0082      2.1016      0.3398      0.0         0.1705      
3202.6      3226.6      82.2873     0.3181      2.2866      1.0089      2.1067      0.3358      0.0064      0.169       
3202.8      3226.8      84.2959     0.3181      2.2989      1.0094      2.1182      0.3369      0.0         0.186       
3203.0      3227.0      87.647      0.3181      2.3229      1.0109      2.1293      0.3248      0.0202      0.2068      
3203.2      3227.2      92.5676     0.3181      2.3575      1.0152      2.1381      0.2956      0.1161      0.2383      
3203.4      3227.4      95.5486     0.3181      2.4         1.0231      2.1625      0.209       0.4137      0.2897      
3203.6      3227.6      97.3378     0.3181      2.4474      1.0353      2.2047      0.1512      0.5749      0.4208      
3203.8      3227.8      100.1487    0.3181      2.4958      1.0525      2.2295      0.1243      0.6199      0.6281      
3204.0      3228.0      102.1523    0.3182      2.5417      1.0746      2.2265      0.0515      0.8592      0.7685      
3204.2      3228.2      102.4322    0.3182      2.5834      1.1005      2.227       0.0846      0.7588      0.7807      
3204.4      3228.4      103.5746    0.3181      2.6204      1.1275      2.2446      0.0985      0.6758      0.7847      
3204.6      3228.6      104.4637    0.3181      2.6523      1.1515      2.2595      0.059       0.8083      0.7909      
3204.8      3228.8      103.4102    0.3183      2.6786      1.1672      2.2638      0.0417      0.8663      0.7826      
3205.0      3229.0      100.4617    0.3187      2.6976      1.171       2.2737      0.0052      0.9785      0.738       
3205.2      3229.2      100.2207    0.3188      2.7073      1.1624      2.2949      5.0E-4      0.9516      0.7747      
3205.4      3229.4      104.3799    0.3187      2.705       1.1408      2.3148      0.0         0.9561      0.7947      
3205.6      3229.6      106.7291    0.3186      2.6858      1.1113      2.3226      0.0043      0.9484      0.7774      
3205.8      3229.8      107.3269    0.3185      2.6449      1.0797      2.2964      0.0609      0.7311      0.7256      
3206.0      3230.0      104.6623    0.3183      2.5856      1.0506      2.2189      0.1694      0.468       0.4933      
