#----------------------------------------------------------------------------
~VERSION INFORMATION
VERS.            2.0                  :CWLS LOG ASCII STANDARD -VERSION 2.0
WRAP.            NO                   :ONE LINE PER DEPTH STEP
#
#--------------------------------------------------------------------
~WELL INFORMATION
#MNEM .UNIT      DATA                 :DESCRIPTION OF MNEMONIC
#----------      ------------         -------------------------------
STRT  .m         2775.191             :START DEPTH
STEP  .m         0.2                  :STEP DEPTH
STOP  .m         3093.191             :STOP DEPTH
NULL  .          -999.25              :NULL VALUE
COMP  .                               :COMPANY
WELL  .                               :WELL
LOC   .                               :LOCATION - AREA
FLD   .                               :FIELD
CTRY  .                               :COUNTRY
DATE  .                               :WELL DATE
UWI   .                               :UWI
ZSTK  .          TVDss                :Z-STICK
XWELL .m         	              :X POS
YWELL .m         	              :Y POS
EDF   .          24.0                 :DERRICK FLOOR ELEVATION
#
#----------------------------------------------------------------------------
~CURVE INFORMATION
#MNEM.UNIT                                  : CURVE DESCRIPTION
#----------                                 -------------------------------
DEPT        .m                              : 1      DEPTH
COTA        .m                              : 2      Depth
Depth_TVDkb .m                              : 3      Depth
TVD         .m                              : 4      Depth
GR          .API                            : 5      GR
CALIPER     .m                              : 6      Cal
VP          .km/s                           : 7      Vp
VS          .km/s                           : 8      Vs
RHO         .g/cm3                          : 9      Rho
Porosidade  .fract                          : 10     Por
Argilosidade.fract                          : 11     Volume
Saturacao   .fract                          : 12     Sat
#
#----------------------------------------------------------------------------
~A          COTA        Depth_TVDkb TVD         GR          CALIPER     VP          VS          RHO         Porosidade  Argilosidade Saturacao   
2775.191    -2775.1904  2799.191    2799.1904   86.8088     0.3226      1.7779      0.8956      2.0336      0.2639      0.2703      0.3118      
2775.391    -2775.3904  2799.391    2799.3904   85.9284     0.3244      1.7379      0.8957      2.05        0.2441      0.3052      0.3531      
2775.591    -2775.5904  2799.591    2799.5904   88.9355     0.3267      1.7753      0.9118      2.083       0.1856      0.4662      0.5309      
2775.791    -2775.7903  2799.791    2799.7903   91.693      0.3291      1.9068      0.936       2.1008      0.1283      0.6236      0.7049      
2775.991    -2775.9903  2799.991    2799.9903   92.0365     0.3323      2.1207      0.9873      2.1294      0.072       0.7746      0.8749      
2776.191    -2776.1902  2800.191    2800.1902   92.9025     0.3348      2.4264      1.0702      2.19        0.0515      0.7768      0.9259      
2776.391    -2776.3902  2800.391    2800.3902   90.1819     0.3357      2.8925      1.2404      2.2396      0.0313      0.779       0.9762      
2776.591    -2776.5902  2800.591    2800.5902   87.5634     0.3382      2.9806      1.2861      2.2831      0.0283      0.7676      0.9812      
2776.791    -2776.7901  2800.791    2800.7901   85.3271     0.3414      2.94        1.2948      2.3318      0.0253      0.7565      0.9864      
2776.991    -2776.9901  2800.991    2800.9901   84.6        0.3419      2.8043      1.2494      2.341       0.0221      0.7461      0.9916      
2777.191    -2777.1901  2801.191    2801.1901   85.617      0.3424      2.7315      1.2038      2.3253      0.0108      0.805       0.9959      
2777.391    -2777.39    2801.391    2801.39     88.6546     0.3434      2.6476      1.1375      2.3237      0.0         0.8599      0.9999      
2777.591    -2777.5899  2801.591    2801.5899   87.3498     0.3448      2.5629      1.065       2.3129      0.0183      0.8627      0.9766      
2777.791    -2777.7898  2801.791    2801.7898   84.1289     0.3499      2.5081      1.0064      2.2622      0.0358      0.8655      0.9539      
2777.991    -2777.9898  2801.991    2801.9898   82.9146     0.3531      2.5048      0.9741      2.1772      0.0529      0.8683      0.9318      
2778.191    -2778.1898  2802.191    2802.1898   82.5896     0.3512      2.5134      0.9559      2.1287      0.0555      0.8612      0.9248      
2778.391    -2778.3897  2802.391    2802.3897   85.6718     0.3498      2.5287      0.9519      2.1742      0.0584      0.8541      0.9176      
2778.591    -2778.5897  2802.591    2802.5897   87.5765     0.3481      2.5274      0.9506      2.1978      0.0696      0.826       0.8843      
2778.791    -2778.7896  2802.791    2802.7896   85.9099     0.3519      2.5311      0.955       2.11        0.0806      0.7985      0.8518      
2778.991    -2778.9896  2802.991    2802.9896   79.9666     0.3608      2.5196      0.9555      2.0417      0.0911      0.7724      0.8206      
2779.191    -2779.1895  2803.191    2803.1895   82.0602     0.3548      2.4567      0.935       2.0796      0.0462      0.8846      0.9134      
2779.391    -2779.3895  2803.391    2803.3895   81.0627     0.3497      2.4159      0.915       2.1046      0.0043      0.9892      0.9998      
2779.591    -2779.5895  2803.591    2803.5895   81.5108     0.3756      2.378       0.8927      2.0269      0.0085      0.9785      0.9976      
2779.791    -2779.7894  2803.791    2803.7894   81.6954     0.4025      2.3624      0.8685      2.0776      0.0127      0.9682      0.9956      
2779.991    -2779.9894  2803.991    2803.9894   81.2238     0.4009      2.3639      0.8429      2.0779      0.0169      0.9578      0.9936      
2780.191    -2780.1893  2804.191    2804.1893   80.714      0.3857      2.4119      0.8358      2.0889      0.025       0.9376      0.9833      
2780.391    -2780.3893  2804.391    2804.3893   80.8905     0.3647      2.4586      0.842       2.0987      0.0327      0.9183      0.9737      
2780.591    -2780.5893  2804.591    2804.5893   82.4417     0.3519      2.5         0.8741      2.0133      0.0295      0.9263      0.9783      
2780.791    -2780.7892  2804.791    2804.7892   81.8505     0.365       2.5083      0.9143      2.077       0.0264      0.934       0.9827      
2780.991    -2780.9892  2804.991    2804.9892   81.2991     0.3782      2.4744      0.9423      2.113       0.0234      0.9414      0.9869      
2781.191    -2781.1891  2805.191    2805.1891   83.5853     0.3727      2.4557      0.9588      2.149       0.0335      0.9163      0.9702      
2781.391    -2781.3891  2805.391    2805.3891   85.0641     0.3711      2.4563      0.9569      2.1172      0.0433      0.8917      0.9537      
2781.591    -2781.5891  2805.591    2805.5891   83.6874     0.3784      2.4793      0.9513      2.1037      0.0571      0.8573      0.9159      
2781.791    -2781.789   2805.791    2805.789    81.6057     0.3828      2.5096      0.9408      2.1106      0.0709      0.8228      0.8784      
2781.991    -2781.989   2805.991    2805.989    82.4334     0.385       2.5744      0.9429      2.1239      0.0841      0.7898      0.8424      
2782.191    -2782.1889  2806.191    2806.1889   85.3016     0.3782      2.6432      0.9561      2.0357      0.0647      0.8286      0.8961      
2782.391    -2782.3889  2806.391    2806.3889   83.3012     0.3606      2.6617      0.9649      2.1903      0.0464      0.865       0.9462      
2782.591    -2782.5888  2806.591    2806.5888   83.3184     0.3508      2.5967      0.9589      2.2105      0.0578      0.8431      0.9155      
2782.791    -2782.7888  2806.791    2806.7888   82.8964     0.3528      2.5218      0.9532      2.1722      0.0688      0.8219      0.8856      
2782.991    -2782.9888  2806.991    2806.9888   84.142      0.355       2.4987      0.957       2.1432      0.0794      0.8009      0.8566      
2783.191    -2783.1887  2807.191    2807.1887   85.4385     0.3559      2.5099      0.9628      2.1382      0.08        0.7864      0.8533      
2783.391    -2783.3887  2807.391    2807.3887   83.5235     0.354       2.542       0.9662      2.1686      0.0807      0.7725      0.85        
2783.591    -2783.5886  2807.591    2807.5886   82.569      0.35        2.5985      0.9797      2.1943      0.0785      0.7866      0.8574      
2783.791    -2783.7886  2807.791    2807.7886   83.3255     0.3507      2.5987      0.9794      2.2116      0.0765      0.8003      0.8645      
2783.991    -2783.9886  2807.991    2807.9886   84.0093     0.3483      2.5642      0.9751      2.2199      0.0745      0.8142      0.8719      
2784.191    -2784.1885  2808.191    2808.1885   82.1223     0.3427      2.5024      0.9619      2.1553      0.062       0.845       0.9057      
2784.391    -2784.3884  2808.391    2808.3884   83.1034     0.3507      2.467       0.9516      2.028       0.0502      0.8745      0.938       
2784.591    -2784.5883  2808.591    2808.5883   85.7718     0.3593      2.4637      0.942       2.0003      0.0546      0.8635      0.9266      
2784.791    -2784.7883  2808.791    2808.7883   87.0098     0.3495      2.4403      0.9189      2.1059      0.0589      0.8528      0.9155      
2784.991    -2784.9882  2808.991    2808.9882   85.9878     0.3416      2.436       0.9071      2.1743      0.0631      0.8424      0.9048      
2785.191    -2785.1882  2809.191    2809.1882   85.0849     0.3432      2.4308      0.8988      2.1396      0.0459      0.8853      0.9426      
2785.391    -2785.3882  2809.391    2809.3882   87.0218     0.3521      2.4338      0.9022      2.0712      0.0297      0.9256      0.9783      
2785.591    -2785.5881  2809.591    2809.5881   84.8427     0.3868      2.4496      0.9064      2.0214      0.0566      0.8587      0.9058      
2785.791    -2785.7881  2809.791    2809.7881   80.8218     0.4182      2.4569      0.9048      2.0992      0.0826      0.7936      0.8353      
2785.991    -2785.988   2809.991    2809.988    79.8912     0.4013      2.4937      0.911       2.1071      0.1086      0.7286      0.7647      
2786.191    -2786.188   2810.191    2810.188    79.8324     0.3668      2.6049      0.9459      2.1312      0.1331      0.6672      0.6896      
