#----------------------------------------------------------------------------
~VERSION INFORMATION
VERS.            2.0                  :CWLS LOG ASCII STANDARD -VERSION 2.0
WRAP.            NO                   :ONE LINE PER DEPTH STEP
#
#--------------------------------------------------------------------
~WELL INFORMATION
#MNEM .UNIT      DATA                 :DESCRIPTION OF MNEMONIC
#----------      ------------         -------------------------------
STRT  .m         2910.0               :START DEPTH
STEP  .m         0.2                  :STEP DEPTH
STOP  .m         3110.0               :STOP DEPTH
NULL  .          -999.25              :NULL VALUE
COMP  .                               :COMPANY
WELL  .                               :WELL
LOC   .                               :LOCATION - AREA
FLD   .                               :FIELD
CTRY  .                               :COUNTRY
DATE  .                               :WELL DATE
UWI   .                               :UWI
ZSTK  .          TVDss                :Z-STICK
XWELL .m         	              :X POS
YWELL .m         	              :Y POS
EDF   .          14.0                 :DERRICK FLOOR ELEVATION
#
#----------------------------------------------------------------------------
~CURVE INFORMATION
#MNEM.UNIT                                  : CURVE DESCRIPTION
#----------                                 -------------------------------
DEPT        .m                              : 1      DEPTH
MD          .m                              : 2      Depth
GR          .API                            : 3      GR
CALIPER     .m                              : 4      Cal
VP          .km/s                           : 5      Vp
VS          .km/s                           : 6      Vs
RHO         .g/cm3                          : 7      Rho
Porosidade  .fract                          : 8      Por
Argilosidade.fract                          : 9      Volume
Saturacao   .fract                          : 10     Sat
#
#----------------------------------------------------------------------------
~A          MD          GR          CALIPER     VP          VS          RHO         Porosidade  Argilosidade Saturacao   
# ...
3003.8      3016.808    94.1277     0.309       3.0678      1.5704      2.2339      0.1817      0.3729      0.1473      
3004.0      3017.0078   94.5663     0.3104      3.112       1.5492      2.272       0.1555      0.3893      0.1644      
3004.2      3017.2076   97.979      0.3113      3.0884      1.5502      2.3069      0.1289      0.4245      0.1762      
3004.4      3017.4074   102.5873    0.3114      2.9954      1.5396      2.3105      0.1151      0.4705      0.1801      
3004.6      3017.6072   106.2545    0.3122      2.9115      1.5211      2.3071      0.1088      0.5148      0.1865      
3004.8      3017.8069   105.4997    0.3132      2.8923      1.5696      2.299       0.1109      0.53        0.1898      
3005.0      3018.0067   100.5023    0.3123      2.8913      1.5712      2.2828      0.1224      0.5188      0.1791      
3005.2      3018.2065   95.231      0.3099      2.9302      1.5652      2.2668      0.135       0.5081      0.1643      
3005.4      3018.4063   91.3699     0.3088      2.9695      1.5586      2.2496      0.1482      0.4935      0.1575      
3005.6      3018.6061   89.9939     0.3093      3.0121      1.5377      2.2455      0.1543      0.4689      0.1685      
3005.8      3018.8058   90.9698     0.3102      3.0664      1.4749      2.2728      0.1419      0.4565      0.2055      
3006.0      3019.0056   93.7485     0.3118      3.0073      1.4352      2.2948      0.13        0.4601      0.2352      
3006.2      3019.2054   95.6874     0.3148      2.9265      1.4371      2.2764      0.1361      0.4697      0.2305      
3006.4      3019.4052   95.6025     0.3169      2.8884      1.4382      2.2569      0.1427      0.4948      0.2229      
3006.6      3019.605    94.4187     0.3169      2.8708      1.4071      2.26        0.1298      0.5534      0.2339      
3006.8      3019.8048   94.5066     0.3159      2.8759      1.3908      2.2729      0.1083      0.6183      0.2418      
3007.0      3020.0045   96.7851     0.3159      2.8833      1.4096      2.2862      0.1005      0.623       0.2524      
3007.2      3020.2043   100.9226    0.3161      2.8586      1.3861      2.2829      0.1165      0.5533      0.2731      
3007.4      3020.4041   104.5406    0.3153      2.8263      1.3953      2.2588      0.1434      0.4909      0.2737      
3007.6      3020.6038   106.4994    0.3129      2.8121      1.4107      2.2323      0.161       0.4827      0.25        
3007.8      3020.8036   107.2829    0.3104      2.8272      1.4412      2.2178      0.1725      0.4709      0.2334      
3008.0      3021.0034   104.7007    0.309       2.8869      1.458       2.2092      0.1932      0.399       0.2304      
3008.2      3021.2032   101.3124    0.3085      2.9281      1.4512      2.1984      0.2103      0.3429      0.2287      
3008.4      3021.403    102.6054    0.3084      2.8915      1.4382      2.1997      0.2058      0.3607      0.2268      
3008.6      3021.6027   105.924     0.3084      2.8509      1.4203      2.2122      0.1959      0.378       0.2325      
3008.8      3021.8025   107.8212    0.3083      2.8213      1.3975      2.2188      0.1999      0.337       0.2494      
3009.0      3022.0023   111.8219    0.3073      2.7664      1.3771      2.2127      0.2097      0.3084      0.2715      
3009.2      3022.2021   116.107     0.3052      2.6939      1.3384      2.1944      0.2165      0.3284      0.2836      
3009.4      3022.4019   116.3621    0.3045      2.6498      1.3148      2.1724      0.2215      0.3676      0.2776      
3009.6      3022.6017   110.6081    0.3064      2.6294      1.3346      2.1626      0.2221      0.3944      0.2635      
3009.8      3022.8014   102.9166    0.3093      2.671       1.3663      2.1665      0.2192      0.3991      0.2546      
3010.0      3023.0012   99.3307     0.3105      2.7293      1.3923      2.1743      0.2154      0.393       0.2484      
3010.2      3023.201    100.1641    0.3098      2.7818      1.4078      2.1861      0.2102      0.3831      0.2445      
3010.4      3023.4008   101.7105    0.3083      2.826       1.4081      2.201       0.2061      0.3599      0.2455      
3010.6      3023.6006   102.0638    0.3078      2.8586      1.3742      2.2116      0.2073      0.3223      0.2496      
3010.8      3023.8003   103.235     0.3081      2.8809      1.3653      2.2138      0.2157      0.2726      0.2558      
3011.0      3024.0001   105.8258    0.3084      2.8501      1.371       2.2096      0.2241      0.2462      0.2558      
3011.2      3024.1999   106.2077    0.3083      2.7832      1.352       2.1966      0.2231      0.2888      0.2385      
3011.4      3024.3997   104.4317    0.3082      2.7534      1.3843      2.1814      0.2194      0.351       0.2154      
3011.6      3024.5994   102.1973    0.3084      2.7481      1.414       2.1764      0.2221      0.3535      0.1996      
3011.8      3024.7992   102.1795    0.3085      2.7362      1.4066      2.1821      0.2273      0.311       0.1883      
3012.0      3024.999    102.3932    0.3083      2.7189      1.3892      2.1888      0.2366      0.2476      0.1815      
3012.2      3025.1988   100.0618    0.3081      2.7196      1.3282      2.1873      0.252       0.1738      0.1794      
3012.4      3025.3986   97.4823     0.3083      2.7612      1.2601      2.1872      0.2533      0.1658      0.1809      
3012.6      3025.5983   96.3465     0.3093      2.8048      1.2535      2.1942      0.2344      0.2408      0.1931      
3012.8      3025.7981   96.6161     0.3102      2.8279      1.2773      2.1971      0.225       0.2797      0.21        
3013.0      3025.9979   100.4425    0.3095      2.8301      1.3032      2.1964      0.234       0.2324      0.2121      
3013.2      3026.1977   102.9036    0.3081      2.841       1.3406      2.2001      0.2425      0.179       0.2008      
3013.4      3026.3975   100.6466    0.3079      2.846       1.4141      2.2071      0.2376      0.1891      0.1974      
3013.6      3026.5973   97.9067     0.3083      2.8534      1.4584      2.2117      0.2247      0.2307      0.2065      
3013.8      3026.797    100.5381    0.3088      2.8895      1.5008      2.2127      0.224       0.2345      0.2155      
3014.0      3026.9968   105.4609    0.3092      2.9419      1.5196      2.2119      0.2296      0.2165      0.2204      
3014.2      3027.1966   105.9226    0.3094      2.9729      1.5251      2.2134      0.2145      0.2666      0.2185      
3014.4      3027.3963   101.0005    0.3094      2.9684      1.5855      2.221       0.1889      0.383       0.2071      
3014.6      3027.5961   95.7451     0.3094      2.971       1.6961      2.2597      0.1584      0.4123      0.2085      
3014.8      3027.7959   91.6819     0.3094      2.9603      1.7982      2.3681      0.0944      0.3441      0.2155      
3015.0      3027.9957   88.9859     0.3094      2.9372      1.8533      2.525       0.0212      0.3917      0.1768      
3015.2      3028.1955   88.7244     0.3093      2.8686      1.884       2.5898      0.0         0.5756      0.1302      
3015.4      3028.3953   89.685      0.3089      2.7982      1.8293      2.4864      0.013       0.618       0.1452      
3015.6      3028.595    92.5086     0.308       2.787       1.6952      2.3237      0.0958      0.4833      0.177       
3015.8      3028.7948   99.1338     0.3076      2.8221      1.5865      2.2341      0.1737      0.3962      0.173       
3016.0      3028.9945   104.5443    0.3076      2.8439      1.5474      2.2188      0.1985      0.3556      0.1724      
3016.2      3029.1937   106.6461    0.3076      2.871       1.5426      2.2192      0.2111      0.2641      0.1842      
3016.4      3029.3927   111.6168    0.3074      2.8879      1.5569      2.2239      0.2224      0.2105      0.1775      
3016.6      3029.5919   113.9133    0.3073      2.8826      1.5718      2.2332      0.2124      0.2327      0.1639      
3016.8      3029.791    109.2376    0.3073      2.9111      1.5597      2.2397      0.2072      0.2303      0.167       
3017.0      3029.9902   103.7923    0.3074      2.9664      1.5397      2.2432      0.216       0.1818      0.1864      
