#----------------------------------------------------------------------------
~VERSION INFORMATION
VERS.            2.0                  :CWLS LOG ASCII STANDARD -VERSION 2.0
WRAP.            NO                   :ONE LINE PER DEPTH STEP
#
#--------------------------------------------------------------------
~WELL INFORMATION
#MNEM .UNIT      DATA                 :DESCRIPTION OF MNEMONIC
#----------      ------------         -------------------------------
STRT  .m         2910.0               :START DEPTH
STEP  .m         0.2                  :STEP DEPTH
STOP  .m         3110.0               :STOP DEPTH
NULL  .          -999.25              :NULL VALUE
COMP  .                               :COMPANY
WELL  .                               :WELL
LOC   .                               :LOCATION - AREA
FLD   .                               :FIELD
CTRY  .                               :COUNTRY
DATE  .                               :WELL DATE
UWI   .                               :UWI
ZSTK  .          TVDss                :Z-STICK
XWELL .m         	              :X POS
YWELL .m         	              :Y POS
EDF   .          14.0                 :DERRICK FLOOR ELEVATION
#
#----------------------------------------------------------------------------
~CURVE INFORMATION
#MNEM.UNIT                                  : CURVE DESCRIPTION
#----------                                 -------------------------------
DEPT        .m                              : 1      DEPTH
MD          .m                              : 2      Depth
GR          .API                            : 3      GR
CALIPER     .m                              : 4      Cal
VP          .km/s                           : 5      Vp
VS          .km/s                           : 6      Vs
RHO         .g/cm3                          : 7      Rho
Porosidade  .fract                          : 8      Por
Argilosidade.fract                          : 9      Volume
Saturacao   .fract                          : 10     Sat
#
#----------------------------------------------------------------------------
~A          MD          GR          CALIPER     VP          VS          RHO         Porosidade  Argilosidade Saturacao   
2910.0      2923.1081   112.2195    0.3424      2.573       1.0768      2.269       0.0114      0.9726      0.9911      
2910.2      2923.3079   122.3077    0.3458      2.549       1.081       2.2601      0.0077      0.9818      1.0         
2910.4      2923.5076   131.1454    0.3414      2.5555      1.1406      2.2531      0.0617      0.8442      0.9858      
2910.6      2923.7074   128.8881    0.3321      2.5899      1.2552      2.2477      0.1086      0.6958      0.8687      
2910.8      2923.9072   121.3158    0.3334      2.6515      1.2847      2.2607      0.1013      0.6904      0.8693      
2911.0      2924.107    114.6063    0.3423      2.7085      1.2898      2.2815      0.0745      0.7599      0.9807      
2911.2      2924.3068   110.2676    0.3454      2.6988      1.2911      2.2862      0.0723      0.7662      1.0         
2911.4      2924.5066   111.6851    0.3428      2.6449      1.2556      2.2648      0.0896      0.738       1.0         
2911.6      2924.7064   115.7731    0.3363      2.5925      1.2266      2.2322      0.1103      0.7217      0.9686      
2911.8      2924.9062   113.0165    0.3265      2.559       1.179       2.2067      0.1412      0.6461      0.7463      
2912.0      2925.106    104.5141    0.3192      2.5259      1.1056      2.1939      0.1844      0.4813      0.538       
2912.2      2925.3058   98.9756     0.3185      2.5231      1.0892      2.1953      0.2147      0.3311      0.505       
2912.4      2925.5056   98.8488     0.3219      2.5443      1.1071      2.2136      0.2045      0.3215      0.6126      
2912.6      2925.7054   102.0716    0.3284      2.5717      1.1093      2.25        0.1453      0.5077      0.831       
2912.8      2925.9052   104.7091    0.3349      2.6134      1.0694      2.2813      0.0775      0.7532      0.9987      
2913.0      2926.1049   104.1605    0.3385      2.6528      1.0672      2.2869      0.0571      0.8309      1.0         
2913.2      2926.3047   103.8102    0.3405      2.6539      1.0838      2.2796      0.0801      0.738       0.9907      
2913.4      2926.5045   104.5878    0.3409      2.6753      1.0933      2.2777      0.0913      0.6877      1.0         
2913.6      2926.7043   103.7793    0.3395      2.7394      1.1146      2.2882      0.0751      0.7339      1.0         
2913.8      2926.9041   104.2472    0.337       2.7536      1.1027      2.3041      0.0605      0.7653      0.9961      
2914.0      2927.1039   108.7912    0.3367      2.7325      1.0903      2.3037      0.0594      0.7689      1.0         
2914.2      2927.3037   111.6991    0.339       2.7147      1.0771      2.2868      0.065       0.7881      1.0         
2914.4      2927.5035   112.3643    0.3408      2.6778      1.0451      2.2761      0.0673      0.8149      0.995       
2914.6      2927.7032   111.8285    0.3405      2.6573      1.0298      2.2749      0.0591      0.8493      1.0         
2914.8      2927.9031   107.8225    0.3396      2.6481      1.0407      2.2596      0.0696      0.8296      1.0         
2915.0      2928.1029   105.0587    0.3379      2.6142      1.0451      2.204       0.134       0.6623      0.8963      
2915.2      2928.3026   107.9267    0.3387      2.5792      1.0489      2.1316      0.2136      0.4659      0.7171      
2915.4      2928.5024   108.9495    0.3452      2.5822      1.0366      2.1064      0.2509      0.3766      0.6024      
2915.6      2928.7022   105.8452    0.3486      2.6354      1.043       2.1423      0.243       0.3428      0.5874      
2915.8      2928.902    103.069     0.3462      2.7091      1.0667      2.1998      0.2093      0.3643      0.6702      
2916.0      2929.1018   103.6485    0.3481      2.706       1.0895      2.2149      0.1694      0.5053      0.8282      
2916.2      2929.3016   108.6777    0.355       2.6572      1.1022      2.1987      0.1303      0.6704      0.9622      
2916.4      2929.5014   115.1198    0.3565      2.6231      1.1141      2.1983      0.1005      0.7557      0.9987      
2916.6      2929.7012   115.0202    0.3524      2.6274      1.0908      2.2269      0.0944      0.7574      0.9802      
2916.8      2929.901    111.3329    0.3473      2.6445      1.059       2.2593      0.0987      0.7286      0.9795      
2917.0      2930.1008   110.3072    0.3439      2.6708      1.0637      2.2714      0.0771      0.7795      0.9995      
2917.2      2930.3005   110.9234    0.3427      2.6433      1.1037      2.2649      0.0301      0.9231      1.0         
2917.4      2930.5003   110.5214    0.3446      2.6228      1.126       2.2613      0.0023      0.9975      0.9983      
2917.6      2930.7001   110.5239    0.3476      2.6256      1.1283      2.265       0.007       0.9783      1.0         
2917.8      2930.8999   111.9263    0.346       2.6595      1.165       2.2743      0.0235      0.9436      1.0         
2918.0      2931.0997   113.6279    0.3411      2.6982      1.2068      2.2824      0.0428      0.8916      0.9993      
2918.2      2931.2995   113.973     0.3396      2.7094      1.1975      2.2828      0.0598      0.8304      1.0         
2918.4      2931.4993   113.7557    0.3399      2.6967      1.1608      2.2821      0.059       0.832       1.0         
2918.6      2931.6991   111.9677    0.3389      2.689       1.1541      2.291       0.0437      0.8838      0.9998      
2918.8      2931.8989   110.1903    0.3381      2.6851      1.1724      2.3035      0.0243      0.9374      1.0         
2919.0      2932.0987   108.9924    0.3383      2.6662      1.1707      2.3093      0.0042      0.9882      0.9999      
2919.2      2932.2985   107.5497    0.3384      2.6345      1.1618      2.2989      0.0         1.0         1.0         
2919.4      2932.4983   107.6968    0.3389      2.6011      1.1302      2.2805      0.0014      0.9966      1.0         
2919.6      2932.698    111.0396    0.3401      2.5827      1.095       2.2709      0.0         1.0         1.0         
2919.8      2932.8978   112.7266    0.3407      2.5588      1.105       2.2699      0.0145      0.9645      1.0         
2920.0      2933.0976   110.7982    0.3417      2.569       1.1093      2.2641      0.0616      0.845       0.9997      
2920.2      2933.2974   107.4626    0.3424      2.5904      1.1153      2.264       0.075       0.8097      1.0         
2920.4      2933.4972   105.7792    0.3417      2.6038      1.1264      2.282       0.0339      0.9143      1.0         
2920.6      2933.697    104.2927    0.3418      2.6211      1.1133      2.3075      0.0013      0.9973      0.999       
2920.8      2933.8968   103.246     0.3441      2.6604      1.133       2.3281      0.0         1.0         1.0         
2921.0      2934.0966   102.7982    0.3436      2.7117      1.186       2.3358      7.0E-4      0.998       0.9996      
2921.2      2934.2963   101.5299    0.3405      2.7444      1.1964      2.3342      4.0E-4      0.9995      0.9875      
2921.4      2934.4961   100.4381    0.3395      2.7572      1.1891      2.3323      0.0         1.0         0.9863      
2921.6      2934.696    103.4537    0.3408      2.755       1.1687      2.3198      0.0039      0.99        0.9985      
2921.8      2934.8957   108.4191    0.3429      2.697       1.1177      2.2883      0.0355      0.912       1.0         
2922.0      2935.0955   108.4494    0.3447      2.606       1.0708      2.2589      0.0718      0.8195      0.9989      
2922.2      2935.2953   103.3357    0.3455      2.5457      1.0537      2.2463      0.0818      0.7955      0.9999      
2922.4      2935.4951   101.9248    0.3458      2.5282      1.053       2.2536      0.074       0.8167      1.0         
2922.6      2935.6949   105.3356    0.346       2.537       1.0659      2.2691      0.0685      0.8244      0.999       
2922.8      2935.8947   106.8513    0.3451      2.5609      1.0752      2.2802      0.062       0.8363      0.9998      
2923.0      2936.0945   106.2427    0.3431      2.5922      1.0817      2.2884      0.0383      0.8978      1.0         
2923.2      2936.2943   104.5045    0.3418      2.627       1.0943      2.3085      0.0089      0.9765      0.9955      
