#----------------------------------------------------------------------------
~VERSION INFORMATION
VERS.            2.0                  :CWLS LOG ASCII STANDARD -VERSION 2.0
WRAP.            NO                   :ONE LINE PER DEPTH STEP
#
#--------------------------------------------------------------------
~WELL INFORMATION
#MNEM .UNIT      DATA                 :DESCRIPTION OF MNEMONIC
#----------      ------------         -------------------------------
STRT  .m         3166.0               :START DEPTH
STEP  .m         0.2                  :STEP DEPTH
STOP  .m         3406.0               :STOP DEPTH
NULL  .          -999.25              :NULL VALUE
COMP  .          	              :COMPANY
WELL  .                               :WELL
LOC   .                               :LOCATION - AREA
FLD   .                               :FIELD
CTRY  .                               :COUNTRY
DATE  .                               :WELL DATE
UWI   .          	              :UWI
ZSTK  .          TVDss                :Z-STICK
XWELL .m         		      :X POS
YWELL .m         	              :Y POS
EDF   .          24.0                 :DERRICK FLOOR ELEVATION
#
#----------------------------------------------------------------------------
~CURVE INFORMATION
#MNEM.UNIT                                  : CURVE DESCRIPTION
#----------                                 -------------------------------
DEPT        .m                              : 1      DEPTH
MD          .m                              : 2      Depth
GR          .API                            : 3      GR
CALIPER     .m                              : 4      Cal
VP          .km/s                           : 5      Vp
VS          .km/s                           : 6      Vs
RHO         .g/cm3                          : 7      Rho
Porosidade  .fract                          : 8      Por
Argilosidade.fract                          : 9      Volume
Saturacao   .fract                          : 10     Sat
#
#----------------------------------------------------------------------------
~A          MD          GR          CALIPER     VP          VS          RHO         Porosidade  Argilosidade Saturacao   
# ...
3179.4      3203.4      91.55       0.3274      2.6676      1.0406      2.3398      0.0         1.0         0.9762      
3179.6      3203.6      87.0096     0.3283      2.6796      1.0425      2.3352      0.0093      0.9528      0.9698      
3179.8      3203.8      86.8781     0.3323      2.6851      1.0429      2.3113      0.0336      0.8152      0.9748      
3180.0      3204.0      90.4813     0.3407      2.6815      1.041       2.3006      0.0139      0.8847      0.9586      
3180.2      3204.2      93.3687     0.3477      2.668       1.0355      2.3035      0.0061      0.9148      0.9871      
3180.4      3204.4      94.0906     0.3435      2.6484      1.0269      2.2991      0.0172      0.8656      1.0         
3180.6      3204.6      93.1371     0.3321      2.629       1.0164      2.2754      0.0569      0.7399      0.9983      
3180.8      3204.8      92.3908     0.327       2.6143      1.006       2.25        0.0601      0.799       1.0         
3181.0      3205.0      95.1474     0.3256      2.6058      0.9969      2.253       0.0365      0.9094      0.9988      
3181.2      3205.2      97.394      0.3243      2.6023      0.9901      2.2784      0.0067      0.9792      1.0         
3181.4      3205.4      97.9637     0.3256      2.6015      0.9863      2.297       0.0         1.0         0.9959      
3181.6      3205.6      101.0694    0.3276      2.6017      0.9859      2.3042      0.0012      0.9852      1.0         
3181.8      3205.8      102.1583    0.3303      2.6036      0.989       2.3112      0.0         1.0         0.9993      
3182.0      3206.0      100.0264    0.3324      2.6093      0.9961      2.3202      8.0E-4      0.9855      1.0         
3182.2      3206.2      96.8717     0.3297      2.621       1.0062      2.3356      0.0         0.9604      0.994       
3182.4      3206.4      93.0461     0.3267      2.6387      1.0173      2.3581      5.0E-4      0.9861      0.9461      
3182.6      3206.6      90.7504     0.3263      2.6598      1.0274      2.3712      0.0         1.0         0.8891      
3182.8      3206.8      87.9539     0.3262      2.6789      1.0346      2.3702      3.0E-4      0.9978      0.8701      
3183.0      3207.0      85.7391     0.3263      2.6899      1.037       2.3662      0.0         1.0         0.8737      
3183.2      3207.2      87.9971     0.3263      2.6892      1.0349      2.3503      1.0E-4      0.999       0.8913      
3183.4      3207.4      91.0553     0.3263      2.6775      1.0285      2.3153      0.0         1.0         0.9166      
3183.6      3207.6      88.9499     0.3262      2.6588      1.0194      2.2958      0.0         1.0         0.9316      
3183.8      3207.8      86.0819     0.3284      2.6392      1.0097      2.3127      1.0E-4      0.9994      0.9424      
3184.0      3208.0      88.5499     0.3349      2.6228      1.001       2.328       0.0014      0.9867      0.9658      
3184.2      3208.2      92.5143     0.3361      2.6113      0.9942      2.3148      0.0193      0.8544      0.9973      
3184.4      3208.4      93.384      0.3291      2.6044      0.9898      2.2984      0.0206      0.8612      0.9949      
3184.6      3208.6      91.4314     0.3252      2.601       0.9874      2.2973      0.0102      0.9341      0.9808      
3184.8      3208.8      91.1545     0.325       2.6004      0.987       2.296       0.0171      0.8855      0.9929      
3185.0      3209.0      93.5622     0.3254      2.6017      0.9885      2.2906      0.0087      0.9502      0.9914      
3185.2      3209.2      94.9571     0.3265      2.6049      0.9923      2.2858      0.0104      0.9485      0.9971      
3185.4      3209.4      94.316      0.3287      2.6104      0.9982      2.2773      0.0167      0.9219      1.0         
3185.6      3209.6      94.3978     0.3309      2.6192      1.0054      2.274       0.0701      0.7009      0.9997      
3185.8      3209.8      94.4484     0.33        2.6305      1.0124      2.288       0.0698      0.666       1.0         
3186.0      3210.0      93.1829     0.3294      2.642       1.0175      2.3037      0.0124      0.8972      0.9966      
3186.2      3210.2      91.2842     0.3308      2.6498      1.0191      2.3013      0.0         0.9706      0.985       
3186.4      3210.4      92.2188     0.3295      2.6518      1.0171      2.2935      0.0013      0.9481      0.9843      
3186.6      3210.6      94.0261     0.3279      2.6486      1.0115      2.2939      0.0         0.9911      0.9505      
3186.8      3210.8      94.0866     0.3282      2.6412      1.0041      2.2904      0.0077      0.9754      0.9534      
3187.0      3211.0      94.4613     0.3277      2.6307      0.9968      2.284       0.0268      0.9028      0.9884      
3187.2      3211.2      95.872      0.3275      2.6177      0.9903      2.2904      0.0084      0.9733      0.9856      
3187.4      3211.4      98.1051     0.3282      2.604       0.985       2.2978      0.0         1.0         0.9887      
3187.6      3211.6      99.636      0.3304      2.5927      0.9808      2.2922      0.0018      0.9961      1.0         
3187.8      3211.8      100.4899    0.3329      2.5855      0.9775      2.283       0.0         1.0         0.9957      
3188.0      3212.0      97.9513     0.332       2.5822      0.9752      2.2681      0.0093      0.9755      1.0         
3188.2      3212.2      93.6525     0.3301      2.5821      0.9749      2.2398      0.0857      0.7448      0.9717      
3188.4      3212.4      92.34       0.3303      2.5844      0.9771      2.2237      0.1428      0.5378      0.9013      
3188.6      3212.6      93.3548     0.3369      2.5887      0.9822      2.2479      0.0806      0.7386      0.9716      
3188.8      3212.8      95.1978     0.3487      2.5942      0.9883      2.2966      0.0076      0.9764      1.0         
3189.0      3213.0      95.695      0.3529      2.5998      0.993       2.3179      0.0185      0.938       0.996       
3189.2      3213.2      96.5531     0.3425      2.6048      0.9944      2.2882      0.0354      0.8768      1.0         
3189.4      3213.4      96.0866     0.3314      2.6097      0.9932      2.2578      0.0052      0.9822      0.9967      
3189.6      3213.6      96.8945     0.33        2.6142      0.9896      2.2666      0.0076      0.9648      1.0         
3189.8      3213.8      99.4946     0.3298      2.6177      0.9853      2.2795      0.0282      0.8625      0.9925      
3190.0      3214.0      98.8787     0.3304      2.6193      0.9822      2.273       0.0111      0.9509      0.9795      
3190.2      3214.2      98.3179     0.3309      2.6185      0.9813      2.2767      0.0148      0.9386      0.9863      
3190.4      3214.4      100.386     0.3286      2.6152      0.9824      2.2927      0.0044      0.982       0.9649      
3190.6      3214.6      102.4187    0.3268      2.6102      0.9852      2.2939      0.0028      0.9846      0.962       
3190.8      3214.8      102.5779    0.3265      2.6052      0.9882      2.2903      0.0152      0.9065      0.9964      
3191.0      3215.0      100.2676    0.3264      2.6017      0.9903      2.3009      0.0033      0.9757      0.9799      
3191.2      3215.2      99.9419     0.3263      2.6001      0.9915      2.3071      0.0         0.9933      0.954       
3191.4      3215.4      101.2886    0.3274      2.6         0.9922      2.2914      0.004       0.9653      0.9683      
3191.6      3215.6      102.7393    0.3291      2.6         0.9934      2.2792      0.0131      0.9319      0.9986      
3191.8      3215.8      100.8304    0.3304      2.5994      0.9961      2.2875      0.0044      0.9621      0.9975      
3192.0      3216.0      98.3374     0.3331      2.5993      1.0007      2.2976      0.0         0.9951      0.9842      
3192.2      3216.2      99.3328     0.3362      2.6013      1.007       2.3038      1.0E-4      1.0         0.945       
3192.4      3216.4      97.572      0.3349      2.6076      1.0143      2.3123      9.0E-4      0.9891      0.9461      
3192.6      3216.6      95.4131     0.3313      2.6187      1.0214      2.309       0.0111      0.9181      0.9878      
