#----------------------------------------------------------------------------
~VERSION INFORMATION
VERS.            2.0                  :CWLS LOG ASCII STANDARD -VERSION 2.0
WRAP.            NO                   :ONE LINE PER DEPTH STEP
#
#--------------------------------------------------------------------
~WELL INFORMATION
#MNEM .UNIT      DATA                 :DESCRIPTION OF MNEMONIC
#----------      ------------         -------------------------------
STRT  .m         3166.0               :START DEPTH
STEP  .m         0.2                  :STEP DEPTH
STOP  .m         3406.0               :STOP DEPTH
NULL  .          -999.25              :NULL VALUE
COMP  .          	              :COMPANY
WELL  .                               :WELL
LOC   .                               :LOCATION - AREA
FLD   .                               :FIELD
CTRY  .                               :COUNTRY
DATE  .                               :WELL DATE
UWI   .          	              :UWI
ZSTK  .          TVDss                :Z-STICK
XWELL .m         		      :X POS
YWELL .m         	              :Y POS
EDF   .          24.0                 :DERRICK FLOOR ELEVATION
#
#----------------------------------------------------------------------------
~CURVE INFORMATION
#MNEM.UNIT                                  : CURVE DESCRIPTION
#----------                                 -------------------------------
DEPT        .m                              : 1      DEPTH
MD          .m                              : 2      Depth
GR          .API                            : 3      GR
CALIPER     .m                              : 4      Cal
VP          .km/s                           : 5      Vp
VS          .km/s                           : 6      Vs
RHO         .g/cm3                          : 7      Rho
Porosidade  .fract                          : 8      Por
Argilosidade.fract                          : 9      Volume
Saturacao   .fract                          : 10     Sat
#
#----------------------------------------------------------------------------
~A          MD          GR          CALIPER     VP          VS          RHO         Porosidade  Argilosidade Saturacao   
# ...
3206.2      3230.2      98.3689     0.318       2.5161      1.0273      2.1301      0.2408      0.3762      0.3327      
3206.4      3230.4      95.7071     0.3177      2.4464      1.0109      2.0842      0.2322      0.4195      0.3114      
3206.6      3230.6      97.3889     0.3177      2.3866      1.0008      2.0725      0.2427      0.3953      0.2898      
3206.8      3230.8      96.636      0.3176      2.345       0.996       2.064       0.3029      0.2328      0.2611      
3207.0      3231.0      95.5493     0.3175      2.3256      0.9951      2.0571      0.3657      0.0208      0.2413      
3207.2      3231.2      95.9551     0.3176      2.3258      0.9969      2.0576      0.3638      0.0261      0.2354      
3207.4      3231.4      94.4977     0.3177      2.3422      1.0017      2.0631      0.3617      0.0011      0.2238      
3207.6      3231.6      92.1986     0.3177      2.369       1.0089      2.0709      0.3565      0.0064      0.2086      
3207.8      3231.8      92.2609     0.3176      2.397       1.0186      2.0827      0.3523      0.0         0.2079      
3208.0      3232.0      92.8938     0.3176      2.4167      1.0311      2.1012      0.3303      0.0577      0.2092      
3208.2      3232.2      92.7355     0.3176      2.4228      1.0463      2.112       0.2706      0.2973      0.2041      
3208.4      3232.4      93.2631     0.3177      2.4159      1.0634      2.1007      0.2775      0.2836      0.1891      
3208.6      3232.6      95.6432     0.3177      2.3983      1.0806      2.0887      0.2921      0.2425      0.166       
3208.8      3232.8      95.392      0.3177      2.3794      1.0939      2.0967      0.3143      0.1444      0.1616      
3209.0      3233.0      91.7309     0.3176      2.3676      1.1002      2.1094      0.3217      0.0836      0.1636      
3209.2      3233.2      89.2793     0.3176      2.3668      1.0993      2.1138      0.3266      0.0256      0.175       
3209.4      3233.4      88.6884     0.3176      2.376       1.0919      2.1198      0.3295      0.0         0.1863      
3209.6      3233.6      88.3621     0.3176      2.3927      1.0798      2.1286      0.3018      0.0993      0.1949      
3209.8      3233.8      89.713      0.3176      2.4103      1.0661      2.1317      0.2721      0.2453      0.1954      
3210.0      3234.0      92.0206     0.3175      2.4232      1.0526      2.1297      0.2651      0.2669      0.1962      
3210.2      3234.2      91.4849     0.3173      2.4284      1.0403      2.1231      0.2901      0.1874      0.1996      
3210.4      3234.4      90.2992     0.3173      2.4272      1.0297      2.108       0.3026      0.1619      0.2195      
3210.6      3234.6      92.6633     0.3176      2.4206      1.022       2.0903      0.3476      0.0228      0.244       
3210.8      3234.8      94.9216     0.3177      2.4129      1.0184      2.0836      0.3067      0.1871      0.2737      
3211.0      3235.0      95.0729     0.3177      2.4077      1.0184      2.091       0.2249      0.4246      0.3033      
3211.2      3235.2      92.7559     0.3177      2.4076      1.0217      2.1033      0.3029      0.1534      0.2775      
3211.4      3235.4      88.771      0.3177      2.4122      1.0267      2.1137      0.324       0.0715      0.2608      
3211.6      3235.6      89.3993     0.3177      2.4208      1.0314      2.1229      0.292       0.1649      0.2514      
3211.8      3235.8      91.1679     0.3178      2.4299      1.0346      2.128       0.3242      0.0261      0.2321      
3212.0      3236.0      90.8613     0.3177      2.4359      1.0359      2.1266      0.3222      0.0366      0.2294      
3212.2      3236.2      90.6642     0.3176      2.4375      1.0359      2.1258      0.3245      0.0419      0.2338      
3212.4      3236.4      91.5655     0.3177      2.4347      1.0343      2.129       0.2799      0.1869      0.2549      
3212.6      3236.6      93.4808     0.3177      2.4278      1.0315      2.1292      0.189       0.519       0.2803      
3212.8      3236.8      95.6545     0.3176      2.4184      1.0271      2.1169      0.2309      0.4262      0.282       
3213.0      3237.0      100.901     0.3177      2.4066      1.0205      2.0909      0.281       0.2959      0.2818      
3213.2      3237.2      105.6641    0.3178      2.3919      1.0111      2.0637      0.2438      0.3922      0.3131      
3213.4      3237.4      102.7027    0.3177      2.3745      0.9989      2.0478      0.2548      0.3637      0.3112      
3213.6      3237.6      94.5257     0.3176      2.3562      0.9848      2.0408      0.351       0.0824      0.2504      
3213.8      3237.8      90.5148     0.3176      2.3403      0.9711      2.0392      0.3786      0.0         0.2104      
3214.0      3238.0      90.0907     0.3176      2.3307      0.9606      2.0474      0.372       0.0037      0.1924      
3214.2      3238.2      89.7761     0.3176      2.3294      0.9561      2.0702      0.3581      0.0         0.1893      
3214.4      3238.4      90.8442     0.3177      2.3371      0.9573      2.099       0.3427      0.0033      0.1963      
3214.6      3238.6      92.2899     0.3178      2.3539      0.9633      2.1199      0.3216      0.0491      0.2064      
3214.8      3238.8      95.3336     0.3178      2.3776      0.9735      2.1319      0.3118      0.0593      0.2133      
3215.0      3239.0      98.0853     0.3178      2.4051      0.9879      2.1362      0.2931      0.1295      0.2125      
3215.2      3239.2      97.9888     0.3177      2.4336      1.0075      2.1323      0.2655      0.2617      0.2079      
3215.4      3239.4      95.0855     0.3176      2.4599      1.0322      2.1293      0.3131      0.0909      0.2132      
3215.6      3239.6      91.3244     0.3177      2.48        1.0585      2.1269      0.3303      0.0165      0.2193      
3215.8      3239.8      88.8623     0.3176      2.4897      1.0804      2.1285      0.3135      0.0737      0.2269      
3216.0      3240.0      83.3812     0.3176      2.4892      1.0933      2.162       0.2584      0.2412      0.2346      
3216.2      3240.2      80.1752     0.3179      2.4797      1.0958      2.2057      0.1706      0.5054      0.2376      
3216.4      3240.4      84.4129     0.318       2.4671      1.0911      2.1943      0.2147      0.3504      0.2318      
3216.6      3240.6      91.1505     0.3178      2.4558      1.0805      2.1422      0.3117      0.054       0.2226      
3216.8      3240.8      96.3061     0.3177      2.4482      1.0683      2.1128      0.3223      0.0834      0.2188      
3217.0      3241.0      96.9518     0.3178      2.444       1.0578      2.1081      0.3103      0.1392      0.2427      
3217.2      3241.2      93.2012     0.3179      2.4418      1.0495      2.1057      0.3231      0.1017      0.2619      
3217.4      3241.4      91.9384     0.3178      2.4406      1.0428      2.1081      0.2634      0.3009      0.303       
3217.6      3241.6      96.6618     0.3176      2.4404      1.0362      2.1118      0.1877      0.521       0.3554      
3217.8      3241.8      101.5341    0.3176      2.4422      1.029       2.1115      0.2267      0.4074      0.3619      
3218.0      3242.0      103.9099    0.3177      2.4488      1.0223      2.1223      0.1765      0.5428      0.4096      
3218.2      3242.2      106.5224    0.3182      2.4627      1.0186      2.1536      0.204       0.4213      0.4279      
3218.4      3242.4      108.9006    0.3196      2.4847      1.0198      2.1943      0.1728      0.4869      0.5009      
3218.6      3242.6      109.0317    0.3213      2.5142      1.0265      2.2382      0.0337      0.9093      0.6699      
3218.8      3242.8      106.7142    0.3222      2.5485      1.0377      2.2859      0.0033      0.9936      0.8105      
3219.0      3243.0      103.2336    0.3233      2.5844      1.05        2.323       0.0         0.9983      0.9159      
3219.2      3243.2      98.1705     0.3245      2.6198      1.0611      2.3421      0.0015      0.9601      0.9676      
3219.4      3243.4      95.9019     0.3247      2.6528      1.0696      2.3551      0.0         0.9946      0.9276      
