#----------------------------------------------------------------------------
~VERSION INFORMATION
VERS.            2.0                  :CWLS LOG ASCII STANDARD -VERSION 2.0
WRAP.            NO                   :ONE LINE PER DEPTH STEP
#
#--------------------------------------------------------------------
~WELL INFORMATION
#MNEM .UNIT      DATA                 :DESCRIPTION OF MNEMONIC
#----------      ------------         -------------------------------
STRT  .m         3166.1892            :START DEPTH
STEP  .m         0.2                  :STEP DEPTH
STOP  .m         3426.1892            :STOP DEPTH
NULL  .          -999.25              :NULL VALUE
COMP  .                               :COMPANY
WELL  .                               :WELL
LOC   .                               :LOCATION - AREA
FLD   .          	              :FIELD
CTRY  .                               :COUNTRY
DATE  .                               :WELL DATE
UWI   .            	              :UWI
ZSTK  .          TVDss                :Z-STICK
XWELL .m         	              :X POS
YWELL .m         	              :Y POS
EDF   .          14.0                 :DERRICK FLOOR ELEVATION
#
#----------------------------------------------------------------------------
~CURVE INFORMATION
#MNEM.UNIT                                              : CURVE DESCRIPTION
#----------                                             -------------------------------
DEPT                    .m                              : 1      DEPTH
MD                      .m                              : 2      Depth
GR                      .API                            : 3      GR
CALIPER                 .m                              : 4      Cal
VP                      .km/s                           : 5      Vp
Vs_calculado_de_VPVS    .km/s                           : 6      Vs
RHO                     .g/cm3                          : 7      Rho
Porosidade              .fract                          : 8      Por
Argilosidade            .fract                          : 9      Volume
Saturacao               .fract                          : 10     Sat
#
#----------------------------------------------------------------------------
~A                      MD                      GR                      CALIPER                 VP                      Vs_calculado_de_VPVS    RHO                     Porosidade              Argilosidade            Saturacao               
# ...
3417.7892               3431.7892               90.6984                 0.3147                  2.1514                  1.0994                  2.321                   0.0326                  0.504                   0.3324                  
3417.9892               3431.9892               92.4351                 0.315                   2.1673                  1.0297                  2.3268                  0.033                   0.6783                  0.3186                  
3418.1892               3432.1892               92.2086                 0.3145                  2.2058                  0.9887                  2.3105                  0.0801                  0.6348                  0.2927                  
3418.3892               3432.3892               89.8615                 0.3144                  2.2568                  0.9888                  2.2791                  0.1806                  0.3823                  0.2537                  
3418.5892               3432.5892               86.8928                 0.3151                  2.3115                  1.0135                  2.2437                  0.2895                  0.1032                  0.2126                  
3418.7892               3432.7892               87.2684                 0.3164                  2.3646                  1.0358                  2.214                   0.2853                  0.0741                  0.2037                  
3418.9892               3432.9892               89.2605                 0.3171                  2.4135                  1.0378                  2.1954                  0.2798                  0.047                   0.1949                  
3419.1892               3433.1892               91.6485                 0.3162                  2.4561                  1.0319                  2.1892                  0.2636                  0.0892                  0.2201                  
3419.3892               3433.3892               92.1188                 0.3147                  2.4896                  1.0359                  2.1917                  0.2354                  0.2052                  0.2824                  
3419.5892               3433.5892               90.9172                 0.3143                  2.5121                  1.0455                  2.1962                  0.2059                  0.3266                  0.347                   
3419.7892               3433.7892               88.4476                 0.3149                  2.5212                  1.0592                  2.1968                  0.1942                  0.4016                  0.3957                  
3419.9892               3433.9892               84.7448                 0.3159                  2.5177                  1.0966                  2.1922                  0.1824                  0.4793                  0.4464                  
3420.1892               3434.1892               80.6859                 0.3162                  2.5067                  1.1511                  2.184                   0.2063                  0.4217                  0.4302                  
3420.3892               3434.3892               79.8592                 0.3157                  2.4963                  1.1715                  2.1747                  0.2686                  0.2262                  0.3487                  
3420.5892               3434.5892               81.4683                 0.3156                  2.4941                  1.1392                  2.1677                  0.3364                  0.0116                  0.2584                  
3420.7892               3434.7892               84.6327                 0.316                   2.5048                  1.0826                  2.1658                  0.2806                  0.1778                  0.3642                  
3420.9892               3434.9892               86.7335                 0.3175                  2.5281                  1.0363                  2.1711                  0.2188                  0.3613                  0.4803                  
3421.1892               3435.1892               88.4283                 0.3184                  2.5602                  1.0087                  2.1824                  0.1867                  0.468                   0.5568                  
3421.3892               3435.3892               89.6839                 0.3166                  2.5954                  1.0013                  2.1969                  0.1875                  0.4903                  0.5908                  
3421.5892               3435.5892               90.33                   0.3168                  2.6289                  1.0183                  2.2128                  0.1887                  0.5104                  0.6227                  
3421.7892               3435.7892               90.8049                 0.3196                  2.6585                  1.0621                  2.2295                  0.1321                  0.6602                  0.7658                  
3421.9892               3435.9892               93.1241                 0.3215                  2.6857                  1.1203                  2.246                   0.0701                  0.8214                  0.9186                  
3422.1892               3436.1892               92.4013                 0.3224                  2.7133                  1.1631                  2.2614                  0.0357                  0.9108                  0.9995                  
3422.3892               3436.3892               89.4366                 0.3237                  2.7438                  1.1694                  2.2746                  0.0316                  0.9209                  1.0                     
3422.5892               3436.5892               86.509                  0.3255                  2.7778                  1.1326                  2.2846                  0.028                   0.9299                  1.0                     
3422.7892               3436.7892               86.914                  0.3266                  2.8125                  1.0797                  2.2901                  0.02                    0.9499                  1.0                     
3422.9892               3436.9892               89.2295                 0.3277                  2.8421                  1.0484                  2.2888                  0.0114                  0.9716                  1.0                     
3423.1892               3437.1892               89.4408                 0.335                   2.86                    1.0524                  2.2787                  0.0379                  0.9017                  0.9446                  
3423.3892               3437.3892               87.5202                 0.3517                  2.8615                  1.0861                  2.2612                  0.1028                  0.7324                  0.8264                  
3423.5892               3437.5892               83.3996                 0.3675                  2.8472                  1.1211                  2.2396                  0.1709                  0.5539                  0.7017                  
3423.7892               3437.7892               82.1425                 0.3716                  2.8222                  1.1273                  2.2182                  0.1981                  0.4929                  0.6678                  
3423.9892               3437.9892               82.9262                 0.364                   2.7943                  1.1106                  2.202                   0.2259                  0.4314                  0.6339                  
3424.1892               3438.1892               86.0512                 0.3515                  2.7703                  1.0886                  2.1954                  0.2022                  0.4942                  0.6889                  
3424.3892               3438.3892               90.7025                 0.3494                  2.754                   1.0718                  2.1992                  0.1257                  0.6856                  0.8377                  
