#----------------------------------------------------------------------------
~VERSION INFORMATION
VERS.            2.0                  :CWLS LOG ASCII STANDARD -VERSION 2.0
WRAP.            NO                   :ONE LINE PER DEPTH STEP
#
#--------------------------------------------------------------------
~WELL INFORMATION
#MNEM .UNIT      DATA                 :DESCRIPTION OF MNEMONIC
#----------      ------------         -------------------------------
STRT  .m         2796.1109            :START DEPTH
STEP  .m         0.2                  :STEP DEPTH
STOP  .m         3026.1109            :STOP DEPTH
NULL  .          -999.25              :NULL VALUE
COMP  .          	              :COMPANY
WELL  .                               :WELL
LOC   .                               :LOCATION - AREA
FLD   .                               :FIELD
CTRY  .                               :COUNTRY
DATE  .                               :WELL DATE
UWI   .          	              :UWI
ZSTK  .          TVDss                :Z-STICK
XWELL .m                              :X POS
YWELL .m                              :Y POS
EDF   .          30.0                 :DERRICK FLOOR ELEVATION
#
#----------------------------------------------------------------------------
~CURVE INFORMATION
#MNEM.UNIT                                  : CURVE DESCRIPTION
#----------                                 -------------------------------
DEPT        .m                              : 1      DEPTH
MD          .m                              : 2      Depth
Depth_TVDkb .m                              : 3      Depth
COTA        .m                              : 4      Depth
GR          .API                            : 5      GR
CALIPER     .m                              : 6      Cal
VP          .km/s                           : 7      Vp
VS          .km/s                           : 8      Vs
RHO         .g/cm3                          : 9      Rho
Porosidade  .fract                          : 10     Por
Argilosidade.fract                          : 11     Volume
Saturacao   .fract                          : 12     Sat
#
#----------------------------------------------------------------------------
~A          MD          Depth_TVDkb COTA        GR          CALIPER     VP          VS          RHO         Porosidade  Argilosidade Saturacao   
# ...
2874.5109   2924.8894   2904.5109   -2894.8894  78.0297     0.3243      3.346       1.319       2.3749      6.0E-4      0.567       0.0106      
2874.7109   2925.0796   2904.7109   -2895.0796  80.1404     0.3247      3.4263      1.3222      2.386       0.0156      0.3891      0.0266      
2874.9109   2925.2698   2904.9109   -2895.2698  81.7426     0.3252      3.4643      1.318       2.384       0.0505      0.2233      0.0495      
2875.1109   2925.46     2905.1109   -2895.46    90.6895     0.3254      3.4614      1.3017      2.3691      0.1822      0.1186      0.0824      
2875.3109   2925.6502   2905.3109   -2895.6502  96.3865     0.3254      3.4214      1.2763      2.3435      0.2427      0.0868      0.0961      
2875.5109   2925.8405   2905.5109   -2895.8405  97.0458     0.3254      3.3452      1.2437      2.3129      0.2296      0.121       0.0968      
2875.7109   2926.0308   2905.7109   -2896.0308  99.8234     0.3252      3.2439      1.2064      2.2818      0.2175      0.163       0.0968      
2875.9109   2926.221    2905.9109   -2896.221   101.1392    0.3247      3.1274      1.1671      2.252       0.2099      0.2063      0.0944      
2876.1109   2926.4112   2906.1109   -2896.4112  103.6045    0.3238      3.0045      1.1281      2.225       0.2087      0.2335      0.0919      
2876.3109   2926.6015   2906.3109   -2896.6015  99.2945     0.3226      2.882       1.0913      2.2027      0.2264      0.2454      0.09        
2876.5109   2926.7918   2906.5109   -2896.7918  96.6179     0.3211      2.7628      1.0583      2.1864      0.2378      0.257       0.0884      
2876.7109   2926.9823   2906.7109   -2896.9823  98.1911     0.3193      2.6498      1.03        2.1757      0.24        0.273       0.0873      
2876.9109   2927.1727   2906.9109   -2897.1727  101.2901    0.3179      2.552       1.0073      2.1682      0.2444      0.2703      0.0863      
2877.1109   2927.3632   2907.1109   -2897.3632  99.3611     0.3171      2.4735      0.9906      2.1623      0.2606      0.1644      0.0854      
2877.3109   2927.5535   2907.3109   -2897.5535  98.7399     0.3169      2.417       0.9814      2.1584      0.2711      0.1174      0.0849      
2877.5109   2927.7438   2907.5109   -2897.7438  95.5447     0.3171      2.3648      0.9548      2.1505      0.2753      0.1319      0.0847      
2877.7109   2927.934    2907.7109   -2897.934   86.963      0.3173      2.3595      0.949       2.1382      0.276       0.145       0.0847      
2877.9109   2928.1242   2907.9109   -2898.1242  87.6788     0.3177      2.3748      0.9683      2.136       0.2693      0.152       0.0847      
2878.1109   2928.3144   2908.1109   -2898.3144  84.9691     0.3181      2.3496      0.9862      2.1431      0.2587      0.1625      0.0861      
2878.3109   2928.5044   2908.3109   -2898.5044  86.0661     0.3184      2.2644      0.9954      2.1695      0.2393      0.1834      0.1004      
2878.5109   2928.6944   2908.5109   -2898.6944  84.9923     0.3187      2.2256      0.9963      2.1885      0.2341      0.2016      0.1075      
2878.7109   2928.8844   2908.7109   -2898.8844  86.9704     0.3192      2.224       0.9965      2.1797      0.2513      0.2168      0.1082      
2878.9109   2929.0743   2908.9109   -2899.0743  93.5599     0.3195      2.2295      0.9987      2.1501      0.2584      0.2177      0.1096      
2879.1109   2929.2641   2909.1109   -2899.2641  94.0763     0.3196      2.2364      1.0039      2.1454      0.2583      0.1843      0.1142      
2879.3109   2929.454    2909.3109   -2899.454   93.9683     0.3194      2.2484      1.0125      2.1562      0.2566      0.1736      0.1156      
2879.5109   2929.6438   2909.5109   -2899.6438  91.4001     0.3188      2.268       1.0235      2.1668      0.2417      0.1989      0.1117      
2879.7109   2929.8335   2909.7109   -2899.8335  90.9514     0.3183      2.2901      1.0336      2.1755      0.2349      0.2088      0.1078      
2879.9109   2930.0232   2909.9109   -2900.0232  91.2987     0.3181      2.3234      1.0415      2.1812      0.2344      0.2088      0.1042      
2880.1109   2930.2128   2910.1109   -2900.2128  89.5641     0.318       2.3499      1.0466      2.1838      0.2331      0.2097      0.1035      
2880.3109   2930.4025   2910.3109   -2900.4025  87.9125     0.3177      2.3497      1.047       2.1873      0.2289      0.2207      0.1057      
2880.5109   2930.592    2910.5109   -2900.592   89.9215     0.3179      2.3388      1.0426      2.1893      0.2217      0.2402      0.1062      
2880.7109   2930.7814   2910.7109   -2900.7814  92.6702     0.3187      2.3303      1.0354      2.1928      0.2078      0.2807      0.1036      
2880.9109   2930.9708   2910.9109   -2900.9708  99.8331     0.3192      2.3215      1.0303      2.1983      0.2093      0.2821      0.1057      
2881.1109   2931.1603   2911.1109   -2901.1603  103.3879    0.3193      2.3058      1.0255      2.1892      0.2593      0.179       0.1315      
2881.3109   2931.3497   2911.3109   -2901.3497  99.6235     0.3195      2.2694      1.0196      2.1516      0.2928      0.0883      0.1458      
2881.5109   2931.5389   2911.5109   -2901.5389  92.178      0.3199      2.1994      1.0155      2.1297      0.3098      0.0175      0.1509      
2881.7109   2931.7281   2911.7109   -2901.7281  94.9417     0.3201      2.122       1.0152      2.1336      0.3134      0.0         0.151       
2881.9109   2931.9174   2911.9109   -2901.9174  96.2088     0.3205      2.0734      1.0155      2.1374      0.3124      0.0         0.1434      
2882.1109   2932.1065   2912.1109   -2902.1065  96.0291     0.3207      2.0526      1.0147      2.1339      0.3125      0.0         0.1413      
2882.3109   2932.2955   2912.3109   -2902.2955  95.6443     0.3205      2.0509      1.0127      2.1257      0.3162      0.0         0.1442      
2882.5109   2932.4846   2912.5109   -2902.4846  94.265      0.3204      2.0666      1.0127      2.1249      0.3139      0.0067      0.1451      
2882.7109   2932.6736   2912.7109   -2902.6736  92.7571     0.3207      2.1123      1.0146      2.1377      0.2876      0.0614      0.1449      
2882.9109   2932.8626   2912.9109   -2902.8626  94.9789     0.3209      2.1781      1.0176      2.1574      0.2668      0.128       0.14        
2883.1109   2933.0514   2913.1109   -2903.0514  97.4047     0.3211      2.2511      1.0195      2.1576      0.2519      0.2102      0.1117      
2883.3109   2933.2403   2913.3109   -2903.2403  94.4853     0.3214      2.3025      1.0195      2.154       0.2497      0.224       0.1039      
2883.5109   2933.4291   2913.5109   -2903.4291  88.3124     0.3217      2.3119      1.0176      2.1583      0.2568      0.1785      0.1084      
2883.7109   2933.6179   2913.7109   -2903.6179  87.9979     0.3217      2.304       1.0148      2.1603      0.2637      0.1422      0.1111      
2883.9109   2933.8065   2913.9109   -2903.8065  89.4971     0.3216      2.2734      1.014       2.1567      0.2701      0.1154      0.1125      
2884.1109   2933.9951   2914.1109   -2903.9951  91.4465     0.3213      2.2429      1.0148      2.1576      0.2703      0.11        0.1124      
2884.3109   2934.1838   2914.3109   -2904.1838  91.464      0.3209      2.2446      1.0181      2.1666      0.2618      0.1119      0.11        
2884.5109   2934.3724   2914.5109   -2904.3724  90.1904     0.3207      2.2702      1.0248      2.178       0.25        0.1265      0.1038      
2884.7109   2934.5608   2914.7109   -2904.5608  89.8992     0.3208      2.2882      1.0358      2.1849      0.2329      0.1966      0.0882      
2884.9109   2934.7492   2914.9109   -2904.7492  91.7942     0.3203      2.3021      1.0513      2.1932      0.2175      0.2453      0.0843      
2885.1109   2934.9377   2915.1109   -2904.9377  93.1464     0.3194      2.3229      1.0695      2.2078      0.2033      0.2771      0.0844      
2885.3109   2935.126    2915.3109   -2905.126   92.8137     0.3188      2.3355      1.0854      2.211       0.2032      0.2792      0.0851      
2885.5109   2935.3142   2915.5109   -2905.3142  93.5893     0.3186      2.3433      1.0968      2.202       0.2176      0.2552      0.0898      
