#----------------------------------------------------------------------------
~VERSION INFORMATION
VERS.            2.0                  :CWLS LOG ASCII STANDARD -VERSION 2.0
WRAP.            NO                   :ONE LINE PER DEPTH STEP
#
#--------------------------------------------------------------------
~WELL INFORMATION
#MNEM .UNIT      DATA                 :DESCRIPTION OF MNEMONIC
#----------      ------------         -------------------------------
STRT  .m         2775.191             :START DEPTH
STEP  .m         0.2                  :STEP DEPTH
STOP  .m         3093.191             :STOP DEPTH
NULL  .          -999.25              :NULL VALUE
COMP  .                               :COMPANY
WELL  .                               :WELL
LOC   .                               :LOCATION - AREA
FLD   .                               :FIELD
CTRY  .                               :COUNTRY
DATE  .                               :WELL DATE
UWI   .                               :UWI
ZSTK  .          TVDss                :Z-STICK
XWELL .m         	              :X POS
YWELL .m         	              :Y POS
EDF   .          24.0                 :DERRICK FLOOR ELEVATION
#
#----------------------------------------------------------------------------
~CURVE INFORMATION
#MNEM.UNIT                                  : CURVE DESCRIPTION
#----------                                 -------------------------------
DEPT        .m                              : 1      DEPTH
COTA        .m                              : 2      Depth
Depth_TVDkb .m                              : 3      Depth
TVD         .m                              : 4      Depth
GR          .API                            : 5      GR
CALIPER     .m                              : 6      Cal
VP          .km/s                           : 7      Vp
VS          .km/s                           : 8      Vs
RHO         .g/cm3                          : 9      Rho
Porosidade  .fract                          : 10     Por
Argilosidade.fract                          : 11     Volume
Saturacao   .fract                          : 12     Sat
#
#----------------------------------------------------------------------------
~A          COTA        Depth_TVDkb TVD         GR          CALIPER     VP          VS          RHO         Porosidade  Argilosidade Saturacao   
# ...
2875.991    -2875.9914  2899.991    2899.9914   72.714      0.3173      2.0628      1.1858      2.0528      0.3025      0.0         0.0975      
2876.191    -2876.1916  2900.191    2900.1916   73.6329     0.3173      2.0986      1.2103      2.0563      0.2987      0.0049      0.0999      
2876.391    -2876.3917  2900.391    2900.3917   76.7319     0.3173      2.1603      1.2564      2.0624      0.2952      0.0095      0.1023      
2876.591    -2876.5918  2900.591    2900.5918   77.8149     0.3172      2.222       1.3005      2.0643      0.2918      0.0139      0.1049      
2876.791    -2876.7919  2900.791    2900.7919   77.0234     0.3171      2.2703      1.3259      2.0636      0.2884      0.0184      0.1076      
2876.991    -2876.992   2900.991    2900.992    77.7238     0.317       2.2764      1.3145      2.0704      0.2849      0.023       0.1104      
2877.191    -2877.1922  2901.191    2901.1922   78.0905     0.3168      2.2754      1.2908      2.0795      0.2763      0.0473      0.1295      
2877.391    -2877.3923  2901.391    2901.3923   77.5091     0.3167      2.3015      1.283       2.0827      0.2675      0.0718      0.1487      
2877.591    -2877.5924  2901.591    2901.5924   80.4902     0.317       2.3461      1.2972      2.0936      0.2492      0.1421      0.2226      
2877.791    -2877.7925  2901.791    2901.7925   82.7776     0.3172      2.3723      1.3144      2.109       0.2311      0.2112      0.2948      
2877.991    -2877.9927  2901.991    2901.9927   87.1554     0.3173      2.3786      1.3166      2.1221      0.2141      0.2776      0.363       
2878.191    -2878.1928  2902.191    2902.1928   98.5906     0.3178      2.4539      1.3363      2.1553      0.2222      0.2916      0.3631      
2878.391    -2878.3929  2902.391    2902.3929   100.0375    0.3181      2.4951      1.3341      2.1663      0.2293      0.3064      0.3633      
2878.591    -2878.593   2902.591    2902.593    101.6208    0.318       2.4161      1.2752      2.1179      0.2176      0.3354      0.3967      
2878.791    -2878.7932  2902.791    2902.7932   99.6717     0.3183      2.2859      1.202       2.0954      0.2064      0.364       0.4288      
2878.991    -2878.9933  2902.991    2902.9933   100.2189    0.3186      2.2347      1.1695      2.1317      0.1959      0.3906      0.4586      
2879.191    -2879.1934  2903.191    2903.1934   107.5652    0.3185      2.242       1.1554      2.1612      0.223       0.3417      0.395       
2879.391    -2879.3935  2903.391    2903.3935   113.3741    0.3186      2.2656      1.1475      2.1539      0.2472      0.298       0.3381      
2879.591    -2879.5937  2903.591    2903.5937   110.5411    0.3186      2.223       1.1177      2.1168      0.2393      0.3087      0.3537      
2879.791    -2879.7938  2903.791    2903.7938   103.2446    0.3183      2.1589      1.0909      2.0799      0.2318      0.3188      0.3687      
2879.991    -2879.9939  2903.991    2903.9939   97.6059     0.3184      2.1218      1.0823      2.0697      0.2239      0.3297      0.3846      
2880.191    -2880.194   2904.191    2904.194    95.7769     0.3187      2.1234      1.0856      2.0958      0.1937      0.3974      0.4681      
2880.391    -2880.3941  2904.391    2904.3941   99.7297     0.3188      2.157       1.0899      2.1454      0.1663      0.4583      0.5434      
2880.591    -2880.5941  2904.591    2904.5941   102.6029    0.319       2.1904      1.0795      2.1778      0.175       0.4547      0.5253      
2880.791    -2880.7942  2904.791    2904.7942   106.6188    0.3189      2.2252      1.0637      2.1784      0.1833      0.4512      0.508       
2880.991    -2880.9942  2904.991    2904.9942   106.807     0.3186      2.2544      1.0486      2.1613      0.1917      0.4473      0.4901      
2881.191    -2881.1943  2905.191    2905.1943   107.8935    0.3187      2.272       1.0402      2.145       0.2114      0.3951      0.4364      
2881.391    -2881.3943  2905.391    2905.3943   108.1864    0.3189      2.2484      1.026       2.1401      0.2312      0.3447      0.3837      
2881.591    -2881.5944  2905.591    2905.5944   109.376     0.3187      2.1983      1.0109      2.1219      0.2648      0.2807      0.3149      
2881.791    -2881.7944  2905.791    2905.7944   104.5254    0.3185      2.1385      0.9975      2.0659      0.2981      0.2169      0.2464      
2881.991    -2881.9944  2905.991    2905.9944   99.2406     0.3183      2.0889      0.9946      2.0006      0.3291      0.1575      0.1826      
2882.191    -2882.1944  2906.191    2906.1944   98.4767     0.3183      2.0258      0.9935      1.9964      0.3189      0.1828      0.2054      
2882.391    -2882.3944  2906.391    2906.3944   94.8311     0.3183      1.9618      0.994       1.9792      0.3094      0.205       0.2276      
2882.591    -2882.5944  2906.591    2906.5944   92.7911     0.3183      1.9548      1.019       1.9775      0.3046      0.1688      0.2746      
2882.791    -2882.7944  2906.791    2906.7944   94.6092     0.3187      1.9753      1.0379      2.0041      0.2997      0.1347      0.3208      
2882.991    -2882.9943  2906.991    2906.9943   97.9295     0.3194      2.0339      1.0544      2.079       0.2951      0.0999      0.3638      
2883.191    -2883.1943  2907.191    2907.1943   101.8197    0.3196      2.0995      1.0616      2.1331      0.3175      0.048       0.3493      
2883.391    -2883.3943  2907.391    2907.3943   102.8008    0.3193      2.1302      1.0517      2.1312      0.3372      7.0E-4      0.3366      
2883.591    -2883.5942  2907.591    2907.5942   102.4919    0.3193      2.1263      1.0342      2.1027      0.3026      0.1032      0.3617      
2883.791    -2883.7941  2907.791    2907.7941   102.1979    0.3197      2.114       1.0262      2.0882      0.2695      0.2008      0.3858      
2883.991    -2883.9941  2907.991    2907.9941   103.0637    0.3202      2.1431      1.044       2.0997      0.2372      0.295       0.4081      
2884.191    -2884.194   2908.191    2908.194    102.3648    0.3207      2.1546      1.054       2.1422      0.2205      0.3246      0.3902      
2884.391    -2884.3939  2908.391    2908.3939   99.8311     0.3205      2.1748      1.0614      2.1889      0.2049      0.3522      0.3726      
2884.591    -2884.5938  2908.591    2908.5938   97.3976     0.3197      2.1847      1.0609      2.1711      0.2593      0.2286      0.3325      
2884.791    -2884.7937  2908.791    2908.7937   96.7356     0.3191      2.1612      1.0439      2.0814      0.3111      0.1107      0.2931      
2884.991    -2884.9936  2908.991    2908.9936   97.2548     0.319       2.1392      1.0292      2.0453      0.3597      1.0E-4      0.2553      
2885.191    -2885.1935  2909.191    2909.1935   99.7636     0.319       2.1236      1.0176      2.0684      0.3512      0.0228      0.2483      
2885.391    -2885.3934  2909.391    2909.3934   98.1446     0.3188      2.1344      1.0135      2.0773      0.3428      0.0448      0.2416      
2885.591    -2885.5932  2909.591    2909.5932   93.0747     0.3188      2.1576      1.0116      2.0784      0.3236      0.0895      0.272       
2885.791    -2885.7931  2909.791    2909.7931   92.2027     0.3189      2.1768      1.0143      2.0914      0.3048      0.1334      0.3009      
2885.991    -2885.9929  2909.991    2909.9929   97.4505     0.3191      2.1622      1.0048      2.1085      0.2852      0.1798      0.3303      
2886.191    -2886.1928  2910.191    2910.1928   102.9614    0.3192      2.169       1.0029      2.1126      0.2116      0.4062      0.3734      
2886.391    -2886.3926  2910.391    2910.3926   104.5791    0.3192      2.2045      1.0033      2.1238      0.144       0.6131      0.4135      
2886.591    -2886.5925  2910.591    2910.5925   104.7795    0.3194      2.2504      0.9942      2.1562      0.1719      0.5424      0.3691      
2886.791    -2886.7923  2910.791    2910.7923   103.9156    0.3195      2.3141      0.9914      2.157       0.1987      0.4749      0.3266      
2886.991    -2886.9921  2910.991    2910.9921   103.5199    0.3194      2.3342      0.9763      2.1248      0.2257      0.4061      0.2846      
