#----------------------------------------------------------------------------
~VERSION INFORMATION
VERS.            2.0                  :CWLS LOG ASCII STANDARD -VERSION 2.0
WRAP.            NO                   :ONE LINE PER DEPTH STEP
#
#--------------------------------------------------------------------
~WELL INFORMATION
#MNEM .UNIT      DATA                 :DESCRIPTION OF MNEMONIC
#----------      ------------         -------------------------------
STRT  .m         2775.191             :START DEPTH
STEP  .m         0.2                  :STEP DEPTH
STOP  .m         3093.191             :STOP DEPTH
NULL  .          -999.25              :NULL VALUE
COMP  .                               :COMPANY
WELL  .                               :WELL
LOC   .                               :LOCATION - AREA
FLD   .                               :FIELD
CTRY  .                               :COUNTRY
DATE  .                               :WELL DATE
UWI   .                               :UWI
ZSTK  .          TVDss                :Z-STICK
XWELL .m         	              :X POS
YWELL .m         	              :Y POS
EDF   .          24.0                 :DERRICK FLOOR ELEVATION
#
#----------------------------------------------------------------------------
~CURVE INFORMATION
#MNEM.UNIT                                  : CURVE DESCRIPTION
#----------                                 -------------------------------
DEPT        .m                              : 1      DEPTH
COTA        .m                              : 2      Depth
Depth_TVDkb .m                              : 3      Depth
TVD         .m                              : 4      Depth
GR          .API                            : 5      GR
CALIPER     .m                              : 6      Cal
VP          .km/s                           : 7      Vp
VS          .km/s                           : 8      Vs
RHO         .g/cm3                          : 9      Rho
Porosidade  .fract                          : 10     Por
Argilosidade.fract                          : 11     Volume
Saturacao   .fract                          : 12     Sat
#
#----------------------------------------------------------------------------
~A          COTA        Depth_TVDkb TVD         GR          CALIPER     VP          VS          RHO         Porosidade  Argilosidade Saturacao   
# ...
2898.391    -2898.3708  2922.391    2922.3708   81.3208     0.3173      2.4832      1.0809      2.1219      0.3195      0.0199      0.1855      
2898.591    -2898.5703  2922.591    2922.5703   79.9182     0.3173      2.489       1.0854      2.1276      0.3204      0.0128      0.182       
2898.791    -2898.7697  2922.791    2922.7697   80.5716     0.3172      2.4922      1.092       2.1208      0.321       0.0066      0.1786      
2898.991    -2898.9692  2922.991    2922.9692   82.376      0.317       2.5147      1.1192      2.1145      0.3216      1.0E-4      0.1753      
2899.191    -2899.1686  2923.191    2923.1686   82.4966     0.3173      2.5205      1.1659      2.1274      0.1726      0.3867      0.116       
2899.391    -2899.368   2923.391    2923.368    79.9462     0.3178      2.4987      1.1949      2.2206      0.0016      0.8304      0.0485      
2899.591    -2899.5675  2923.591    2923.5675   75.277      0.3183      2.7503      1.3045      2.4265      0.0         0.772       0.0522      
2899.791    -2899.7669  2923.791    2923.7669   70.5623     0.3185      3.3563      1.4722      2.6125      0.0         0.7041      0.0569      
2899.991    -2899.9663  2923.991    2923.9663   67.8882     0.3186      4.548       1.8125      2.678       0.0         0.6393      0.0613      
2900.191    -2900.1657  2924.191    2924.1657   70.7201     0.3187      4.9877      1.9182      2.6243      0.1139      0.3429      0.1423      
2900.391    -2900.3651  2924.391    2924.3651   74.0131     0.3187      4.248       1.6975      2.4425      0.2457      0.0045      0.2371      
2900.591    -2900.5645  2924.591    2924.5645   78.4633     0.3181      3.3989      1.4788      2.2436      0.2695      0.0126      0.2244      
2900.791    -2900.7639  2924.791    2924.7639   83.8933     0.3177      2.8557      1.329       2.1641      0.2905      0.0266      0.2089      
2900.991    -2900.9633  2924.991    2924.9633   85.4655     0.3178      2.6322      1.2453      2.1512      0.3131      0.0402      0.1924      
2901.191    -2901.1627  2925.191    2925.1627   84.9163     0.3177      2.5206      1.1698      2.1283      0.3064      0.064       0.2145      
2901.391    -2901.3621  2925.391    2925.3621   87.3983     0.3177      2.514       1.1305      2.1173      0.2982      0.0883      0.2418      
2901.591    -2901.5615  2925.591    2925.5615   92.0744     0.318       2.5052      1.0947      2.1303      0.2919      0.1238      0.2364      
2901.791    -2901.7609  2925.791    2925.7609   95.7494     0.3182      2.4776      1.058       2.1474      0.2858      0.1603      0.2296      
2901.991    -2901.9603  2925.991    2925.9603   97.5642     0.318       2.4834      1.0446      2.1438      0.279       0.1998      0.2233      
2902.191    -2902.1597  2926.191    2926.1597   95.6414     0.318       2.4957      1.0387      2.1167      0.2945      0.1575      0.2049      
2902.391    -2902.3591  2926.391    2926.3591   93.7121     0.3182      2.499       1.0333      2.0997      0.3138      0.1059      0.1834      
2902.591    -2902.5584  2926.591    2926.5584   90.8054     0.3182      2.4684      1.0117      2.1         0.3157      0.0856      0.1889      
2902.791    -2902.7578  2926.791    2926.7578   86.4609     0.3181      2.451       1.0018      2.0955      0.3172      0.0671      0.1958      
2902.991    -2902.9572  2926.991    2926.9572   82.3806     0.3181      2.4451      1.0021      2.1008      0.3188      0.0467      0.2035      
2903.191    -2903.1565  2927.191    2927.1565   81.4318     0.3182      2.4418      1.0114      2.1134      0.2249      0.273       0.1976      
2903.391    -2903.3559  2927.391    2927.3559   82.8119     0.3182      2.4421      1.023       2.1492      0.1032      0.5673      0.1902      
2903.591    -2903.5552  2927.591    2927.5552   82.8762     0.3183      2.464       1.0407      2.2361      0.1638      0.431       0.1855      
2903.791    -2903.7546  2927.791    2927.7546   83.7976     0.3183      2.5117      1.0702      2.261       0.2403      0.2582      0.1809      
2903.991    -2903.9539  2927.991    2927.9539   85.8858     0.3183      2.4756      1.0635      2.1835      0.3216      0.0758      0.176       
2904.191    -2904.1533  2928.191    2928.1533   82.727      0.3185      2.45        1.0662      2.1008      0.3353      0.0361      0.1822      
2904.391    -2904.3526  2928.391    2928.3526   92.7191     0.3187      2.4113      1.0599      2.0805      0.3466      0.0013      0.1897      
2904.591    -2904.5519  2928.591    2928.5519   86.1035     0.3186      2.3815      1.0545      2.085       0.332       0.0376      0.2085      
2904.791    -2904.7513  2928.791    2928.7513   80.5272     0.3185      2.38        1.056       2.0985      0.3135      0.0838      0.2291      
2904.991    -2904.9506  2928.991    2928.9506   88.7896     0.3185      2.3953      1.0659      2.1121      0.2959      0.1271      0.2509      
2905.191    -2905.1499  2929.191    2929.1499   96.92       0.3186      2.4062      1.0724      2.1195      0.269       0.2177      0.2583      
2905.391    -2905.3492  2929.391    2929.3492   103.1508    0.3187      2.4233      1.0781      2.1254      0.2405      0.3196      0.2653      
2905.591    -2905.5486  2929.591    2929.5486   99.4973     0.3188      2.4671      1.0953      2.1267      0.2153      0.3786      0.2613      
2905.791    -2905.7479  2929.791    2929.7479   96.8743     0.319       2.5025      1.1105      2.1327      0.1907      0.433       0.2559      
2905.991    -2905.9472  2929.991    2929.9472   98.593      0.3191      2.531       1.1264      2.1588      0.163       0.4943      0.2508      
2906.191    -2906.1465  2930.191    2930.1465   89.33       0.3189      2.5675      1.1464      2.1761      0.1996      0.3879      0.2432      
2906.391    -2906.3458  2930.391    2930.3458   83.789      0.3188      2.5974      1.1593      2.1649      0.2515      0.239       0.2343      
2906.591    -2906.5451  2930.591    2930.5451   86.2929     0.3188      2.6035      1.1595      2.1441      0.27        0.1812      0.2334      
2906.791    -2906.7444  2930.791    2930.7444   82.3466     0.3184      2.5661      1.1445      2.1274      0.2852      0.133       0.2332      
2906.991    -2906.9437  2930.991    2930.9437   88.9063     0.3181      2.5259      1.132       2.1244      0.3026      0.0779      0.2328      
2907.191    -2907.143   2931.191    2931.143    95.0108     0.3183      2.4862      1.1167      2.1279      0.2965      0.09        0.2462      
2907.391    -2907.3423  2931.391    2931.3423   91.3667     0.3184      2.4948      1.1192      2.1341      0.2875      0.1091      0.2633      
2907.591    -2907.5416  2931.591    2931.5416   88.5654     0.3184      2.5116      1.1182      2.1416      0.2697      0.171       0.2985      
2907.791    -2907.7409  2931.791    2931.7409   93.4337     0.3184      2.5223      1.1136      2.1415      0.2499      0.2448      0.3382      
2907.991    -2907.9401  2931.991    2931.9401   96.7724     0.3186      2.5283      1.107       2.139       0.2308      0.3151      0.3801      
2908.191    -2908.1394  2932.191    2932.1394   101.6188    0.3188      2.5309      1.099       2.1423      0.2008      0.4208      0.3956      
2908.391    -2908.3387  2932.391    2932.3387   105.0569    0.3188      2.5196      1.0834      2.1466      0.1638      0.5501      0.4093      
2908.591    -2908.538   2932.591    2932.538    104.485     0.3185      2.5213      1.0716      2.1504      0.1638      0.5459      0.4051      
2908.791    -2908.7372  2932.791    2932.7372   100.3749    0.3184      2.5306      1.0643      2.1499      0.1677      0.5267      0.3979      
2908.991    -2908.9365  2932.991    2932.9365   104.6495    0.3182      2.5428      1.0626      2.1452      0.172       0.5055      0.39        
2909.191    -2909.1358  2933.191    2933.1358   101.1264    0.3182      2.5437      1.0639      2.1525      0.1646      0.5322      0.3924      
2909.391    -2909.335   2933.391    2933.335    102.4049    0.3183      2.531       1.0631      2.1672      0.1521      0.5782      0.3975      
