#----------------------------------------------------------------------------
~VERSION INFORMATION
VERS.            2.0                  :CWLS LOG ASCII STANDARD -VERSION 2.0
WRAP.            NO                   :ONE LINE PER DEPTH STEP
#
#--------------------------------------------------------------------
~WELL INFORMATION
#MNEM .UNIT      DATA                 :DESCRIPTION OF MNEMONIC
#----------      ------------         -------------------------------
STRT  .m         2910.0               :START DEPTH
STEP  .m         0.2                  :STEP DEPTH
STOP  .m         3110.0               :STOP DEPTH
NULL  .          -999.25              :NULL VALUE
COMP  .                               :COMPANY
WELL  .                               :WELL
LOC   .                               :LOCATION - AREA
FLD   .                               :FIELD
CTRY  .                               :COUNTRY
DATE  .                               :WELL DATE
UWI   .                               :UWI
ZSTK  .          TVDss                :Z-STICK
XWELL .m         	              :X POS
YWELL .m         	              :Y POS
EDF   .          14.0                 :DERRICK FLOOR ELEVATION
#
#----------------------------------------------------------------------------
~CURVE INFORMATION
#MNEM.UNIT                                  : CURVE DESCRIPTION
#----------                                 -------------------------------
DEPT        .m                              : 1      DEPTH
MD          .m                              : 2      Depth
GR          .API                            : 3      GR
CALIPER     .m                              : 4      Cal
VP          .km/s                           : 5      Vp
VS          .km/s                           : 6      Vs
RHO         .g/cm3                          : 7      Rho
Porosidade  .fract                          : 8      Por
Argilosidade.fract                          : 9      Volume
Saturacao   .fract                          : 10     Sat
#
#----------------------------------------------------------------------------
~A          MD          GR          CALIPER     VP          VS          RHO         Porosidade  Argilosidade Saturacao   
# ...
2950.2      2963.2658   123.6138    0.3394      2.6432      1.103       2.2147      0.1264      0.6838      0.8513      
2950.4      2963.4656   125.1285    0.3385      2.6873      1.0788      2.1799      0.1713      0.5717      0.7634      
2950.6      2963.6654   126.9249    0.3387      2.667       1.0589      2.1593      0.1767      0.5582      0.7608      
2950.8      2963.8652   127.3332    0.3404      2.6215      1.0766      2.1619      0.1507      0.6232      0.8238      
2951.0      2964.065    126.6195    0.3437      2.5957      1.0626      2.1619      0.1436      0.641       0.8357      
2951.2      2964.2648   127.1755    0.3464      2.5835      1.0559      2.1565      0.1393      0.6518      0.8421      
2951.4      2964.4646   128.3906    0.3511      2.5816      1.0542      2.159       0.1339      0.6651      0.8502      
2951.6      2964.6643   128.2218    0.3584      2.5876      1.0696      2.1607      0.1657      0.5857      0.7769      
2951.8      2964.8641   134.5823    0.3588      2.6         1.0834      2.1474      0.2146      0.4634      0.6622      
2952.0      2965.0639   144.9009    0.3522      2.5918      1.0914      2.1383      0.208       0.4799      0.6812      
2952.2      2965.2637   147.0824    0.3461      2.598       1.1331      2.1558      0.1419      0.6451      0.8496      
2952.4      2965.4635   141.1923    0.3436      2.6269      1.1231      2.1957      0.0591      0.8524      0.9927      
2952.6      2965.6633   134.2172    0.3413      2.6619      1.1091      2.2325      0.0054      0.9866      1.0         
2952.8      2965.8631   129.1228    0.3384      2.6575      1.1012      2.2408      0.0168      0.9577      0.9923      
2953.0      2966.0628   128.1563    0.3381      2.614       1.0445      2.2073      0.0692      0.8271      1.0         
2953.2      2966.2627   130.8137    0.3409      2.5657      1.0124      2.1652      0.1108      0.7234      0.981       
2953.4      2966.4625   130.366     0.3454      2.5093      1.0232      2.1351      0.1521      0.6191      0.8461      
2953.6      2966.6622   126.426     0.3493      2.4828      1.0532      2.1071      0.2145      0.4645      0.6816      
2953.8      2966.862    128.5642    0.3519      2.4991      1.0875      2.0982      0.2429      0.3926      0.626       
2954.0      2967.0618   135.7778    0.3519      2.5355      1.0941      2.1213      0.2129      0.4662      0.6811      
2954.2      2967.2616   137.6119    0.3486      2.562       1.0737      2.1554      0.1803      0.5521      0.7418      
2954.4      2967.4614   135.0298    0.3444      2.5848      1.0669      2.1707      0.1872      0.527       0.7358      
2954.6      2967.6612   134.406     0.3429      2.5878      1.0612      2.1681      0.2088      0.451       0.7066      
2954.8      2967.8609   134.3863    0.346       2.5733      1.0487      2.1568      0.2224      0.4202      0.694       
2955.0      2968.0607   133.2491    0.3477      2.5451      1.0343      2.1395      0.2208      0.4448      0.7027      
2955.2      2968.2605   134.9895    0.3436      2.5174      1.0306      2.125       0.2108      0.4755      0.7147      
2955.4      2968.4603   137.3426    0.3397      2.5283      1.0429      2.1155      0.2167      0.4563      0.6902      
2955.6      2968.6601   134.3891    0.3402      2.5502      1.0544      2.0963      0.2475      0.3816      0.6253      
2955.8      2968.8599   128.1988    0.3412      2.5593      1.055       2.0841      0.2786      0.3055      0.579       
2956.0      2969.0597   124.3568    0.343       2.5695      1.0604      2.0975      0.2815      0.2918      0.5854      
2956.2      2969.2595   124.5367    0.3476      2.577       1.0742      2.1048      0.287       0.2747      0.5802      
2956.4      2969.4592   122.7294    0.349       2.5296      1.0783      2.0415      0.3388      0.1508      0.5144      
2956.6      2969.659    117.5529    0.3502      2.5009      1.0915      1.9222      0.3937      0.0167      0.4539      
2956.8      2969.8588   114.6368    0.3523      2.5194      1.0968      1.8632      0.4         0.0         0.4442      
2957.0      2970.0586   114.2119    0.352       2.5265      1.0995      1.9181      0.3999      4.0E-4      0.4462      
2957.2      2970.2584   114.713     0.3604      2.5162      1.1085      1.9514      0.4         0.0         0.4529      
2957.4      2970.4582   114.6091    0.3736      2.5242      1.1499      1.9209      0.3976      0.006       0.4489      
2957.6      2970.658    112.5263    0.3674      2.5322      1.1918      1.9141      0.4         0.0         0.4131      
2957.8      2970.8578   111.8191    0.3484      2.5373      1.2011      1.9776      0.3704      0.0726      0.3583      
2958.0      2971.0575   109.4467    0.335       2.5604      1.1797      2.0842      0.2629      0.3452      0.2624      
2958.2      2971.2573   101.0052    0.3237      2.588       1.1648      2.1495      0.2091      0.4712      0.1501      
2958.4      2971.4571   92.7654     0.3141      2.6062      1.1593      2.1468      0.2437      0.3472      0.1154      
2958.6      2971.6569   90.3033     0.3108      2.6001      1.1527      2.1317      0.2801      0.2047      0.1295      
2958.8      2971.8567   90.4907     0.3099      2.5433      1.1743      2.1366      0.288       0.1459      0.1271      
2959.0      2972.0565   93.3871     0.3095      2.4687      1.2019      2.1479      0.2916      0.1033      0.1255      
2959.2      2972.2563   96.5222     0.3099      2.4535      1.2123      2.155       0.293       0.0728      0.1404      
2959.4      2972.4561   97.0785     0.3099      2.4468      1.211       2.1554      0.2937      0.0653      0.1678      
2959.6      2972.6558   98.7116     0.3093      2.4565      1.2141      2.1535      0.291       0.0865      0.1959      
2959.8      2972.8556   99.9681     0.3084      2.4777      1.2335      2.1545      0.279       0.1402      0.1959      
2960.0      2973.0554   98.7541     0.3073      2.5081      1.2557      2.1611      0.2646      0.1909      0.172       
2960.2      2973.2552   97.9674     0.3066      2.5249      1.2694      2.1684      0.256       0.2145      0.1479      
2960.4      2973.455    96.9826     0.3063      2.5452      1.2774      2.1696      0.2559      0.2101      0.1323      
2960.6      2973.6548   93.9746     0.3061      2.562       1.2778      2.1685      0.26        0.1903      0.1313      
2960.8      2973.8546   93.4828     0.3061      2.5774      1.2738      2.1753      0.2553      0.1937      0.143       
2961.0      2974.0543   94.7149     0.306       2.634       1.2714      2.1883      0.2406      0.2276      0.154       
2961.2      2974.2541   95.6114     0.3062      2.6761      1.277       2.1977      0.2306      0.2506      0.1553      
2961.4      2974.4539   96.7426     0.3068      2.6868      1.3078      2.1983      0.2262      0.266       0.1478      
2961.6      2974.6537   99.5232     0.3077      2.6762      1.3758      2.2033      0.2154      0.3043      0.1386      
2961.8      2974.8535   99.7694     0.3081      2.6474      1.3878      2.2138      0.2068      0.3171      0.1388      
2962.0      2975.0533   96.081      0.3088      2.6093      1.3619      2.2153      0.2175      0.2624      0.1471      
2962.2      2975.2531   93.981      0.3122      2.5887      1.2902      2.2011      0.2387      0.1962      0.1518      
2962.4      2975.4528   95.2236     0.3186      2.5734      1.2297      2.1919      0.2433      0.1981      0.1495      
2962.6      2975.6526   97.9612     0.3234      2.5496      1.1839      2.2019      0.2215      0.2778      0.1469      
2962.8      2975.8524   99.7607     0.3224      2.5323      1.1395      2.2201      0.1911      0.3754      0.147       
2963.0      2976.0522   98.9352     0.3173      2.561       1.1581      2.2276      0.184       0.3911      0.1479      
2963.2      2976.252    98.0615     0.3153      2.594       1.2062      2.2212      0.1951      0.3504      0.1474      
2963.4      2976.4518   98.272      0.3174      2.6451      1.2489      2.2175      0.1899      0.3862      0.1393      
