#----------------------------------------------------------------------------
~VERSION INFORMATION
VERS.            2.0                  :CWLS LOG ASCII STANDARD -VERSION 2.0
WRAP.            NO                   :ONE LINE PER DEPTH STEP
#
#--------------------------------------------------------------------
~WELL INFORMATION
#MNEM .UNIT      DATA                 :DESCRIPTION OF MNEMONIC
#----------      ------------         -------------------------------
STRT  .m         3166.1892            :START DEPTH
STEP  .m         0.2                  :STEP DEPTH
STOP  .m         3426.1892            :STOP DEPTH
NULL  .          -999.25              :NULL VALUE
COMP  .                               :COMPANY
WELL  .                               :WELL
LOC   .                               :LOCATION - AREA
FLD   .          	              :FIELD
CTRY  .                               :COUNTRY
DATE  .                               :WELL DATE
UWI   .            	              :UWI
ZSTK  .          TVDss                :Z-STICK
XWELL .m         	              :X POS
YWELL .m         	              :Y POS
EDF   .          14.0                 :DERRICK FLOOR ELEVATION
#
#----------------------------------------------------------------------------
~CURVE INFORMATION
#MNEM.UNIT                                              : CURVE DESCRIPTION
#----------                                             -------------------------------
DEPT                    .m                              : 1      DEPTH
MD                      .m                              : 2      Depth
GR                      .API                            : 3      GR
CALIPER                 .m                              : 4      Cal
VP                      .km/s                           : 5      Vp
Vs_calculado_de_VPVS    .km/s                           : 6      Vs
RHO                     .g/cm3                          : 7      Rho
Porosidade              .fract                          : 8      Por
Argilosidade            .fract                          : 9      Volume
Saturacao               .fract                          : 10     Sat
#
#----------------------------------------------------------------------------
~A                      MD                      GR                      CALIPER                 VP                      Vs_calculado_de_VPVS    RHO                     Porosidade              Argilosidade            Saturacao               
# ...
3404.1892               3418.1892               71.4056                 0.3152                  2.5925                  1.108                   2.1231                  0.3162                  0.084                   0.1273                  
3404.3892               3418.3892               73.052                  0.3149                  2.5797                  1.1147                  2.117                   0.3215                  0.0432                  0.1411                  
3404.5892               3418.5892               76.5521                 0.3143                  2.573                   1.1288                  2.1141                  0.3268                  5.0E-4                  0.1568                  
3404.7892               3418.7892               80.0904                 0.3153                  2.5723                  1.1428                  2.1139                  0.3133                  0.0511                  0.1674                  
3404.9892               3418.9892               82.4429                 0.316                   2.5755                  1.1493                  2.1152                  0.2981                  0.1088                  0.1786                  
3405.1892               3419.1892               84.3082                 0.3156                  2.5795                  1.1476                  2.117                   0.2904                  0.1432                  0.1772                  
3405.3892               3419.3892               83.1132                 0.3149                  2.582                   1.1393                  2.1189                  0.2914                  0.152                   0.1641                  
3405.5892               3419.5892               79.7733                 0.3123                  2.5825                  1.1293                  2.1212                  0.2925                  0.1606                  0.1499                  
3405.7892               3419.7892               77.0766                 0.3098                  2.5824                  1.1216                  2.1244                  0.2954                  0.1273                  0.1364                  
3405.9892               3419.9892               77.3341                 0.3113                  2.5831                  1.1176                  2.129                   0.2987                  0.09                    0.1219                  
3406.1892               3420.1892               78.6582                 0.3148                  2.5845                  1.1164                  2.1342                  0.2994                  0.0641                  0.1242                  
3406.3892               3420.3892               79.8841                 0.3172                  2.5844                  1.1133                  2.139                   0.2976                  0.0505                  0.1422                  
3406.5892               3420.5892               81.0249                 0.316                   2.5786                  1.0998                  2.1418                  0.2956                  0.0364                  0.1617                  
3406.7892               3420.7892               83.4268                 0.3145                  2.5626                  1.0745                  2.1408                  0.2884                  0.0718                  0.1817                  
3406.9892               3420.9892               86.1263                 0.313                   2.5353                  1.05                    2.1353                  0.2804                  0.113                   0.2031                  
3407.1892               3421.1892               86.2088                 0.3106                  2.5004                  1.0392                  2.1261                  0.2893                  0.1203                  0.2028                  
3407.3892               3421.3892               84.643                  0.3119                  2.4654                  1.0537                  2.1154                  0.3162                  0.0959                  0.1831                  
3407.5892               3421.5892               80.4437                 0.3149                  2.4381                  1.0829                  2.1065                  0.3462                  0.068                   0.1602                  
3407.7892               3421.7892               79.3231                 0.3152                  2.4235                  1.1078                  2.1028                  0.3381                  0.0593                  0.1774                  
3407.9892               3421.9892               80.7485                 0.3145                  2.4216                  1.1112                  2.1054                  0.3291                  0.0507                  0.1965                  
3408.1892               3422.1892               81.5765                 0.3138                  2.4281                  1.0956                  2.1129                  0.3044                  0.1114                  0.2307                  
3408.3892               3422.3892               78.7353                 0.313                   2.4367                  1.0662                  2.1229                  0.2617                  0.2518                  0.2821                  
3408.5892               3422.5892               76.5635                 0.3138                  2.4421                  1.0431                  2.1319                  0.2151                  0.4066                  0.3379                  
3408.7892               3422.7892               79.5377                 0.3164                  2.4429                  1.0428                  2.1365                  0.2417                  0.3348                  0.3088                  
3408.9892               3422.9892               85.8244                 0.3173                  2.4418                  1.0606                  2.1349                  0.272                   0.2522                  0.2752                  
3409.1892               3423.1892               89.6784                 0.3162                  2.4432                  1.082                   2.1284                  0.2902                  0.2078                  0.2638                  
3409.3892               3423.3892               87.302                  0.3134                  2.4503                  1.0901                  2.12                    0.2948                  0.2069                  0.2748                  
3409.5892               3423.5892               81.3956                 0.3112                  2.464                   1.0832                  2.1125                  0.2993                  0.2065                  0.2878                  
3409.7892               3423.7892               79.5223                 0.3127                  2.4827                  1.0646                  2.1075                  0.3008                  0.2169                  0.2794                  
3409.9892               3423.9892               80.4915                 0.3143                  2.5036                  1.0466                  2.1065                  0.3023                  0.2285                  0.2696                  
3410.1892               3424.1892               84.8514                 0.3152                  2.5235                  1.041                   2.11                    0.2971                  0.2339                  0.2672                  
3410.3892               3424.3892               84.2365                 0.3171                  2.5404                  1.0489                  2.1172                  0.2844                  0.2323                  0.2717                  
3410.5892               3424.5892               81.8527                 0.3177                  2.5533                  1.0685                  2.1257                  0.2709                  0.2305                  0.2764                  
3410.7892               3424.7892               80.0078                 0.3167                  2.5617                  1.0871                  2.1339                  0.2665                  0.2453                  0.3062                  
