#----------------------------------------------------------------------------
~VERSION INFORMATION
VERS.            2.0                  :CWLS LOG ASCII STANDARD -VERSION 2.0
WRAP.            NO                   :ONE LINE PER DEPTH STEP
#
#--------------------------------------------------------------------
~WELL INFORMATION
#MNEM .UNIT      DATA                 :DESCRIPTION OF MNEMONIC
#----------      ------------         -------------------------------
STRT  .m         1761.0               :START DEPTH
STEP  .m         0.2                  :STEP DEPTH
STOP  .m         3172.6718            :STOP DEPTH
NULL  .          -999.25              :NULL VALUE
COMP  .          Petrobras            :COMPANY
WELL  .          RO82                 :WELL
LOC   .                               :LOCATION - AREA
FLD   .                               :FIELD
CTRY  .                               :COUNTRY
DATE  .                               :WELL DATE
UWI   .          742810331400         :UWI
ZSTK  .          TVDss                :Z-STICK
XWELL .m         421843.59            :X POS
YWELL .m         7571342              :Y POS
EDF   .          25.0                 :DERRICK FLOOR ELEVATION
#
#----------------------------------------------------------------------------
~CURVE INFORMATION
#MNEM.UNIT                                  : CURVE DESCRIPTION
#----------                                 -------------------------------
DEPT        .m                              : 1      DEPTH
Depth_TVDkb .m                              : 2      Depth
Depth_MD    .m                              : 3      Depth
GR          .API                            : 4      GR
CALIPER     .m                              : 5      Cal
VP          .km/s                           : 6      Vp
VS          .km/s                           : 7      Vs
RHO         .g/cm3                          : 8      Rho
Porosidade  .fract                          : 9      Por
Argilosidade.fract                          : 10     Volume
Saturacao   .fract                          : 11     Sat
#
#----------------------------------------------------------------------------
~A          Depth_TVDkb Depth_MD    GR          CALIPER     VP          VS          RHO         Porosidade  Argilosidade Saturacao   
# ...
3066.8      3091.8      3091.8      78.4628     0.3235      3.422       1.4285      2.2725      0.2459      0.0246      0.3888      
3067.0      3092.0      3092.0      76.3247     0.324       3.3613      1.4726      2.2646      0.2577      0.0         0.3391      
3067.2      3092.2      3092.2      77.9167     0.324       3.3088      1.5314      2.2624      0.2457      0.0         0.323       
3067.4      3092.4      3092.4      80.6839     0.3239      3.3208      1.5925      2.267       0.2338      0.0         0.3069      
3067.6      3092.6      3092.6      81.6626     0.3243      3.2857      1.6415      2.2768      0.2381      0.0         0.2994      
3067.8      3092.8      3092.8      82.5025     0.3246      3.1912      1.6727      2.2824      0.2424      0.0         0.2919      
3068.0      3093.0      3093.0      83.083      0.3249      3.1194      1.6842      2.2846      0.2467      0.0         0.2844      
3068.2      3093.2      3093.2      82.5251     0.325       3.0776      1.6858      2.282       0.2523      0.0         0.275       
3068.4      3093.4      3093.4      81.8448     0.3251      3.0429      1.6791      2.2708      0.2579      0.0         0.2656      
3068.6      3093.6      3093.6      81.9626     0.3251      3.0344      1.6538      2.2636      0.2502      0.0         0.2684      
3068.8      3093.8      3093.8      82.448      0.3252      3.0032      1.6118      2.2689      0.2425      0.0         0.2712      
3069.0      3094.0      3094.0      82.6136     0.3253      2.9508      1.562       2.2759      0.2349      0.0         0.274       
3069.2      3094.2      3094.2      82.4093     0.3245      2.9076      1.5162      2.2782      0.2454      0.0         0.2628      
3069.4      3094.4      3094.4      82.3907     0.3237      2.8816      1.4782      2.2733      0.256       0.0         0.2515      
3069.6      3094.6      3094.6      83.0797     0.3235      2.8723      1.4442      2.2664      0.256       0.0012      0.2532      
3069.8      3094.8      3094.8      84.4706     0.3233      2.8595      1.4122      2.2678      0.2559      0.0025      0.2549      
3070.0      3095.0      3095.0      84.8302     0.3231      2.8574      1.3855      2.2718      0.2559      0.0037      0.2567      
3070.2      3095.2      3095.2      83.0124     0.3231      2.86        1.3662      2.2675      0.2636      0.0019      0.2508      
3070.4      3095.4      3095.4      81.3276     0.3231      2.8597      1.3539      2.2551      0.2712      0.0         0.2449      
3070.6      3095.6      3095.6      81.7854     0.3232      2.8533      1.3479      2.2435      0.268       0.0164      0.2459      
3070.8      3095.8      3095.8      83.5466     0.3233      2.8489      1.3468      2.2379      0.2648      0.0327      0.247       
3071.0      3096.0      3096.0      84.4641     0.3234      2.8472      1.3506      2.2385      0.2616      0.0491      0.248       
3071.2      3096.2      3096.2      84.6379     0.3232      2.8638      1.3584      2.2381      0.2691      0.0245      0.2473      
3071.4      3096.4      3096.4      84.7626     0.323       2.884       1.3688      2.2353      0.2766      0.0         0.2465      
3071.6      3096.6      3096.6      85.4965     0.3227      2.8866      1.3834      2.2366      0.2632      0.0         0.2613      
3071.8      3096.8      3096.8      86.7522     0.3224      2.8917      1.3763      2.2432      0.2499      0.0         0.2762      
3072.0      3097.0      3097.0      87.3564     0.3222      2.9166      1.3827      2.2584      0.2365      0.0         0.291       
3072.2      3097.2      3097.2      86.8123     0.322       2.9737      1.3891      2.2753      0.2372      0.0         0.2898      
3072.4      3097.4      3097.4      85.8886     0.3218      3.0298      1.3965      2.2862      0.2378      0.0         0.2886      
3072.6      3097.6      3097.6      85.2665     0.321       3.0406      1.4096      2.2932      0.2324      0.0051      0.2981      
3072.8      3097.8      3097.8      84.4772     0.3203      3.0398      1.4203      2.2978      0.2269      0.0103      0.3076      
3073.0      3098.0      3098.0      84.2416     0.3195      3.0723      1.4341      2.304       0.2215      0.0154      0.3171      
3073.2      3098.2      3098.2      85.1462     0.321       3.15        1.4509      2.3133      0.2221      0.0077      0.3267      
3073.4      3098.4      3098.4      86.2925     0.3224      3.2016      1.4895      2.3181      0.2226      0.0         0.3362      
3073.6      3098.6      3098.6      86.9898     0.3238      3.152       1.5241      2.3173      0.2221      0.0096      0.3446      
3073.8      3098.8      3098.8      87.0293     0.3253      2.9358      1.5184      2.3166      0.2215      0.0191      0.3529      
3074.0      3099.0      3099.0      88.3559     0.3268      2.8182      1.4339      2.3139      0.2209      0.0287      0.3613      
3074.2      3099.2      3099.2      93.712      0.3269      2.7442      1.334       2.308       0.2331      0.0542      0.3587      
3074.4      3099.4      3099.4      98.9696     0.3271      2.6143      1.2769      2.2934      0.2453      0.0797      0.356       
3074.6      3099.6      3099.6      99.6061     0.3274      2.5078      1.2473      2.2481      0.1844      0.3341      0.4498      
3074.8      3099.8      3099.8      98.5212     0.3278      2.433       1.2253      2.1867      0.1235      0.5884      0.5435      
3075.0      3100.0      3100.0      98.5878     0.3282      2.4149      1.2115      2.1538      0.0626      0.8428      0.6373      
3075.2      3100.2      3100.2      100.6398    0.3282      2.4254      1.2056      2.1681      0.0435      0.891       0.6749      
3075.4      3100.4      3100.4      102.5006    0.3281      2.4986      1.2005      2.1783      0.0244      0.9391      0.7125      
3075.6      3100.6      3100.6      102.3393    0.3284      2.4916      1.1857      2.1449      0.0361      0.9098      0.8084      
3075.8      3100.8      3100.8      100.8424    0.3287      2.4867      1.1851      2.0981      0.0478      0.8805      0.9042      
3076.0      3101.0      3101.0      100.4143    0.3289      2.502       1.1801      2.1059      0.0595      0.8512      1.0         
3076.2      3101.2      3101.2      101.5574    0.3291      2.5562      1.1731      2.1575      0.0638      0.7838      1.0         
3076.4      3101.4      3101.4      102.1122    0.3292      2.6028      1.1704      2.1945      0.0681      0.7164      1.0         
3076.6      3101.6      3101.6      100.0055    0.3293      2.6146      1.1708      2.2182      0.1305      0.5567      0.9219      
3076.8      3101.8      3101.8      96.8335     0.3294      2.5971      1.1736      2.2352      0.1929      0.397       0.8439      
3077.0      3102.0      3102.0      93.7917     0.3295      2.566       1.1764      2.2171      0.2553      0.2373      0.7658      
3077.2      3102.2      3102.2      89.161      0.3288      2.5346      1.1791      2.1606      0.224       0.3778      0.8253      
3077.4      3102.4      3102.4      85.8044     0.3282      2.5021      1.178       2.1159      0.1927      0.5184      0.8849      
3077.6      3102.6      3102.6      86.1465     0.3283      2.4783      1.182       2.1066      0.1828      0.5281      0.9232      
3077.8      3102.8      3102.8      88.1701     0.3284      2.4834      1.1754      2.1099      0.1729      0.5379      0.9616      
3078.0      3103.0      3103.0      89.4149     0.3285      2.5168      1.1687      2.121       0.163       0.5476      1.0         
3078.2      3103.2      3103.2      90.6201     0.3285      2.5476      1.1675      2.1549      0.1334      0.5929      1.0         
3078.4      3103.4      3103.4      91.5559     0.3285      2.5667      1.173       2.1962      0.1038      0.6383      1.0         
3078.6      3103.6      3103.6      92.0437     0.3284      2.5762      1.1828      2.2011      0.1464      0.5353      0.9586      
3078.8      3103.8      3103.8      92.3623     0.3283      2.5881      1.1935      2.1706      0.189       0.4324      0.9172      
