#----------------------------------------------------------------------------
~VERSION INFORMATION
VERS.            2.0                  :CWLS LOG ASCII STANDARD -VERSION 2.0
WRAP.            NO                   :ONE LINE PER DEPTH STEP
#
#--------------------------------------------------------------------
~WELL INFORMATION
#MNEM .UNIT      DATA                 :DESCRIPTION OF MNEMONIC
#----------      ------------         -------------------------------
STRT  .m         2796.1109            :START DEPTH
STEP  .m         0.2                  :STEP DEPTH
STOP  .m         3026.1109            :STOP DEPTH
NULL  .          -999.25              :NULL VALUE
COMP  .          	              :COMPANY
WELL  .                               :WELL
LOC   .                               :LOCATION - AREA
FLD   .                               :FIELD
CTRY  .                               :COUNTRY
DATE  .                               :WELL DATE
UWI   .          	              :UWI
ZSTK  .          TVDss                :Z-STICK
XWELL .m                              :X POS
YWELL .m                              :Y POS
EDF   .          30.0                 :DERRICK FLOOR ELEVATION
#
#----------------------------------------------------------------------------
~CURVE INFORMATION
#MNEM.UNIT                                  : CURVE DESCRIPTION
#----------                                 -------------------------------
DEPT        .m                              : 1      DEPTH
MD          .m                              : 2      Depth
Depth_TVDkb .m                              : 3      Depth
COTA        .m                              : 4      Depth
GR          .API                            : 5      GR
CALIPER     .m                              : 6      Cal
VP          .km/s                           : 7      Vp
VS          .km/s                           : 8      Vs
RHO         .g/cm3                          : 9      Rho
Porosidade  .fract                          : 10     Por
Argilosidade.fract                          : 11     Volume
Saturacao   .fract                          : 12     Sat
#
#----------------------------------------------------------------------------
~A          MD          Depth_TVDkb COTA        GR          CALIPER     VP          VS          RHO         Porosidade  Argilosidade Saturacao   
# ...
2964.1109   3006.6435   2994.1109   -2976.6435  94.0636     0.3196      2.4077      1.1296      2.1869      0.2249      0.2181      0.137       
2964.3109   3006.8215   2994.3109   -2976.8215  93.978      0.3201      2.4084      1.1446      2.1946      0.2149      0.245       0.133       
2964.5109   3006.9994   2994.5109   -2976.9994  98.4853     0.3205      2.414       1.1508      2.2017      0.2217      0.2208      0.1342      
2964.7109   3007.1774   2994.7109   -2977.1774  98.4999     0.3206      2.4137      1.1471      2.1949      0.233       0.1935      0.1355      
2964.9109   3007.3553   2994.9109   -2977.3553  99.967      0.3205      2.3954      1.1303      2.1758      0.239       0.1999      0.133       
2965.1109   3007.5332   2995.1109   -2977.5332  94.8673     0.3203      2.3596      1.1082      2.1673      0.246       0.2064      0.1288      
2965.3109   3007.7112   2995.3109   -2977.7112  85.4518     0.3204      2.3294      1.0877      2.1558      0.2698      0.1501      0.1255      
2965.5109   3007.889    2995.5109   -2977.889   87.0515     0.3206      2.3052      1.0709      2.1424      0.287       0.099       0.1225      
2965.7109   3008.067    2995.7109   -2978.067   89.5396     0.3209      2.2903      1.059       2.1467      0.2692      0.1358      0.1187      
2965.9109   3008.2448   2995.9109   -2978.2448  84.3573     0.321       2.2919      1.0557      2.1641      0.2514      0.1661      0.1168      
2966.1109   3008.4227   2996.1109   -2978.4227  83.138      0.3209      2.308       1.0578      2.1746      0.2484      0.1612      0.1214      
2966.3109   3008.6005   2996.3109   -2978.6005  83.8085     0.3206      2.3314      1.0666      2.1823      0.2444      0.1582      0.1246      
2966.5109   3008.7783   2996.5109   -2978.7783  84.7103     0.3204      2.3575      1.0794      2.1929      0.2246      0.1954      0.1152      
2966.7109   3008.9562   2996.7109   -2978.9562  85.7755     0.3203      2.3827      1.0936      2.2093      0.2038      0.2376      0.109       
2966.9109   3009.134    2996.9109   -2979.134   90.1102     0.3201      2.4015      1.1085      2.2301      0.1887      0.2664      0.1138      
2967.1109   3009.3118   2997.1109   -2979.3118  90.5992     0.3201      2.4131      1.1257      2.2395      0.1838      0.2742      0.1214      
2967.3109   3009.4895   2997.3109   -2979.4895  91.5744     0.32        2.423       1.1464      2.2389      0.2047      0.2013      0.1326      
2967.5109   3009.6673   2997.5109   -2979.6673  94.1872     0.3199      2.4348      1.1668      2.2342      0.2162      0.1613      0.1427      
2967.7109   3009.845    2997.7109   -2979.845   90.4126     0.3198      2.4449      1.182       2.2288      0.2154      0.1637      0.1514      
2967.9109   3010.0228   2997.9109   -2980.0228  93.9328     0.3197      2.455       1.1871      2.2297      0.2131      0.1762      0.1535      
2968.1109   3010.2006   2998.1109   -2980.2006  97.7325     0.3196      2.467       1.1837      2.2305      0.2019      0.2811      0.1433      
2968.3109   3010.3779   2998.3109   -2980.3779  97.6878     0.3194      2.4761      1.1688      2.216       0.1999      0.3201      0.1411      
2968.5109   3010.5546   2998.5109   -2980.5546  98.7925     0.319       2.4733      1.147       2.1806      0.231       0.2406      0.168       
2968.7109   3010.7311   2998.7109   -2980.7311  97.5156     0.3187      2.4456      1.1247      2.1738      0.239       0.227       0.1781      
2968.9109   3010.9077   2998.9109   -2980.9077  98.3652     0.3184      2.4021      1.1051      2.1835      0.1977      0.3949      0.17        
2969.1109   3011.0847   2999.1109   -2981.0847  102.6529    0.318       2.375       1.0901      2.1802      0.1836      0.4495      0.1624      
2969.3109   3011.2623   2999.3109   -2981.2623  102.2655    0.3175      2.3689      1.0872      2.1753      0.192       0.3905      0.1567      
2969.5109   3011.4399   2999.5109   -2981.4399  94.5239     0.3173      2.3742      1.0932      2.1864      0.2018      0.3201      0.1521      
2969.7109   3011.6175   2999.7109   -2981.6175  90.6645     0.3172      2.3958      1.1141      2.205       0.213       0.2369      0.1486      
2969.9109   3011.7951   2999.9109   -2981.7951  92.9025     0.317       2.4363      1.1408      2.209       0.2102      0.2378      0.1388      
2970.1109   3011.9726   3000.1109   -2981.9726  99.0669     0.3166      2.4771      1.1657      2.2117      0.1803      0.3505      0.113       
2970.3109   3012.15     3000.3109   -2982.15    94.8233     0.3162      2.4829      1.18        2.2167      0.1736      0.376       0.1076      
2970.5109   3012.3276   3000.5109   -2982.3276  93.9038     0.316       2.4694      1.1808      2.2191      0.1799      0.3531      0.112       
2970.7109   3012.505    3000.7109   -2982.505   96.5737     0.3161      2.4462      1.1737      2.2169      0.1929      0.3097      0.1199      
2970.9109   3012.6823   3000.9109   -2982.6823  98.9798     0.3163      2.4271      1.1673      2.2066      0.2171      0.2336      0.1331      
2971.1109   3012.8597   3001.1109   -2982.8597  97.2035     0.3163      2.4244      1.1681      2.198       0.2208      0.222       0.1367      
2971.3109   3013.0371   3001.3109   -2983.0371  99.0528     0.3162      2.437       1.1763      2.1975      0.217       0.232       0.1374      
2971.5109   3013.2145   3001.5109   -2983.2145  91.8257     0.3162      2.4679      1.184       2.203       0.2108      0.2436      0.1388      
2971.7109   3013.3917   3001.7109   -2983.3917  91.8104     0.3163      2.484       1.1829      2.2121      0.2021      0.2574      0.1415      
2971.9109   3013.5689   3001.9109   -2983.5689  93.7826     0.3159      2.4743      1.1722      2.2123      0.2012      0.2672      0.1519      
2972.1109   3013.7462   3002.1109   -2983.7462  97.7469     0.3154      2.434       1.1569      2.2061      0.2017      0.2756      0.1728      
2972.3109   3013.9234   3002.3109   -2983.9234  103.1609    0.3152      2.3992      1.1453      2.2065      0.1901      0.3372      0.1703      
2972.5109   3014.1006   3002.5109   -2984.1006  106.4521    0.3152      2.3934      1.1371      2.2114      0.1597      0.4672      0.1565      
2972.7109   3014.2777   3002.7109   -2984.2777  102.418     0.3155      2.3976      1.1296      2.2123      0.1631      0.4601      0.1525      
2972.9109   3014.4549   3002.9109   -2984.4549  101.1697    0.3159      2.404       1.1239      2.2087      0.1837      0.3925      0.151       
2973.1109   3014.632    3003.1109   -2984.632   100.9789    0.316       2.4038      1.1232      2.1969      0.2061      0.3001      0.1561      
2973.3109   3014.809    3003.3109   -2984.809   97.0924     0.3157      2.3985      1.1261      2.194       0.2265      0.2048      0.1671      
2973.5109   3014.9861   3003.5109   -2984.9861  94.7249     0.3159      2.3921      1.1315      2.1968      0.2226      0.2082      0.1618      
2973.7109   3015.1631   3003.7109   -2985.1631  93.4801     0.3164      2.3931      1.1359      2.2028      0.2101      0.2329      0.1497      
2973.9109   3015.3401   3003.9109   -2985.3401  92.5356     0.3167      2.4051      1.1403      2.2162      0.2014      0.2593      0.1472      
2974.1109   3015.517    3004.1109   -2985.517   94.3033     0.317       2.4212      1.141       2.2205      0.1937      0.2914      0.1462      
2974.3109   3015.694    3004.3109   -2985.694   94.1987     0.3173      2.4255      1.1357      2.2133      0.1876      0.3247      0.1581      
2974.5109   3015.8709   3004.5109   -2985.8709  94.9411     0.3175      2.424       1.1222      2.2087      0.1806      0.3696      0.1763      
2974.7109   3016.0478   3004.7109   -2986.0478  96.9782     0.3175      2.423       1.1084      2.2054      0.1529      0.5258      0.1727      
2974.9109   3016.2246   3004.9109   -2986.2246  103.9194    0.3171      2.4249      1.1005      2.1888      0.1236      0.6878      0.1674      
2975.1109   3016.4015   3005.1109   -2986.4015  107.144     0.3158      2.433       1.0983      2.1803      0.1604      0.5109      0.1856      
