#----------------------------------------------------------------------------
~VERSION INFORMATION
VERS.            2.0                  :CWLS LOG ASCII STANDARD -VERSION 2.0
WRAP.            NO                   :ONE LINE PER DEPTH STEP
#
#--------------------------------------------------------------------
~WELL INFORMATION
#MNEM .UNIT      DATA                 :DESCRIPTION OF MNEMONIC
#----------      ------------         -------------------------------
STRT  .m         1761.0               :START DEPTH
STEP  .m         0.2                  :STEP DEPTH
STOP  .m         3172.6718            :STOP DEPTH
NULL  .          -999.25              :NULL VALUE
COMP  .          Petrobras            :COMPANY
WELL  .          RO82                 :WELL
LOC   .                               :LOCATION - AREA
FLD   .                               :FIELD
CTRY  .                               :COUNTRY
DATE  .                               :WELL DATE
UWI   .          742810331400         :UWI
ZSTK  .          TVDss                :Z-STICK
XWELL .m         421843.59            :X POS
YWELL .m         7571342              :Y POS
EDF   .          25.0                 :DERRICK FLOOR ELEVATION
#
#----------------------------------------------------------------------------
~CURVE INFORMATION
#MNEM.UNIT                                  : CURVE DESCRIPTION
#----------                                 -------------------------------
DEPT        .m                              : 1      DEPTH
Depth_TVDkb .m                              : 2      Depth
Depth_MD    .m                              : 3      Depth
GR          .API                            : 4      GR
CALIPER     .m                              : 5      Cal
VP          .km/s                           : 6      Vp
VS          .km/s                           : 7      Vs
RHO         .g/cm3                          : 8      Rho
Porosidade  .fract                          : 9      Por
Argilosidade.fract                          : 10     Volume
Saturacao   .fract                          : 11     Sat
#
#----------------------------------------------------------------------------
~A          Depth_TVDkb Depth_MD    GR          CALIPER     VP          VS          RHO         Porosidade  Argilosidade Saturacao   
# ...
2871.6      2896.6      2896.6      115.7212    0.3229      2.558       1.0368      2.2862      0.0         0.9729      0.8997      
2871.8      2896.8      2896.8      115.3224    0.3231      2.5675      1.0372      2.2846      0.0         0.9865      0.8874      
2872.0      2897.0      2897.0      115.1887    0.3233      2.5662      1.0395      2.2821      0.0         1.0         0.875       
2872.2      2897.2      2897.2      116.104     0.3235      2.5567      1.0422      2.282       0.0         1.0         0.8765      
2872.4      2897.4      2897.4      116.8208    0.3237      2.5526      1.0458      2.28        0.0         1.0         0.8779      
2872.6      2897.6      2897.6      116.2872    0.3236      2.5531      1.05        2.2778      0.0         1.0         0.877       
2872.8      2897.8      2897.8      114.9773    0.3236      2.5507      1.0529      2.2815      0.0         1.0         0.876       
2873.0      2898.0      2898.0      114.5667    0.3235      2.5488      1.0542      2.2837      0.0         1.0         0.875       
2873.2      2898.2      2898.2      116.0001    0.3241      2.5541      1.0565      2.2822      0.0         1.0         0.8618      
2873.4      2898.4      2898.4      117.4208    0.3248      2.56        1.0638      2.2783      0.0         1.0         0.8486      
2873.6      2898.6      2898.6      116.7358    0.3249      2.5643      1.0767      2.2734      0.0         1.0         0.8242      
2873.8      2898.8      2898.8      115.5424    0.325       2.5786      1.0974      2.2767      0.0         1.0         0.7998      
2874.0      2899.0      2899.0      114.0309    0.3251      2.6243      1.1235      2.2896      0.0         1.0         0.7754      
2874.2      2899.2      2899.2      109.5636    0.3253      2.6685      1.1435      2.3179      0.0         1.0         0.7646      
2874.4      2899.4      2899.4      106.2599    0.3254      2.6642      1.1483      2.352       0.0         1.0         0.7539      
2874.6      2899.6      2899.6      108.1865    0.3254      2.6256      1.1384      2.3549      0.0         0.9408      0.8359      
2874.8      2899.8      2899.8      111.9573    0.3254      2.5916      1.1272      2.322       0.0         0.8817      0.918       
2875.0      2900.0      2900.0      114.9544    0.3254      2.5626      1.1171      2.2911      0.0         0.8225      1.0         
2875.2      2900.2      2900.2      120.222     0.3254      2.5396      1.1096      2.2742      0.0         0.9113      0.9092      
2875.4      2900.4      2900.4      123.7543    0.3255      2.5398      1.1109      2.2685      0.0         1.0         0.8184      
2875.6      2900.6      2900.6      121.5961    0.3254      2.5731      1.1276      2.2766      0.0         1.0         0.7878      
2875.8      2900.8      2900.8      118.0217    0.3253      2.6338      1.1599      2.2798      0.0         1.0         0.7572      
2876.0      2901.0      2901.0      113.663     0.3252      2.7224      1.1967      2.2915      0.0         1.0         0.7266      
2876.2      2901.2      2901.2      103.5972    0.3251      2.7752      1.2231      2.3242      0.0         1.0         0.7344      
2876.4      2901.4      2901.4      96.4206     0.325       2.7711      1.2255      2.3473      0.0         1.0         0.7422      
2876.6      2901.6      2901.6      98.6138     0.3249      2.7093      1.1967      2.3272      0.0         1.0         0.777       
2876.8      2901.8      2901.8      105.7532    0.3249      2.6319      1.1565      2.3023      0.0         1.0         0.8118      
2877.0      2902.0      2902.0      110.2673    0.3249      2.5534      1.1205      2.2791      0.0         1.0         0.8467      
2877.2      2902.2      2902.2      113.5299    0.3247      2.5466      1.104       2.268       0.0         0.9682      0.8486      
2877.4      2902.4      2902.4      113.8169    0.3244      2.6457      1.1107      2.2739      0.0         0.9365      0.8506      
2877.6      2902.6      2902.6      110.1129    0.3248      2.8065      1.1384      2.3003      0.0         0.9576      0.8376      
2877.8      2902.8      2902.8      103.1734    0.3251      2.87        1.1786      2.3434      0.0         0.9788      0.8245      
2878.0      2903.0      2903.0      100.5201    0.3254      2.8441      1.2069      2.3861      0.0         1.0         0.8115      
2878.2      2903.2      2903.2      105.9252    0.3254      2.7397      1.206       2.3833      0.0         1.0         0.8433      
2878.4      2903.4      2903.4      113.611     0.3253      2.6031      1.1786      2.3245      0.0         1.0         0.875       
2878.6      2903.6      2903.6      115.6708    0.325       2.5111      1.1495      2.2767      0.0         1.0         0.8467      
2878.8      2903.8      2903.8      117.5501    0.3247      2.5117      1.1334      2.2603      0.0         1.0         0.8184      
2879.0      2904.0      2904.0      117.1954    0.3244      2.589       1.1323      2.264       0.0         1.0         0.79        
2879.2      2904.2      2904.2      105.0945    0.324       2.6722      1.1416      2.2888      0.0         1.0         0.7534      
2879.4      2904.4      2904.4      92.9653     0.3237      2.7515      1.1537      2.3414      0.0         1.0         0.7168      
2879.6      2904.6      2904.6      91.836      0.3237      2.8306      1.1635      2.3863      0.0         1.0         0.7301      
2879.8      2904.8      2904.8      92.8415     0.3237      2.9057      1.1692      2.4005      0.0         1.0         0.7435      
2880.0      2905.0      2905.0      94.1964     0.3237      2.9228      1.1705      2.3906      0.0         1.0         0.7568      
2880.2      2905.2      2905.2      102.4215    0.3239      2.8059      1.1666      2.3634      0.0         1.0         0.7856      
2880.4      2905.4      2905.4      111.8214    0.3241      2.696       1.1618      2.3294      0.0         1.0         0.8145      
2880.6      2905.6      2905.6      116.2398    0.3234      2.6348      1.1622      2.3002      0.0         0.993       0.8001      
2880.8      2905.8      2905.8      120.8167    0.3228      2.6347      1.1681      2.2803      0.0         0.9859      0.7858      
2881.0      2906.0      2906.0      122.9272    0.3221      2.6976      1.1733      2.2733      0.0         0.9789      0.7715      
2881.2      2906.2      2906.2      116.7211    0.3219      2.7822      1.1686      2.3001      0.0         0.9894      0.7554      
2881.4      2906.4      2906.4      110.5755    0.3217      2.8052      1.1609      2.3583      0.0         1.0         0.7393      
2881.6      2906.6      2906.6      112.9235    0.3217      2.7514      1.1533      2.3989      0.0         1.0         0.7777      
2881.8      2906.8      2906.8      118.2189    0.3217      2.6493      1.1458      2.3774      0.0         1.0         0.8161      
2882.0      2907.0      2907.0      121.8211    0.3217      2.5714      1.1403      2.3209      0.0         1.0         0.8545      
2882.2      2907.2      2907.2      126.2593    0.3221      2.5493      1.1425      2.2777      0.0         1.0         0.8389      
2882.4      2907.4      2907.4      129.2007    0.3225      2.5631      1.146       2.2652      0.0         1.0         0.8232      
2882.6      2907.6      2907.6      128.4381    0.3227      2.5783      1.1496      2.264       0.0         1.0         0.833       
2882.8      2907.8      2907.8      126.6402    0.3229      2.5988      1.1505      2.2676      0.0         1.0         0.8428      
2883.0      2908.0      2908.0      124.9053    0.3231      2.6015      1.1429      2.2593      0.0         1.0         0.8525      
2883.2      2908.2      2908.2      121.7299    0.3232      2.5983      1.1349      2.2512      0.0         1.0         0.8354      
2883.4      2908.4      2908.4      119.9579    0.3232      2.6068      1.128       2.2517      0.0         1.0         0.8184      
2883.6      2908.6      2908.6      122.3911    0.3232      2.5984      1.1249      2.2478      0.0033      0.9398      0.8789      
