#----------------------------------------------------------------------------
~VERSION INFORMATION
VERS.            2.0                  :CWLS LOG ASCII STANDARD -VERSION 2.0
WRAP.            NO                   :ONE LINE PER DEPTH STEP
#
#--------------------------------------------------------------------
~WELL INFORMATION
#MNEM .UNIT      DATA                 :DESCRIPTION OF MNEMONIC
#----------      ------------         -------------------------------
STRT  .m         1761.0               :START DEPTH
STEP  .m         0.2                  :STEP DEPTH
STOP  .m         3172.6718            :STOP DEPTH
NULL  .          -999.25              :NULL VALUE
COMP  .          Petrobras            :COMPANY
WELL  .          RO82                 :WELL
LOC   .                               :LOCATION - AREA
FLD   .                               :FIELD
CTRY  .                               :COUNTRY
DATE  .                               :WELL DATE
UWI   .          742810331400         :UWI
ZSTK  .          TVDss                :Z-STICK
XWELL .m         421843.59            :X POS
YWELL .m         7571342              :Y POS
EDF   .          25.0                 :DERRICK FLOOR ELEVATION
#
#----------------------------------------------------------------------------
~CURVE INFORMATION
#MNEM.UNIT                                  : CURVE DESCRIPTION
#----------                                 -------------------------------
DEPT        .m                              : 1      DEPTH
Depth_TVDkb .m                              : 2      Depth
Depth_MD    .m                              : 3      Depth
GR          .API                            : 4      GR
CALIPER     .m                              : 5      Cal
VP          .km/s                           : 6      Vp
VS          .km/s                           : 7      Vs
RHO         .g/cm3                          : 8      Rho
Porosidade  .fract                          : 9      Por
Argilosidade.fract                          : 10     Volume
Saturacao   .fract                          : 11     Sat
#
#----------------------------------------------------------------------------
~A          Depth_TVDkb Depth_MD    GR          CALIPER     VP          VS          RHO         Porosidade  Argilosidade Saturacao   
# ...
2957.0      2982.0      2982.0      96.4787     0.3192      2.5344      1.2189      2.1046      0.313       0.1794      0.1141      
2957.2      2982.2      2982.2      96.9176     0.3195      2.5384      1.2275      2.1015      0.2631      0.3186      0.1018      
2957.4      2982.4      2982.4      97.9393     0.3197      2.5361      1.2369      2.114       0.2133      0.4578      0.0895      
2957.6      2982.6      2982.6      99.3514     0.3195      2.5194      1.2473      2.1215      0.2432      0.38        0.0953      
2957.8      2982.8      2982.8      101.2446    0.3193      2.5011      1.257       2.1132      0.2731      0.3023      0.101       
2958.0      2983.0      2983.0      102.5996    0.3191      2.4896      1.2606      2.1104      0.3031      0.2245      0.1068      
2958.2      2983.2      2983.2      102.5726    0.3202      2.474       1.2553      2.0955      0.3306      0.1507      0.11        
2958.4      2983.4      2983.4      102.5681    0.3213      2.454       1.2432      2.0737      0.3581      0.0769      0.1132      
2958.6      2983.6      2983.6      104.1055    0.3207      2.4558      1.2308      2.0816      0.3475      0.1005      0.1129      
2958.8      2983.8      2983.8      106.3559    0.32        2.4618      1.2271      2.0956      0.3368      0.1241      0.1127      
2959.0      2984.0      2984.0      107.5294    0.3194      2.4865      1.2394      2.1038      0.3261      0.1477      0.1125      
2959.2      2984.2      2984.2      107.2707    0.3191      2.4785      1.2677      2.0966      0.3122      0.17        0.1134      
2959.4      2984.4      2984.4      105.4961    0.3188      2.4622      1.2955      2.1082      0.2982      0.1923      0.1144      
2959.6      2984.6      2984.6      102.1796    0.3201      2.4565      1.3079      2.1176      0.3175      0.1419      0.1159      
2959.8      2984.8      2984.8      97.5669     0.3213      2.4584      1.2966      2.1166      0.3368      0.0915      0.1174      
2960.0      2985.0      2985.0      94.3777     0.3225      2.4409      1.2954      2.106       0.3561      0.0412      0.1189      
2960.2      2985.2      2985.2      94.5253     0.3241      2.4178      1.304       2.1011      0.3607      0.0206      0.1195      
2960.4      2985.4      2985.4      95.8331     0.3256      2.3972      1.3046      2.1064      0.3654      0.0         0.12        
2960.6      2985.6      2985.6      96.5526     0.3257      2.4024      1.33        2.1061      0.3526      0.0         0.1243      
2960.8      2985.8      2985.8      97.3819     0.3258      2.4708      1.3617      2.1143      0.3398      0.0         0.1287      
2961.0      2986.0      2986.0      97.8689     0.3258      2.615       1.3941      2.125       0.3271      0.0         0.1331      
2961.2      2986.2      2986.2      97.0356     0.3242      2.7324      1.428       2.127       0.3359      0.0041      0.1276      
2961.4      2986.4      2986.4      95.7933     0.3227      2.7687      1.4545      2.1256      0.3447      0.0083      0.1221      
2961.6      2986.6      2986.6      95.0213     0.3219      2.7286      1.4678      2.1332      0.2298      0.3377      0.0977      
2961.8      2986.8      2986.8      93.7536     0.3212      2.658       1.4211      2.1846      0.1149      0.6671      0.0732      
2962.0      2987.0      2987.0      93.5301     0.3204      2.5933      1.3518      2.3074      0.0         0.9965      0.0488      
2962.2      2987.2      2987.2      95.7396     0.3205      2.5494      1.3306      2.4418      0.0275      0.7525      0.0752      
2962.4      2987.4      2987.4      98.3604     0.3205      2.5351      1.317       2.4545      0.055       0.5085      0.1015      
2962.6      2987.6      2987.6      98.8885     0.3211      2.5393      1.3037      2.3336      0.1395      0.373       0.1104      
2962.8      2987.8      2987.8      98.8495     0.3218      2.538       1.2993      2.2141      0.224       0.2375      0.1192      
2963.0      2988.0      2988.0      99.2068     0.3224      2.5113      1.3025      2.1563      0.3085      0.1021      0.128       
2963.2      2988.2      2988.2      99.5073     0.3246      2.502       1.2958      2.1438      0.3021      0.1501      0.1253      
2963.4      2988.4      2988.4      99.9644     0.3267      2.4919      1.2812      2.1288      0.2957      0.1982      0.1226      
2963.6      2988.6      2988.6      100.7041    0.3266      2.4706      1.2682      2.1186      0.3163      0.1321      0.1296      
2963.8      2988.8      2988.8      101.1832    0.3265      2.454       1.2657      2.116       0.337       0.0661      0.1366      
2964.0      2989.0      2989.0      102.1085    0.3264      2.4415      1.2632      2.1171      0.3576      0.0         0.1436      
2964.2      2989.2      2989.2      104.4722    0.3233      2.4298      1.2441      2.1174      0.3415      0.0568      0.1533      
2964.4      2989.4      2989.4      106.7879    0.3202      2.4297      1.2275      2.1145      0.3254      0.1135      0.163       
2964.6      2989.6      2989.6      107.7973    0.32        2.4462      1.217       2.1135      0.3303      0.1014      0.1711      
2964.8      2989.8      2989.8      108.361     0.3198      2.465       1.2164      2.1123      0.3353      0.0894      0.1793      
2965.0      2990.0      2990.0      109.0678    0.3196      2.4747      1.2191      2.1109      0.3402      0.0773      0.1875      
2965.2      2990.2      2990.2      110.1257    0.3206      2.4769      1.2149      2.1081      0.3628      0.0511      0.176       
2965.4      2990.4      2990.4      110.7147    0.3217      2.4674      1.2042      2.0907      0.3854      0.0249      0.1645      
2965.6      2990.6      2990.6      109.8895    0.323       2.4417      1.1781      2.0651      0.3783      0.0271      0.1637      
2965.8      2990.8      2990.8      108.7561    0.3243      2.4116      1.1501      2.0741      0.3712      0.0293      0.1629      
2966.0      2991.0      2991.0      107.3489    0.3256      2.3964      1.1315      2.091       0.3641      0.0316      0.1621      
2966.2      2991.2      2991.2      103.9433    0.3254      2.3968      1.1297      2.0937      0.3301      0.1427      0.1534      
2966.4      2991.4      2991.4      101.368     0.3252      2.4092      1.1399      2.0887      0.2962      0.2538      0.1447      
2966.6      2991.6      2991.6      102.6365    0.323       2.4372      1.158       2.0921      0.3145      0.1692      0.1467      
2966.8      2991.8      2991.8      105.6468    0.3208      2.4467      1.1786      2.0981      0.3329      0.0846      0.1488      
2967.0      2992.0      2992.0      107.3234    0.3186      2.4623      1.1946      2.1082      0.3512      0.0         0.1509      
2967.2      2992.2      2992.2      107.619     0.319       2.4596      1.2002      2.1234      0.3039      0.1651      0.1388      
2967.4      2992.4      2992.4      106.848     0.3193      2.4467      1.1918      2.1309      0.2566      0.3302      0.1268      
2967.6      2992.6      2992.6      104.8423    0.321       2.4393      1.1774      2.1159      0.3034      0.2223      0.1274      
2967.8      2992.8      2992.8      102.6539    0.3227      2.4291      1.1685      2.0908      0.3502      0.1143      0.1279      
2968.0      2993.0      2993.0      100.4092    0.3244      2.4175      1.172       2.0681      0.397       0.0063      0.1285      
2968.2      2993.2      2993.2      97.3403     0.3253      2.4154      1.1857      2.0564      0.3664      0.0833      0.1313      
2968.4      2993.4      2993.4      95.879      0.3261      2.4224      1.1995      2.0603      0.3359      0.1604      0.134       
2968.6      2993.6      2993.6      98.4695     0.3249      2.4263      1.2061      2.0735      0.3264      0.1641      0.1419      
2968.8      2993.8      2993.8      103.8924    0.3236      2.4401      1.2021      2.0888      0.317       0.1678      0.1498      
2969.0      2994.0      2994.0      106.367     0.3224      2.441       1.1969      2.1031      0.3076      0.1714      0.1577      
