#----------------------------------------------------------------------------
~VERSION INFORMATION
VERS.            2.0                  :CWLS LOG ASCII STANDARD -VERSION 2.0
WRAP.            NO                   :ONE LINE PER DEPTH STEP
#
#--------------------------------------------------------------------
~WELL INFORMATION
#MNEM .UNIT      DATA                 :DESCRIPTION OF MNEMONIC
#----------      ------------         -------------------------------
STRT  .m         3166.1892            :START DEPTH
STEP  .m         0.2                  :STEP DEPTH
STOP  .m         3426.1892            :STOP DEPTH
NULL  .          -999.25              :NULL VALUE
COMP  .                               :COMPANY
WELL  .                               :WELL
LOC   .                               :LOCATION - AREA
FLD   .          	              :FIELD
CTRY  .                               :COUNTRY
DATE  .                               :WELL DATE
UWI   .            	              :UWI
ZSTK  .          TVDss                :Z-STICK
XWELL .m         	              :X POS
YWELL .m         	              :Y POS
EDF   .          14.0                 :DERRICK FLOOR ELEVATION
#
#----------------------------------------------------------------------------
~CURVE INFORMATION
#MNEM.UNIT                                              : CURVE DESCRIPTION
#----------                                             -------------------------------
DEPT                    .m                              : 1      DEPTH
MD                      .m                              : 2      Depth
GR                      .API                            : 3      GR
CALIPER                 .m                              : 4      Cal
VP                      .km/s                           : 5      Vp
Vs_calculado_de_VPVS    .km/s                           : 6      Vs
RHO                     .g/cm3                          : 7      Rho
Porosidade              .fract                          : 8      Por
Argilosidade            .fract                          : 9      Volume
Saturacao               .fract                          : 10     Sat
#
#----------------------------------------------------------------------------
~A                      MD                      GR                      CALIPER                 VP                      Vs_calculado_de_VPVS    RHO                     Porosidade              Argilosidade            Saturacao               
# ...
3247.7892               3261.7892               101.92                  0.3413                  2.7073                  0.939                   2.3411                  0.0                     1.0                     0.9695                  
3247.9892               3261.9892               99.9193                 0.3394                  2.7153                  0.9433                  2.3401                  0.0                     1.0                     0.9664                  
3248.1892               3262.1892               101.2325                0.3368                  2.7205                  0.9463                  2.3385                  5.0E-4                  0.9987                  0.9701                  
3248.3892               3262.3892               106.4522                0.3354                  2.7225                  0.9468                  2.3362                  0.0018                  0.9953                  0.9825                  
3248.5892               3262.5892               110.3912                0.3339                  2.7212                  0.9471                  2.3328                  0.0032                  0.9919                  0.9987                  
3248.7892               3262.7892               107.7636                0.3328                  2.7175                  0.9507                  2.3283                  0.0144                  0.964                   1.0                     
3248.9892               3262.9892               101.5967                0.3315                  2.7128                  0.9576                  2.3238                  0.0299                  0.9253                  1.0                     
3249.1892               3263.1892               96.3507                 0.3306                  2.7093                  0.9654                  2.321                   0.0384                  0.903                   1.0                     
3249.3892               3263.3892               94.485                  0.3309                  2.7089                  0.9729                  2.3212                  0.0379                  0.9027                  1.0                     
3249.5892               3263.5892               94.8168                 0.3312                  2.7127                  0.9789                  2.3247                  0.0363                  0.9042                  1.0                     
3249.7892               3263.7892               99.4277                 0.3319                  2.7203                  0.9817                  2.3311                  0.0354                  0.8846                  1.0                     
3249.9892               3263.9892               104.1665                0.3319                  2.7299                  0.9806                  2.3392                  0.0348                  0.8541                  1.0                     
3250.1892               3264.1892               104.7924                0.3298                  2.7389                  0.9757                  2.3476                  0.0317                  0.8468                  1.0                     
3250.3892               3264.3892               102.4194                0.3276                  2.7448                  0.9694                  2.3546                  0.0249                  0.8601                  1.0                     
3250.5892               3264.5892               100.1258                0.3286                  2.7458                  0.9657                  2.3583                  0.0174                  0.8783                  1.0                     
3250.7892               3264.7892               99.7761                 0.3334                  2.7419                  0.9664                  2.3584                  0.0109                  0.9188                  1.0                     
3250.9892               3264.9892               99.5348                 0.3377                  2.7343                  0.971                   2.355                   0.0038                  0.9725                  1.0                     
3251.1892               3265.1892               98.8187                 0.3356                  2.7251                  0.9765                  2.3488                  0.0073                  0.9766                  1.0                     
3251.3892               3265.3892               97.7343                 0.3324                  2.7162                  0.9798                  2.3412                  0.0236                  0.9418                  1.0                     
3251.5892               3265.5892               96.1879                 0.3327                  2.7088                  0.9826                  2.3339                  0.0454                  0.8865                  1.0                     
3251.7892               3265.7892               96.0914                 0.3329                  2.7033                  0.9896                  2.3286                  0.0375                  0.9062                  1.0                     
3251.9892               3265.9892               97.3285                 0.333                   2.6995                  0.9992                  2.3261                  0.0236                  0.941                   1.0                     
3252.1892               3266.1892               100.2213                0.3328                  2.6968                  1.0068                  2.3263                  0.0149                  0.9628                  1.0                     
3252.3892               3266.3892               100.0663                0.3321                  2.6947                  1.0116                  2.3278                  0.0129                  0.9677                  1.0                     
3252.5892               3266.5892               98.7856                 0.3325                  2.693                   1.0138                  2.3298                  0.0113                  0.9716                  1.0                     
3252.7892               3266.7892               97.8725                 0.3328                  2.6915                  1.014                   2.3317                  0.0145                  0.9636                  1.0                     
3252.9892               3266.9892               98.3392                 0.3318                  2.6902                  1.0139                  2.3326                  0.0194                  0.9518                  1.0                     
3253.1892               3267.1892               96.2787                 0.3309                  2.6892                  1.0126                  2.3321                  0.0231                  0.9415                  1.0                     
3253.3892               3267.3892               90.3004                 0.3291                  2.6884                  1.0076                  2.3311                  0.0258                  0.9327                  1.0                     
3253.5892               3267.5892               86.399                  0.327                   2.6875                  1.0005                  2.3299                  0.0282                  0.9249                  1.0                     
3253.7892               3267.7892               86.7116                 0.3287                  2.686                   0.9944                  2.3287                  0.0361                  0.8935                  1.0                     
3253.9892               3267.9892               91.4866                 0.3309                  2.6836                  0.9908                  2.3277                  0.0462                  0.8519                  1.0                     
3254.1892               3268.1892               92.2835                 0.3302                  2.6805                  0.9916                  2.3269                  0.0517                  0.8336                  1.0                     
3254.3892               3268.3892               90.7224                 0.329                   2.6776                  0.9985                  2.3267                  0.0512                  0.8415                  1.0                     
