#----------------------------------------------------------------------------
~VERSION INFORMATION
VERS.            2.0                  :CWLS LOG ASCII STANDARD -VERSION 2.0
WRAP.            NO                   :ONE LINE PER DEPTH STEP
#
#--------------------------------------------------------------------
~WELL INFORMATION
#MNEM .UNIT      DATA                 :DESCRIPTION OF MNEMONIC
#----------      ------------         -------------------------------
STRT  .m         2796.1109            :START DEPTH
STEP  .m         0.2                  :STEP DEPTH
STOP  .m         3026.1109            :STOP DEPTH
NULL  .          -999.25              :NULL VALUE
COMP  .          	              :COMPANY
WELL  .                               :WELL
LOC   .                               :LOCATION - AREA
FLD   .                               :FIELD
CTRY  .                               :COUNTRY
DATE  .                               :WELL DATE
UWI   .          	              :UWI
ZSTK  .          TVDss                :Z-STICK
XWELL .m                              :X POS
YWELL .m                              :Y POS
EDF   .          30.0                 :DERRICK FLOOR ELEVATION
#
#----------------------------------------------------------------------------
~CURVE INFORMATION
#MNEM.UNIT                                  : CURVE DESCRIPTION
#----------                                 -------------------------------
DEPT        .m                              : 1      DEPTH
MD          .m                              : 2      Depth
Depth_TVDkb .m                              : 3      Depth
COTA        .m                              : 4      Depth
GR          .API                            : 5      GR
CALIPER     .m                              : 6      Cal
VP          .km/s                           : 7      Vp
VS          .km/s                           : 8      Vs
RHO         .g/cm3                          : 9      Rho
Porosidade  .fract                          : 10     Por
Argilosidade.fract                          : 11     Volume
Saturacao   .fract                          : 12     Sat
#
#----------------------------------------------------------------------------
~A          MD          Depth_TVDkb COTA        GR          CALIPER     VP          VS          RHO         Porosidade  Argilosidade Saturacao   
# ...
2840.9109   2893.1866   2870.9109   -2863.1866  98.8606     0.322       2.0059      1.184       2.1211      0.2806      0.0         0.1039      
2841.1109   2893.3732   2871.1109   -2863.3732  98.8075     0.3219      2.0008      1.1836      2.0927      0.2902      0.0076      0.1074      
2841.3109   2893.5599   2871.3109   -2863.5599  98.2388     0.3218      1.9926      1.1794      2.0683      0.2982      0.0145      0.1105      
2841.5109   2893.7466   2871.5109   -2863.7466  101.1761    0.3218      1.9822      1.1646      2.0794      0.291       0.0069      0.1082      
2841.7109   2893.9333   2871.7109   -2863.9333  99.7776     0.3218      1.9694      1.1476      2.0935      0.2844      0.0         0.1043      
2841.9109   2894.12     2871.9109   -2864.12    99.148      0.3215      1.9579      1.1455      2.0862      0.2893      0.0         0.0995      
2842.1109   2894.3068   2872.1109   -2864.3068  101.9268    0.3211      1.9532      1.1558      2.0853      0.2938      0.0         0.0966      
2842.3109   2894.4936   2872.3109   -2864.4936  100.7836    0.3207      1.9552      1.1716      2.1012      0.2847      0.0         0.1043      
2842.5109   2894.6803   2872.5109   -2864.6803  93.3811     0.3203      1.9601      1.1798      2.1076      0.2763      0.0         0.1114      
2842.7109   2894.8671   2872.7109   -2864.8671  94.5902     0.3203      1.9653      1.1817      2.1087      0.2765      0.0         0.109       
2842.9109   2895.0539   2872.9109   -2865.0539  98.8067     0.3203      1.9832      1.1839      2.1101      0.2771      0.0         0.1049      
2843.1109   2895.2408   2873.1109   -2865.2408  102.1953    0.3203      2.0146      1.1874      2.1041      0.2807      0.0         0.1001      
2843.3109   2895.4277   2873.3109   -2865.4277  105.4394    0.3203      2.032       1.1899      2.0877      0.2838      0.0         0.0971      
2843.5109   2895.6146   2873.5109   -2865.6146  103.4417    0.3205      2.0356      1.1935      2.0885      0.2773      0.0         0.1028      
2843.7109   2895.8015   2873.7109   -2865.8015  111.2065    0.3206      2.0406      1.2014      2.1068      0.27        0.0         0.1093      
2843.9109   2895.9884   2873.9109   -2865.9884  118.0714    0.3207      2.0575      1.2134      2.1215      0.2679      0.0         0.1107      
2844.1109   2896.1754   2874.1109   -2866.1754  108.3939    0.3209      2.075       1.2171      2.1229      0.267       0.0         0.1117      
2844.3109   2896.3623   2874.3109   -2866.3623  104.4789    0.3214      2.0828      1.2123      2.1175      0.2688      0.0         0.1131      
2844.5109   2896.5493   2874.5109   -2866.5493  100.6001    0.322       2.0847      1.1953      2.1158      0.272       0.0         0.1139      
2844.7109   2896.7363   2874.7109   -2866.7363  96.6923     0.3221      2.0826      1.1745      2.1213      0.2757      0.0         0.1129      
2844.9109   2896.9233   2874.9109   -2866.9233  94.8558     0.3221      2.0745      1.1569      2.1198      0.2796      0.0         0.1106      
2845.1109   2897.1104   2875.1109   -2867.1104  93.1946     0.3223      2.0635      1.1413      2.1093      0.2828      0.0         0.1023      
2845.3109   2897.2974   2875.3109   -2867.2974  95.1083     0.3224      2.0519      1.1219      2.1029      0.2863      0.0         0.0942      
2845.5109   2897.4845   2875.5109   -2867.4845  94.6584     0.3223      2.0416      1.0999      2.0885      0.293       0.0         0.092       
2845.7109   2897.6717   2875.7109   -2867.6717  97.5917     0.3224      2.0306      1.0766      2.0603      0.2975      0.0         0.0906      
2845.9109   2897.8587   2875.9109   -2867.8587  97.187      0.3227      2.011       1.0625      2.0531      0.2957      0.0         0.0887      
2846.1109   2898.0462   2876.1109   -2868.0462  86.747      0.3228      1.9859      1.0609      2.0565      0.2919      0.0         0.0877      
2846.3109   2898.2347   2876.3109   -2868.2347  88.4058     0.3227      1.9806      1.0706      2.0701      0.2854      0.0         0.094       
2846.5109   2898.4235   2876.5109   -2868.4235  90.7194     0.3224      1.986       1.0969      2.0884      0.278       0.0         0.1023      
2846.7109   2898.6124   2876.7109   -2868.6124  96.2333     0.3219      2.0         1.124       2.0993      0.2715      0.0         0.1052      
2846.9109   2898.8009   2876.9109   -2868.8009  95.8055     0.3216      2.01        1.144       2.1101      0.2671      0.0         0.108       
2847.1109   2898.9885   2877.1109   -2868.9885  96.3302     0.3217      2.0143      1.1596      2.1228      0.2655      0.0033      0.1167      
2847.3109   2899.1757   2877.3109   -2869.1757  95.2161     0.3221      2.0181      1.1761      2.125       0.2648      0.0079      0.1232      
2847.5109   2899.363    2877.5109   -2869.363   106.3667    0.3229      2.028       1.1909      2.1261      0.2664      0.0108      0.1228      
2847.7109   2899.5503   2877.7109   -2869.5503  107.237     0.3237      2.0522      1.2048      2.1302      0.268       0.0122      0.1221      
2847.9109   2899.7377   2877.9109   -2869.7377  101.7434    0.3239      2.0999      1.2189      2.1352      0.265       0.0061      0.1216      
2848.1109   2899.9252   2878.1109   -2869.9252  104.3187    0.3238      2.1774      1.2265      2.1438      0.2621      0.0         0.1214      
2848.3109   2900.1126   2878.3109   -2870.1126  100.2323    0.3235      2.3111      1.2206      2.1455      0.2668      0.0217      0.1239      
2848.5109   2900.3      2878.5109   -2870.3     96.5724     0.3231      2.4944      1.187       2.1365      0.2756      0.0432      0.1263      
2848.7109   2900.4875   2878.7109   -2870.4875  95.0868     0.3233      2.5606      1.1327      2.1142      0.2893      0.0369      0.1198      
2848.9109   2900.6751   2878.9109   -2870.6751  101.0815    0.3238      2.4798      1.0809      2.0819      0.2986      0.0306      0.1134      
2849.1109   2900.8627   2879.1109   -2870.8627  102.5193    0.3238      2.2496      1.0528      2.0495      0.2985      0.0319      0.1138      
2849.3109   2901.0502   2879.3109   -2871.0502  100.567     0.3236      2.0859      1.0472      2.0458      0.2983      0.0352      0.1147      
2849.5109   2901.2379   2879.5109   -2871.2379  98.1517     0.3238      2.0252      1.0494      2.0721      0.288       0.0437      0.1209      
2849.7109   2901.4256   2879.7109   -2871.4256  98.0687     0.3241      2.0065      1.0553      2.1077      0.278       0.0594      0.1312      
2849.9109   2901.6132   2879.9109   -2871.6132  97.8128     0.324       2.0065      1.0596      2.101       0.2913      0.0997      0.1442      
2850.1109   2901.8009   2880.1109   -2871.8009  96.7905     0.3238      2.0205      1.0637      2.0623      0.3054      0.1352      0.154       
2850.3109   2901.9887   2880.3109   -2871.9887  97.4058     0.3239      2.0406      1.0642      2.06        0.3068      0.1426      0.1569      
2850.5109   2902.1765   2880.5109   -2872.1765  100.4501    0.3237      2.0605      1.0583      2.0967      0.3073      0.1455      0.1581      
2850.7109   2902.3643   2880.7109   -2872.3643  105.586     0.3233      2.0807      1.0435      2.1088      0.3017      0.1046      0.1422      
2850.9109   2902.5521   2880.9109   -2872.5521  106.0849    0.3228      2.0746      1.0298      2.0977      0.2934      0.064       0.1265      
2851.1109   2902.74     2881.1109   -2872.74    102.7833    0.3226      2.0182      1.0262      2.0943      0.2873      0.0668      0.1295      
2851.3109   2902.9279   2881.3109   -2872.9279  97.8175     0.3226      1.9653      1.0265      2.1031      0.2841      0.0729      0.1341      
2851.5109   2903.1159   2881.5109   -2873.1159  95.7995     0.3226      1.9575      1.026       2.1048      0.2911      0.0886      0.1375      
2851.7109   2903.3038   2881.7109   -2873.3038  93.2558     0.3225      1.9608      1.0234      2.1013      0.3011      0.1008      0.1393      
2851.9109   2903.4919   2881.9109   -2873.4919  97.7076     0.3219      1.9715      1.0205      2.091       0.3075      0.0835      0.1299      
