#----------------------------------------------------------------------------
~VERSION INFORMATION
VERS.            2.0                  :CWLS LOG ASCII STANDARD -VERSION 2.0
WRAP.            NO                   :ONE LINE PER DEPTH STEP
#
#--------------------------------------------------------------------
~WELL INFORMATION
#MNEM .UNIT      DATA                 :DESCRIPTION OF MNEMONIC
#----------      ------------         -------------------------------
STRT  .m         2910.0               :START DEPTH
STEP  .m         0.2                  :STEP DEPTH
STOP  .m         3110.0               :STOP DEPTH
NULL  .          -999.25              :NULL VALUE
COMP  .                               :COMPANY
WELL  .                               :WELL
LOC   .                               :LOCATION - AREA
FLD   .                               :FIELD
CTRY  .                               :COUNTRY
DATE  .                               :WELL DATE
UWI   .                               :UWI
ZSTK  .          TVDss                :Z-STICK
XWELL .m         	              :X POS
YWELL .m         	              :Y POS
EDF   .          14.0                 :DERRICK FLOOR ELEVATION
#
#----------------------------------------------------------------------------
~CURVE INFORMATION
#MNEM.UNIT                                  : CURVE DESCRIPTION
#----------                                 -------------------------------
DEPT        .m                              : 1      DEPTH
MD          .m                              : 2      Depth
GR          .API                            : 3      GR
CALIPER     .m                              : 4      Cal
VP          .km/s                           : 5      Vp
VS          .km/s                           : 6      Vs
RHO         .g/cm3                          : 7      Rho
Porosidade  .fract                          : 8      Por
Argilosidade.fract                          : 9      Volume
Saturacao   .fract                          : 10     Sat
#
#----------------------------------------------------------------------------
~A          MD          GR          CALIPER     VP          VS          RHO         Porosidade  Argilosidade Saturacao   
# ...
2990.4      3003.4227   98.1819     0.3215      2.9455      1.6141      2.2419      0.186       0.3333      0.1339      
2990.6      3003.6225   103.1697    0.3176      2.9263      1.7455      2.2295      0.2232      0.1835      0.1382      
2990.8      3003.8222   103.9687    0.3161      2.9427      1.8011      2.2293      0.2339      0.1351      0.1415      
2991.0      3004.022    99.0713     0.3154      2.9084      1.761       2.2345      0.2171      0.2009      0.1437      
2991.2      3004.2218   95.615      0.3165      2.8505      1.7022      2.242       0.1878      0.3233      0.1406      
2991.4      3004.4216   95.3642     0.3219      2.809       1.65        2.2497      0.161       0.4334      0.1383      
2991.6      3004.6214   95.534      0.3247      2.8167      1.5758      2.2517      0.1582      0.4399      0.1549      
2991.8      3004.8212   97.6361     0.3224      2.849       1.529       2.25        0.1756      0.3585      0.1816      
2992.0      3005.0209   101.6221    0.3202      2.899       1.5144      2.2513      0.1858      0.3027      0.1967      
2992.2      3005.2207   103.699     0.3204      2.9454      1.5124      2.2557      0.1871      0.2878      0.203       
2992.4      3005.4205   101.8544    0.3208      2.9638      1.5378      2.2502      0.1978      0.25        0.2078      
2992.6      3005.6203   98.2587     0.3215      2.9574      1.5485      2.2371      0.2163      0.1977      0.2073      
2992.8      3005.8201   96.7546     0.3241      2.9502      1.5372      2.2262      0.2194      0.2142      0.2016      
2993.0      3006.0198   98.2828     0.3282      2.9411      1.5489      2.225       0.197       0.3289      0.193       
2993.2      3006.2196   102.6452    0.3316      2.9112      1.5442      2.2269      0.1739      0.4399      0.184       
2993.4      3006.4194   104.7982    0.3338      2.8844      1.5597      2.2211      0.1742      0.4533      0.1819      
2993.6      3006.6192   101.4568    0.3348      2.8828      1.5599      2.2115      0.1909      0.4024      0.1849      
2993.8      3006.819    96.5535     0.3331      2.8873      1.5154      2.1994      0.2056      0.3646      0.1854      
2994.0      3007.0187   97.6035     0.3293      2.8613      1.4979      2.1925      0.2101      0.3611      0.1846      
2994.2      3007.2185   101.2599    0.3265      2.8466      1.535       2.2015      0.1974      0.3978      0.1813      
2994.4      3007.4183   99.1392     0.3243      2.8394      1.5521      2.2229      0.1751      0.4441      0.1739      
2994.6      3007.6181   93.7955     0.3205      2.8456      1.5494      2.2411      0.1683      0.4262      0.1737      
2994.8      3007.8179   92.1633     0.3165      2.8641      1.5385      2.244       0.1824      0.3423      0.1859      
2995.0      3008.0177   96.0169     0.3158      2.8911      1.5108      2.2457      0.1882      0.3091      0.1964      
2995.2      3008.2175   100.5103    0.3192      2.9154      1.4633      2.2524      0.1709      0.3753      0.1988      
2995.4      3008.4173   99.0469     0.3225      2.9163      1.3955      2.2571      0.1565      0.433       0.201       
2995.6      3008.617    94.3213     0.3249      2.9283      1.3638      2.2528      0.1624      0.4174      0.2078      
2995.8      3008.8168   93.8669     0.3283      2.9115      1.38        2.2424      0.1742      0.387       0.2139      
2996.0      3009.0166   94.1003     0.3309      2.8878      1.3898      2.2364      0.1801      0.3781      0.2121      
2996.2      3009.2164   95.8259     0.3312      2.881       1.4382      2.2311      0.1865      0.3643      0.2024      
2996.4      3009.4162   100.7836    0.3272      2.8926      1.5001      2.2234      0.191       0.3638      0.1927      
2996.6      3009.6159   101.0899    0.3187      2.9115      1.5253      2.2146      0.1942      0.377       0.186       
2996.8      3009.8157   95.7712     0.3124      2.9069      1.5515      2.2002      0.2092      0.3446      0.1834      
2997.0      3010.0155   94.2169     0.3113      2.8809      1.5303      2.1921      0.2213      0.3051      0.1871      
2997.2      3010.2153   98.3572     0.3117      2.902       1.463       2.207       0.2055      0.3413      0.1922      
2997.4      3010.4151   103.1718    0.3119      2.9185      1.4369      2.2327      0.179       0.3979      0.1948      
2997.6      3010.6148   104.783     0.3123      2.9115      1.4278      2.2455      0.1704      0.4019      0.1967      
2997.8      3010.8146   103.1459    0.3123      2.884       1.4173      2.2388      0.1735      0.4068      0.1923      
2998.0      3011.0144   102.6588    0.3125      2.8396      1.4055      2.2214      0.1774      0.4339      0.1863      
2998.2      3011.2142   105.1504    0.3131      2.8239      1.4008      2.2153      0.1815      0.4326      0.1958      
2998.4      3011.414    105.4634    0.3145      2.827       1.3768      2.2211      0.1792      0.4322      0.212       
2998.6      3011.6138   105.047     0.3159      2.8542      1.3682      2.2198      0.1739      0.4602      0.2176      
2998.8      3011.8135   107.6421    0.3171      2.8994      1.4023      2.2131      0.1791      0.4552      0.2124      
2999.0      3012.0133   110.8929    0.3183      2.916       1.4098      2.2062      0.1901      0.4227      0.1893      
2999.2      3012.2131   108.0069    0.3191      2.8645      1.4089      2.1951      0.1994      0.4053      0.1559      
2999.4      3012.4129   99.9032     0.3196      2.7531      1.4211      2.2007      0.2051      0.3548      0.1475      
2999.6      3012.6127   95.1159     0.3195      2.7111      1.4345      2.2558      0.1838      0.2928      0.1723      
2999.8      3012.8124   96.8297     0.318       2.7036      1.5381      2.3339      0.1376      0.3088      0.1969      
3000.0      3013.0122   100.6903    0.316       2.7307      1.6368      2.3421      0.1189      0.368       0.2011      
3000.2      3013.212    101.9452    0.315       2.862       1.5564      2.2943      0.1389      0.3986      0.1922      
3000.4      3013.4118   99.2397     0.315       3.0261      1.4876      2.2607      0.1564      0.416       0.1864      
3000.6      3013.6116   96.2338     0.3159      3.1328      1.4809      2.2546      0.1589      0.4256      0.1839      
3000.8      3013.8114   97.0191     0.3173      3.1603      1.4644      2.2568      0.1575      0.4264      0.1769      
3001.0      3014.0111   99.3593     0.3183      3.1241      1.4541      2.2581      0.1611      0.4094      0.1704      
3001.2      3014.2109   98.7924     0.3178      3.1246      1.4339      2.247       0.1812      0.3393      0.1711      
3001.4      3014.4107   95.107      0.3151      3.1551      1.4347      2.2305      0.2056      0.2696      0.1798      
3001.6      3014.6104   94.4451     0.3124      3.1438      1.482       2.2218      0.2066      0.2904      0.1923      
3001.8      3014.8102   99.4133     0.3119      3.1775      1.5727      2.2269      0.188       0.3671      0.1923      
3002.0      3015.01     104.4997    0.3122      3.2221      1.6416      2.2341      0.1796      0.3895      0.1751      
3002.2      3015.2098   100.6214    0.3114      3.2517      1.6677      2.2477      0.1795      0.3373      0.166       
3002.4      3015.4096   91.7383     0.3105      3.3178      1.699       2.2966      0.1634      0.2769      0.1708      
3002.6      3015.6093   90.2395     0.3101      3.2756      1.7784      2.3398      0.1418      0.2667      0.1707      
3002.8      3015.8091   97.5462     0.3095      3.2105      1.8332      2.3184      0.1429      0.3154      0.158       
3003.0      3016.0089   101.2642    0.3088      3.1299      1.7519      2.2665      0.1603      0.3752      0.1414      
3003.2      3016.2087   101.4269    0.3089      2.9897      1.6263      2.2423      0.1715      0.4014      0.1315      
3003.4      3016.4085   101.1892    0.3091      2.9484      1.5628      2.2321      0.179       0.3953      0.1317      
3003.6      3016.6082   97.9053     0.3087      2.9888      1.568       2.2233      0.1872      0.379       0.1368      
