#----------------------------------------------------------------------------
~VERSION INFORMATION
VERS.            2.0                  :CWLS LOG ASCII STANDARD -VERSION 2.0
WRAP.            NO                   :ONE LINE PER DEPTH STEP
#
#--------------------------------------------------------------------
~WELL INFORMATION
#MNEM .UNIT      DATA                 :DESCRIPTION OF MNEMONIC
#----------      ------------         -------------------------------
STRT  .m         1761.0               :START DEPTH
STEP  .m         0.2                  :STEP DEPTH
STOP  .m         3172.6718            :STOP DEPTH
NULL  .          -999.25              :NULL VALUE
COMP  .          Petrobras            :COMPANY
WELL  .          RO82                 :WELL
LOC   .                               :LOCATION - AREA
FLD   .                               :FIELD
CTRY  .                               :COUNTRY
DATE  .                               :WELL DATE
UWI   .          742810331400         :UWI
ZSTK  .          TVDss                :Z-STICK
XWELL .m         421843.59            :X POS
YWELL .m         7571342              :Y POS
EDF   .          25.0                 :DERRICK FLOOR ELEVATION
#
#----------------------------------------------------------------------------
~CURVE INFORMATION
#MNEM.UNIT                                  : CURVE DESCRIPTION
#----------                                 -------------------------------
DEPT        .m                              : 1      DEPTH
Depth_TVDkb .m                              : 2      Depth
Depth_MD    .m                              : 3      Depth
GR          .API                            : 4      GR
CALIPER     .m                              : 5      Cal
VP          .km/s                           : 6      Vp
VS          .km/s                           : 7      Vs
RHO         .g/cm3                          : 8      Rho
Porosidade  .fract                          : 9      Por
Argilosidade.fract                          : 10     Volume
Saturacao   .fract                          : 11     Sat
#
#----------------------------------------------------------------------------
~A          Depth_TVDkb Depth_MD    GR          CALIPER     VP          VS          RHO         Porosidade  Argilosidade Saturacao   
# ...
2883.8      2908.8      2908.8      126.7054    0.3232      2.5936      1.1202      2.2444      0.0067      0.8796      0.9395      
2884.0      2909.0      2909.0      129.6097    0.3233      2.5917      1.1292      2.2486      0.01        0.8194      1.0         
2884.2      2909.2      2909.2      130.9713    0.3234      2.5866      1.1181      2.2571      0.005       0.8553      0.958       
2884.4      2909.4      2909.4      130.6512    0.3235      2.5789      1.1045      2.2692      0.0         0.8913      0.916       
2884.6      2909.6      2909.6      128.0845    0.3235      2.5666      1.0912      2.2689      0.0         0.9026      0.9173      
2884.8      2909.8      2909.8      123.6987    0.3234      2.5386      1.0794      2.2714      0.0         0.914       0.9186      
2885.0      2910.0      2910.0      121.3496    0.3233      2.5049      1.0768      2.2736      0.0         0.9253      0.9199      
2885.2      2910.2      2910.2      123.1041    0.3227      2.4773      1.0785      2.2589      5.0E-4      0.9213      0.9277      
2885.4      2910.4      2910.4      124.658     0.3221      2.454       1.0832      2.2376      0.001       0.9173      0.9355      
2885.6      2910.6      2910.6      121.3549    0.3223      2.4648      1.0934      2.2254      7.0E-4      0.9448      0.8965      
2885.8      2910.8      2910.8      115.9655    0.3225      2.5113      1.0997      2.2318      3.0E-4      0.9724      0.8574      
2886.0      2911.0      2911.0      112.0475    0.3228      2.598       1.111       2.255       0.0         1.0         0.8184      
2886.2      2911.2      2911.2      108.9584    0.3229      2.6697      1.1207      2.2748      0.0         1.0         0.79        
2886.4      2911.4      2911.4      107.706     0.323       2.7221      1.1182      2.2991      0.0         1.0         0.7617      
2886.6      2911.6      2911.6      109.1162    0.3229      2.747       1.1044      2.3196      0.0         1.0         0.7995      
2886.8      2911.8      2911.8      111.9557    0.3229      2.7111      1.0883      2.3207      0.0         1.0         0.8372      
2887.0      2912.0      2912.0      114.2987    0.3228      2.6503      1.0815      2.3186      0.0         1.0         0.875       
2887.2      2912.2      2912.2      116.6787    0.3225      2.596       1.067       2.293       0.0087      0.9518      0.9375      
2887.4      2912.4      2912.4      121.4777    0.3223      2.5298      1.0566      2.2496      0.0174      0.9037      1.0         
2887.6      2912.6      2912.6      131.4165    0.3225      2.458       1.037       2.2073      0.0116      0.9358      0.987       
2887.8      2912.8      2912.8      145.1694    0.3227      2.3956      1.0369      2.1802      0.0058      0.9679      0.974       
2888.0      2913.0      2913.0      153.9229    0.3229      2.3622      1.0265      2.1718      0.0         1.0         0.9609      
2888.2      2913.2      2913.2      153.3231    0.3232      2.3661      1.0138      2.1753      0.0142      0.9534      0.9805      
2888.4      2913.4      2913.4      150.755     0.3235      2.3862      1.0043      2.1827      0.0284      0.9068      1.0         
2888.6      2913.6      2913.6      153.9123    0.3231      2.3934      0.9993      2.1895      0.0189      0.9379      1.0         
2888.8      2913.8      2913.8      160.4721    0.3228      2.3892      0.9946      2.1916      0.0095      0.9689      1.0         
2889.0      2914.0      2914.0      162.9365    0.3224      2.397       0.99        2.1862      0.0         1.0         1.0         
2889.2      2914.2      2914.2      158.6202    0.3225      2.4104      0.9854      2.1755      0.0         1.0         1.0         
2889.4      2914.4      2914.4      153.4487    0.3227      2.419       0.9817      2.1703      0.0         1.0         1.0         
2889.6      2914.6      2914.6      154.102     0.3228      2.4215      0.9797      2.1752      0.0         1.0         1.0         
2889.8      2914.8      2914.8      156.7805    0.3229      2.422       0.9771      2.1855      0.0         1.0         1.0         
2890.0      2915.0      2915.0      158.6821    0.3231      2.4224      0.9747      2.1912      0.0         1.0         1.0         
2890.2      2915.2      2915.2      161.2975    0.3229      2.416       0.9744      2.1845      0.0         1.0         1.0         
2890.4      2915.4      2915.4      164.0986    0.3227      2.3944      0.9752      2.1755      0.0         1.0         1.0         
2890.6      2915.6      2915.6      167.1795    0.3227      2.3515      0.9761      2.1762      0.0332      0.9169      1.0         
2890.8      2915.8      2915.8      171.0281    0.3226      2.3117      0.977       2.1718      0.0664      0.8339      1.0         
2891.0      2916.0      2916.0      173.6751    0.3226      2.2884      0.9779      2.1636      0.0997      0.7508      1.0         
2891.2      2916.2      2916.2      174.3967    0.3218      2.2677      0.9751      2.1543      0.0748      0.8131      0.998       
2891.4      2916.4      2916.4      172.8309    0.3209      2.2342      0.9702      2.1455      0.0498      0.8754      0.996       
2891.6      2916.6      2916.6      166.8179    0.3206      2.1769      0.9664      2.1412      0.1594      0.5836      0.7902      
2891.8      2916.8      2916.8      158.5021    0.3203      2.1128      0.9641      2.1389      0.2689      0.2918      0.5843      
2892.0      2917.0      2917.0      151.7891    0.3199      2.0784      0.9623      2.1231      0.3785      0.0         0.3785      
2892.2      2917.2      2917.2      146.8636    0.3204      2.07        0.962       2.086       0.3837      0.0         0.3714      
2892.4      2917.4      2917.4      143.5912    0.3208      2.0775      0.962       2.0408      0.389       0.0         0.3642      
2892.6      2917.6      2917.6      142.2703    0.3213      2.1179      0.9671      2.0164      0.363       0.0286      0.407       
2892.8      2917.8      2917.8      141.2157    0.3219      2.1719      0.9841      2.0421      0.3369      0.0573      0.4498      
2893.0      2918.0      2918.0      140.8769    0.3224      2.2127      1.0035      2.1044      0.3109      0.0859      0.4926      
2893.2      2918.2      2918.2      143.1359    0.3227      2.2281      1.0368      2.1477      0.1695      0.5079      0.6356      
2893.4      2918.4      2918.4      145.3447    0.323       2.2094      1.0327      2.1594      0.028       0.9299      0.7787      
2893.6      2918.6      2918.6      144.786     0.3228      2.1522      1.0248      2.1665      0.1489      0.62        0.6522      
2893.8      2918.8      2918.8      142.8947    0.3226      2.107       1.0212      2.1712      0.2698      0.31        0.5257      
2894.0      2919.0      2919.0      142.5181    0.3223      2.0779      1.0175      2.1241      0.3906      0.0         0.3992      
2894.2      2919.2      2919.2      143.9827    0.322       2.061       1.0165      2.0667      0.381       0.0146      0.4061      
2894.4      2919.4      2919.4      146.0545    0.3217      2.0544      1.0158      2.0515      0.3713      0.0291      0.4131      
2894.6      2919.6      2919.6      147.4624    0.3218      2.0653      1.0131      2.084       0.3706      0.0194      0.4098      
2894.8      2919.8      2919.8      148.18      0.322       2.0687      1.0105      2.1047      0.3699      0.0097      0.4066      
2895.0      2920.0      2920.0      149.5487    0.3221      2.0566      1.0113      2.0879      0.3692      0.0         0.4033      
2895.2      2920.2      2920.2      153.4877    0.3218      2.0399      1.0161      2.0674      0.3783      0.0         0.3786      
2895.4      2920.4      2920.4      155.5668    0.3215      2.0322      1.0219      2.0571      0.3874      0.0         0.3538      
2895.6      2920.6      2920.6      151.5371    0.3215      2.0357      1.0259      2.0295      0.3831      0.0         0.363       
2895.8      2920.8      2920.8      144.4242    0.3215      2.0569      1.0268      1.9915      0.3788      0.0         0.3722      
