#----------------------------------------------------------------------------
~VERSION INFORMATION
VERS.            2.0                  :CWLS LOG ASCII STANDARD -VERSION 2.0
WRAP.            NO                   :ONE LINE PER DEPTH STEP
#
#--------------------------------------------------------------------
~WELL INFORMATION
#MNEM .UNIT      DATA                 :DESCRIPTION OF MNEMONIC
#----------      ------------         -------------------------------
STRT  .m         2910.0               :START DEPTH
STEP  .m         0.2                  :STEP DEPTH
STOP  .m         3110.0               :STOP DEPTH
NULL  .          -999.25              :NULL VALUE
COMP  .                               :COMPANY
WELL  .                               :WELL
LOC   .                               :LOCATION - AREA
FLD   .                               :FIELD
CTRY  .                               :COUNTRY
DATE  .                               :WELL DATE
UWI   .                               :UWI
ZSTK  .          TVDss                :Z-STICK
XWELL .m         	              :X POS
YWELL .m         	              :Y POS
EDF   .          14.0                 :DERRICK FLOOR ELEVATION
#
#----------------------------------------------------------------------------
~CURVE INFORMATION
#MNEM.UNIT                                  : CURVE DESCRIPTION
#----------                                 -------------------------------
DEPT        .m                              : 1      DEPTH
MD          .m                              : 2      Depth
GR          .API                            : 3      GR
CALIPER     .m                              : 4      Cal
VP          .km/s                           : 5      Vp
VS          .km/s                           : 6      Vs
RHO         .g/cm3                          : 7      Rho
Porosidade  .fract                          : 8      Por
Argilosidade.fract                          : 9      Volume
Saturacao   .fract                          : 10     Sat
#
#----------------------------------------------------------------------------
~A          MD          GR          CALIPER     VP          VS          RHO         Porosidade  Argilosidade Saturacao   
# ...
3084.2      3097.1217   92.8397     0.3188      2.6321      1.3386      2.3462      0.0         1.0         0.999       
3084.4      3097.3215   87.1212     0.3181      2.7152      1.3956      2.3736      1.0E-4      1.0         0.9956      
3084.6      3097.5214   85.4513     0.318       2.8073      1.3732      2.3855      2.0E-4      0.9988      0.9973      
3084.8      3097.7212   87.3691     0.318       2.8093      1.3514      2.3886      0.0         1.0         1.0         
3085.0      3097.921    87.7949     0.318       2.7902      1.3422      2.3934      1.0E-4      0.9999      1.0         
3085.2      3098.1208   88.9059     0.3184      2.7833      1.339       2.3936      0.0         0.9983      0.9997      
3085.4      3098.3206   93.7719     0.3187      2.7755      1.3184      2.3861      0.0         1.0         1.0         
3085.6      3098.5204   96.987      0.3187      2.7454      1.277       2.3699      1.0E-4      0.9968      1.0         
3085.8      3098.7202   96.1835     0.3185      2.6871      1.2391      2.3469      0.0         0.9792      0.9999      
3086.0      3098.9201   92.5548     0.3187      2.6473      1.2462      2.3337      0.0         0.9832      1.0         
3086.2      3099.1199   89.1047     0.3188      2.6504      1.3109      2.3447      0.0         1.0         0.9999      
3086.4      3099.3197   88.3493     0.3183      2.6775      1.353       2.3656      0.0         1.0         1.0         
3086.6      3099.5195   88.9858     0.3178      2.7268      1.3555      2.3862      0.0         0.9985      1.0         
3086.8      3099.7193   88.4928     0.3178      2.7753      1.3669      2.3988      0.0         1.0         0.9999      
3087.0      3099.9192   87.9028     0.3179      2.79        1.3783      2.3899      0.0         1.0         1.0         
3087.2      3100.119    88.7558     0.3182      2.7898      1.3422      2.3755      0.0         0.9996      1.0         
3087.4      3100.3188   92.8782     0.3179      2.7778      1.2915      2.3649      0.0         0.9999      0.9997      
3087.6      3100.5186   99.3196     0.3177      2.7139      1.2575      2.3431      0.0         1.0         1.0         
3087.8      3100.7184   103.8871    0.319       2.6378      1.2305      2.315       0.0         0.9999      1.0         
3088.0      3100.9182   100.8902    0.3197      2.6133      1.22        2.3044      0.0         0.999       0.9994      
3088.2      3101.118    93.661      0.3186      2.6129      1.2496      2.3242      0.0         1.0         1.0         
3088.4      3101.3179   88.1188     0.3173      2.6464      1.2928      2.354       0.0         0.9992      0.9981      
3088.6      3101.5177   84.8628     0.3171      2.7301      1.3421      2.3739      0.0         0.998       0.9878      
3088.8      3101.7175   82.5114     0.317       2.7758      1.3645      2.3831      0.0         1.0         0.9859      
3089.0      3101.9173   86.1651     0.317       2.7895      1.3727      2.3869      0.0         0.986       0.9947      
3089.2      3102.1172   94.706      0.3172      2.7871      1.3443      2.3798      0.0         0.9522      1.0         
3089.4      3102.3169   99.4732     0.3179      2.7457      1.3004      2.3626      1.0E-4      0.9668      1.0         
3089.6      3102.5167   100.7512    0.3185      2.6711      1.2756      2.348       0.0         1.0         0.999       
3089.8      3102.7166   101.0169    0.3182      2.6136      1.2622      2.3436      0.0         1.0         0.9998      
3090.0      3102.9164   97.4384     0.3171      2.6092      1.2527      2.3452      4.0E-4      0.996       1.0         
3090.2      3103.1162   91.2912     0.317       2.6326      1.2719      2.3545      0.0         1.0         0.9899      
3090.4      3103.316    90.0486     0.3173      2.6807      1.3523      2.373       0.0         1.0         0.9767      
3090.6      3103.5159   93.3641     0.3174      2.7559      1.3862      2.3815      0.001       0.9864      0.9887      
3090.8      3103.7157   96.01       0.3175      2.7818      1.3466      2.3742      0.0         0.9651      1.0         
3091.0      3103.9155   100.3123    0.3175      2.7276      1.2685      2.3557      0.0016      0.9366      1.0         
3091.2      3104.1153   104.0241    0.3178      2.65        1.2008      2.3245      0.0148      0.914       0.9991      
3091.4      3104.3151   100.8958    0.3185      2.6106      1.2024      2.3147      0.0154      0.938       1.0         
3091.6      3104.5149   94.5459     0.3185      2.6043      1.2385      2.3383      0.0021      0.9891      1.0         
3091.8      3104.7148   91.3407     0.3181      2.6459      1.2755      2.3598      0.0         1.0         0.9985      
3092.0      3104.9146   90.0331     0.318       2.7065      1.305       2.3719      0.001       0.9977      0.9915      
3092.2      3105.1144   91.9633     0.318       2.7622      1.3219      2.3885      0.0         0.9999      0.9916      
3092.4      3105.3142   100.9141    0.3184      2.7554      1.3618      2.3877      0.0         1.0         0.9993      
3092.6      3105.514    109.0675    0.3195      2.7023      1.3931      2.3508      5.0E-4      0.9989      1.0         
3092.8      3105.7139   108.4884    0.3198      2.6377      1.3636      2.3236      0.0         1.0         0.9997      
3093.0      3105.9136   102.6317    0.3192      2.5806      1.2967      2.3355      0.0         1.0         1.0         
3093.2      3106.1135   100.4792    0.3195      2.5717      1.2842      2.3535      3.0E-4      0.999       0.9999      
3093.4      3106.3133   102.8453    0.3198      2.6252      1.2868      2.3506      0.0         0.9998      1.0         
3093.6      3106.5131   104.6714    0.32        2.6912      1.2744      2.3424      0.0         1.0         0.9991      
3093.8      3106.713    104.6105    0.3219      2.6929      1.279       2.3259      4.0E-4      0.9977      0.9999      
3094.0      3106.9128   103.6911    0.3238      2.6816      1.307       2.3113      0.0         1.0         1.0         
3094.2      3107.1126   99.003      0.3223      2.6786      1.3334      2.3261      0.0         1.0         0.9945      
3094.4      3107.3124   91.1966     0.3194      2.7096      1.3163      2.3588      8.0E-4      0.9817      0.989       
3094.6      3107.5122   88.4422     0.3188      2.7624      1.3271      2.3879      0.0         0.9579      0.9865      
3094.8      3107.712    92.8354     0.319       2.8114      1.3324      2.4038      7.0E-4      0.9753      0.9694      
3095.0      3107.9119   100.5357    0.3191      2.8326      1.3493      2.404       0.0011      1.0         0.9677      
3095.2      3108.1117   104.7748    0.3188      2.825       1.3843      2.3863      0.0         0.9884      0.9933      
3095.4      3108.3115   104.3343    0.3184      2.8089      1.3972      2.3438      0.0231      0.8505      1.0         
3095.6      3108.5113   104.3408    0.3232      2.7702      1.3278      2.281       0.0797      0.7229      0.998       
3095.8      3108.7111   103.3539    0.3357      2.6909      1.2361      2.237       0.1081      0.7215      1.0         
3096.0      3108.911    97.3767     0.344       2.6122      1.2171      2.2353      0.1101      0.7234      0.9982      
3096.2      3109.1108   91.7832     0.3381      2.5944      1.2703      2.2552      0.1083      0.6649      0.9911      
3096.4      3109.3106   94.0599     0.3239      2.6614      1.3413      2.3032      0.0748      0.697       0.997       
3096.6      3109.5104   98.7007     0.3174      2.7626      1.3735      2.3477      0.0277      0.7983      1.0         
3096.8      3109.7103   100.1934    0.3176      2.7999      1.3486      2.3485      0.0208      0.8204      0.999       
3097.0      3109.9101   99.0711     0.3182      2.7247      1.3009      2.3255      0.0321      0.8405      1.0         
3097.2      3110.1099   97.0083     0.3187      2.6152      1.2315      2.3037      0.0183      0.9401      1.0         
3097.4      3110.3097   90.75       0.3196      2.5446      1.1803      2.3084      0.0         1.0         0.9983      
