#----------------------------------------------------------------------------
~VERSION INFORMATION
VERS.            2.0                  :CWLS LOG ASCII STANDARD -VERSION 2.0
WRAP.            NO                   :ONE LINE PER DEPTH STEP
#
#--------------------------------------------------------------------
~WELL INFORMATION
#MNEM .UNIT      DATA                 :DESCRIPTION OF MNEMONIC
#----------      ------------         -------------------------------
STRT  .m         3166.0               :START DEPTH
STEP  .m         0.2                  :STEP DEPTH
STOP  .m         3406.0               :STOP DEPTH
NULL  .          -999.25              :NULL VALUE
COMP  .          	              :COMPANY
WELL  .                               :WELL
LOC   .                               :LOCATION - AREA
FLD   .                               :FIELD
CTRY  .                               :COUNTRY
DATE  .                               :WELL DATE
UWI   .          	              :UWI
ZSTK  .          TVDss                :Z-STICK
XWELL .m         		      :X POS
YWELL .m         	              :Y POS
EDF   .          24.0                 :DERRICK FLOOR ELEVATION
#
#----------------------------------------------------------------------------
~CURVE INFORMATION
#MNEM.UNIT                                  : CURVE DESCRIPTION
#----------                                 -------------------------------
DEPT        .m                              : 1      DEPTH
MD          .m                              : 2      Depth
GR          .API                            : 3      GR
CALIPER     .m                              : 4      Cal
VP          .km/s                           : 5      Vp
VS          .km/s                           : 6      Vs
RHO         .g/cm3                          : 7      Rho
Porosidade  .fract                          : 8      Por
Argilosidade.fract                          : 9      Volume
Saturacao   .fract                          : 10     Sat
#
#----------------------------------------------------------------------------
~A          MD          GR          CALIPER     VP          VS          RHO         Porosidade  Argilosidade Saturacao   
3166.0      3190.0      98.7256     0.3325      2.6656      1.0593      2.3209      0.0         0.9902      0.953       
3166.2      3190.2      97.5141     0.3325      2.6553      1.0598      2.3206      0.0022      0.9149      0.9926      
3166.4      3190.4      102.8161    0.3325      2.6485      1.062       2.3159      0.0113      0.858       1.0         
3166.6      3190.6      106.4811    0.3326      2.6483      1.0664      2.3046      0.0263      0.8167      0.9997      
3166.8      3190.8      104.4445    0.3326      2.658       1.0729      2.3016      0.0234      0.8139      1.0         
3167.0      3191.0      99.0873     0.3321      2.6779      1.0805      2.3211      0.005       0.8458      0.9997      
3167.2      3191.2      88.8358     0.3315      2.7048      1.088       2.3507      0.0         0.8057      1.0         
3167.4      3191.4      84.9402     0.3314      2.7324      1.0938      2.3679      0.001       0.7869      0.989       
3167.6      3191.6      88.0072     0.3314      2.7522      1.0963      2.3657      0.0         0.864       0.9435      
3167.8      3191.8      90.3961     0.3316      2.7584      1.0948      2.3472      4.0E-4      0.8623      0.9729      
3168.0      3192.0      90.1643     0.3325      2.7528      1.089       2.3269      0.0         0.8906      0.9654      
3168.2      3192.2      86.104      0.3357      2.7391      1.08        2.3218      3.0E-4      0.954       0.9301      
3168.4      3192.4      82.827      0.3367      2.7247      1.0702      2.3259      0.0         0.9423      0.9671      
3168.6      3192.6      82.7985     0.3326      2.7142      1.0612      2.326       3.0E-4      0.9774      0.9438      
3168.8      3192.8      86.4813     0.3295      2.7079      1.0543      2.3246      0.0         1.0         0.9232      
3169.0      3193.0      91.5595     0.3292      2.7036      1.0497      2.3261      0.0027      0.9666      0.9403      
3169.2      3193.2      92.9633     0.3293      2.6986      1.0467      2.3277      0.0079      0.8646      0.9904      
3169.4      3193.4      92.7886     0.3294      2.6905      1.0447      2.3243      0.0025      0.9181      0.989       
3169.6      3193.6      94.3583     0.3295      2.679       1.0429      2.3113      0.0         0.9967      0.9469      
3169.8      3193.8      97.6319     0.3293      2.6653      1.041       2.2954      3.0E-4      0.9937      0.9532      
3170.0      3194.0      98.9457     0.3287      2.6516      1.0394      2.2933      0.0         0.9937      0.9786      
3170.2      3194.2      96.7963     0.3282      2.641       1.0385      2.3096      2.0E-4      0.9964      0.979       
3170.4      3194.4      95.1064     0.3282      2.6362      1.0386      2.3278      0.0         1.0         0.9682      
3170.6      3194.6      94.3882     0.3283      2.6365      1.0394      2.3328      1.0E-4      0.9998      0.9462      
3170.8      3194.8      94.2304     0.3283      2.641       1.0402      2.3306      0.0         0.9996      0.9278      
3171.0      3195.0      94.0455     0.3282      2.6466      1.0406      2.3319      0.0         1.0         0.9215      
3171.2      3195.2      92.0803     0.3282      2.6515      1.0405      2.3357      6.0E-4      0.9695      0.9382      
3171.4      3195.4      90.6565     0.3283      2.6556      1.0401      2.3368      0.0025      0.8941      0.9758      
3171.6      3195.6      92.2442     0.3283      2.6602      1.0395      2.3349      5.0E-4      0.9733      0.9382      
3171.8      3195.8      94.3568     0.3283      2.6664      1.039       2.331       1.0E-4      0.9925      0.9451      
3172.0      3196.0      94.8239     0.3282      2.6744      1.0388      2.3289      0.0         0.9806      0.9545      
3172.2      3196.2      93.2207     0.3283      2.6825      1.0388      2.3328      1.0E-4      0.9661      0.9499      
3172.4      3196.4      89.7644     0.3283      2.6886      1.039       2.3371      0.0         0.9264      0.9682      
3172.6      3196.6      87.4822     0.3283      2.6906      1.0394      2.3351      2.0E-4      0.9778      0.9301      
3172.8      3196.8      88.4764     0.3283      2.6888      1.0399      2.332       0.0         1.0         0.9163      
3173.0      3197.0      88.7234     0.3283      2.6825      1.0401      2.3322      3.0E-4      0.9977      0.9242      
3173.2      3197.2      89.2488     0.3285      2.6728      1.04        2.3282      0.0         1.0         0.9305      
3173.4      3197.4      91.4155     0.3287      2.662       1.0393      2.3193      5.0E-4      0.9975      0.94        
3173.6      3197.6      92.2706     0.3286      2.6522      1.0383      2.3163      0.0         0.9988      0.9525      
3173.8      3197.8      94.7183     0.3285      2.6443      1.0371      2.3194      0.0025      0.938       0.9925      
3174.0      3198.0      98.6971     0.3286      2.6381      1.0359      2.316       0.0036      0.9269      0.9858      
3174.2      3198.2      99.2076     0.3286      2.632       1.0342      2.3018      0.0108      0.9359      0.9642      
3174.4      3198.4      96.145      0.3286      2.6252      1.032       2.2846      0.0235      0.8963      0.9871      
3174.6      3198.6      94.8195     0.3286      2.6182      1.0295      2.2759      0.0071      0.9674      0.9814      
3174.8      3198.8      94.7727     0.3287      2.6126      1.027       2.2844      0.0         1.0         0.982       
3175.0      3199.0      93.8338     0.3286      2.6103      1.0248      2.3032      0.001       0.9951      0.9901      
3175.2      3199.2      96.8048     0.3283      2.6114      1.0233      2.3117      0.0         1.0         0.9829      
3175.4      3199.4      100.528     0.3283      2.6164      1.0226      2.3063      0.0014      0.9891      0.9786      
3175.6      3199.6      98.7472     0.3283      2.6236      1.023       2.2988      0.0048      0.9553      0.9943      
3175.8      3199.8      96.1891     0.3286      2.6322      1.0246      2.2896      0.0318      0.8447      1.0         
3176.0      3200.0      96.1352     0.3305      2.6419      1.0272      2.2826      0.065       0.7208      0.9998      
3176.2      3200.2      93.1773     0.3322      2.6535      1.0304      2.2938      0.0411      0.7991      0.9999      
3176.4      3200.4      91.4505     0.3321      2.6669      1.0335      2.3234      0.0149      0.8202      1.0         
3176.6      3200.6      92.5771     0.3327      2.6794      1.0354      2.3447      0.0023      0.8667      0.9932      
3176.8      3200.8      93.0881     0.3327      2.6864      1.035       2.3375      0.0         0.9841      0.9412      
3177.0      3201.0      93.1247     0.3316      2.6855      1.0316      2.3085      1.0E-4      0.996       0.9289      
3177.2      3201.2      92.8506     0.332       2.6742      1.0257      2.2852      0.0165      0.9113      0.9676      
3177.4      3201.4      91.392      0.334       2.6562      1.0197      2.2807      0.0479      0.7814      0.9976      
3177.6      3201.6      90.9718     0.3321      2.6366      1.0157      2.2857      0.0235      0.8802      0.9985      
3177.8      3201.8      92.7496     0.3281      2.6215      1.0153      2.2963      0.0013      0.9913      0.9895      
3178.0      3202.0      95.8885     0.3272      2.6147      1.0181      2.308       1.0E-4      0.9823      0.9777      
3178.2      3202.2      97.5939     0.3271      2.6153      1.0232      2.3123      0.0         0.9985      0.9453      
3178.4      3202.4      95.2036     0.327       2.6212      1.0287      2.3164      0.0         0.9848      0.955       
3178.6      3202.6      92.2819     0.3269      2.6283      1.0329      2.3208      0.0212      0.8164      0.992       
3178.8      3202.8      92.6092     0.327       2.6355      1.0355      2.309       0.0648      0.655       1.0         
3179.0      3203.0      96.3453     0.3276      2.6436      1.0372      2.2951      0.0298      0.8516      0.996       
3179.2      3203.2      96.9617     0.3277      2.6544      1.0387      2.3126      0.0026      0.9844      0.9901      
