#----------------------------------------------------------------------------
~VERSION INFORMATION
VERS.            2.0                  :CWLS LOG ASCII STANDARD -VERSION 2.0
WRAP.            NO                   :ONE LINE PER DEPTH STEP
#
#--------------------------------------------------------------------
~WELL INFORMATION
#MNEM .UNIT      DATA                 :DESCRIPTION OF MNEMONIC
#----------      ------------         -------------------------------
STRT  .m         3166.0               :START DEPTH
STEP  .m         0.2                  :STEP DEPTH
STOP  .m         3406.0               :STOP DEPTH
NULL  .          -999.25              :NULL VALUE
COMP  .          	              :COMPANY
WELL  .                               :WELL
LOC   .                               :LOCATION - AREA
FLD   .                               :FIELD
CTRY  .                               :COUNTRY
DATE  .                               :WELL DATE
UWI   .          	              :UWI
ZSTK  .          TVDss                :Z-STICK
XWELL .m         		      :X POS
YWELL .m         	              :Y POS
EDF   .          24.0                 :DERRICK FLOOR ELEVATION
#
#----------------------------------------------------------------------------
~CURVE INFORMATION
#MNEM.UNIT                                  : CURVE DESCRIPTION
#----------                                 -------------------------------
DEPT        .m                              : 1      DEPTH
MD          .m                              : 2      Depth
GR          .API                            : 3      GR
CALIPER     .m                              : 4      Cal
VP          .km/s                           : 5      Vp
VS          .km/s                           : 6      Vs
RHO         .g/cm3                          : 7      Rho
Porosidade  .fract                          : 8      Por
Argilosidade.fract                          : 9      Volume
Saturacao   .fract                          : 10     Sat
#
#----------------------------------------------------------------------------
~A          MD          GR          CALIPER     VP          VS          RHO         Porosidade  Argilosidade Saturacao   
# ...
3353.6      3377.6      121.7474    0.3133      2.723       1.1184      2.2307      0.1151      0.6411      1.0         
3353.8      3377.8      124.751     0.3135      2.7199      1.1149      2.2492      0.0982      0.6759      0.9981      
3354.0      3378.0      125.6267    0.3134      2.7137      1.1098      2.2486      0.1149      0.6058      1.0         
3354.2      3378.2      124.0942    0.3133      2.7038      1.1031      2.2437      0.0805      0.7435      0.9987      
3354.4      3378.4      119.0562    0.3134      2.6919      1.0965      2.2343      0.0079      0.9767      1.0         
3354.6      3378.6      115.9367    0.3137      2.6817      1.092       2.229       0.0069      0.9824      0.9991      
3354.8      3378.8      119.6757    0.3143      2.6763      1.0904      2.2368      0.038       0.909       1.0         
3355.0      3379.0      121.1041    0.3147      2.6758      1.0914      2.2537      0.0716      0.7514      0.9994      
3355.2      3379.2      118.8392    0.315       2.6793      1.0946      2.2716      0.0724      0.7039      1.0         
3355.4      3379.4      120.9115    0.3152      2.6854      1.0981      2.291       0.0183      0.9087      0.9995      
3355.6      3379.6      122.942     0.3151      2.6925      1.1007      2.303       0.0         1.0         1.0         
3355.8      3379.8      120.3101    0.315       2.7001      1.102       2.2932      0.0281      0.8859      0.9996      
3356.0      3380.0      119.2248    0.3151      2.7081      1.1023      2.2765      0.0729      0.6982      1.0         
3356.2      3380.2      122.7976    0.3152      2.7167      1.1023      2.2757      0.0514      0.7692      0.9996      
3356.4      3380.4      126.7325    0.3154      2.7258      1.1023      2.2807      0.0202      0.9019      1.0         
3356.6      3380.6      123.4414    0.3155      2.7339      1.1016      2.2871      0.0025      0.988       0.9996      
3356.8      3380.8      115.2865    0.3155      2.7381      1.0993      2.2966      0.006       0.9681      1.0         
3357.0      3381.0      112.6697    0.3152      2.7369      1.0948      2.2882      0.0186      0.9072      0.9994      
3357.2      3381.2      116.8298    0.3148      2.7286      1.0888      2.258       0.0116      0.9589      1.0         
3357.4      3381.4      120.2695    0.3148      2.7158      1.083       2.2335      0.0396      0.9018      0.9993      
3357.6      3381.6      120.7096    0.3145      2.7021      1.079       2.2276      0.0585      0.855       1.0         
3357.8      3381.8      120.8034    0.3136      2.6909      1.0784      2.2364      0.0748      0.7811      0.999       
3358.0      3382.0      119.0476    0.3131      2.6849      1.0805      2.251       0.0917      0.6887      1.0         
3358.2      3382.2      118.9202    0.3131      2.6845      1.0845      2.2586      0.0501      0.8407      0.9985      
3358.4      3382.4      118.9759    0.3132      2.6889      1.0883      2.2607      0.0306      0.9091      1.0         
3358.6      3382.6      114.7028    0.3132      2.6949      1.0902      2.2602      0.0708      0.7639      0.9979      
3358.8      3382.8      110.2028    0.313       2.6982      1.0895      2.251       0.0828      0.7374      1.0         
3359.0      3383.0      111.2145    0.3126      2.6963      1.086       2.2347      0.0519      0.8612      0.9969      
3359.2      3383.2      114.1298    0.3124      2.6866      1.0822      2.2101      0.0159      0.9651      1.0         
3359.4      3383.4      111.9908    0.3124      2.6715      1.0808      2.1635      0.1094      0.7135      0.8942      
3359.6      3383.6      103.7194    0.3125      2.6561      1.0842      2.102       0.3005      0.1906      0.6005      
3359.8      3383.8      98.654      0.3126      2.6466      1.0934      2.0731      0.3506      0.0509      0.5674      
3360.0      3384.0      102.6329    0.3131      2.647       1.1067      2.1131      0.2818      0.2439      0.7778      
3360.2      3384.2      105.3521    0.3146      2.6596      1.12        2.2047      0.0876      0.774       0.98        
3360.4      3384.4      101.7164    0.316       2.6808      1.1293      2.2846      0.0049      0.9856      1.0         
3360.6      3384.6      99.8803     0.3176      2.7048      1.1324      2.3247      1.0E-4      0.9997      0.9967      
3360.8      3384.8      100.144     0.3188      2.7259      1.1305      2.3342      0.0         1.0         1.0         
3361.0      3385.0      97.799      0.319       2.7404      1.1258      2.3298      0.0         0.9608      0.9979      
3361.2      3385.2      95.4298     0.3195      2.7487      1.122       2.3325      0.0         0.923       1.0         
3361.4      3385.4      96.3461     0.3199      2.7539      1.1209      2.3472      0.0         0.9863      0.9987      
3361.6      3385.6      100.5479    0.3182      2.7589      1.1223      2.3573      1.0E-4      1.0         1.0         
3361.8      3385.8      103.9569    0.3153      2.7653      1.126       2.3645      0.0         0.9979      0.9994      
3362.0      3386.0      103.8811    0.3137      2.7738      1.1312      2.38        1.0E-4      1.0         1.0         
3362.2      3386.2      99.0808     0.3135      2.7842      1.1372      2.3905      0.0         0.9984      0.9939      
3362.4      3386.4      93.5269     0.3136      2.7958      1.144       2.3826      2.0E-4      1.0         0.9834      
3362.6      3386.6      92.2314     0.3142      2.8066      1.1514      2.3669      0.0         0.9777      0.9896      
3362.8      3386.8      91.2936     0.3149      2.8141      1.1581      2.3589      4.0E-4      0.9552      0.9922      
3363.0      3387.0      90.6401     0.3152      2.8162      1.1616      2.3573      0.0         0.9918      0.9742      
3363.2      3387.2      93.4439     0.315       2.8122      1.1594      2.3518      6.0E-4      1.0         0.9646      
3363.4      3387.4      95.2753     0.3148      2.7991      1.1472      2.342       0.0         0.9908      0.9829      
3363.6      3387.6      96.7834     0.3152      2.7746      1.1236      2.3307      8.0E-4      0.9788      0.9967      
3363.8      3387.8      98.6477     0.3161      2.7388      1.0921      2.3056      0.0         0.996       1.0         
3364.0      3388.0      99.5511     0.317       2.6952      1.0587      2.2407      0.0012      0.9982      0.9965      
3364.2      3388.2      99.7332     0.3182      2.6506      1.0311      2.1284      0.0058      0.9842      1.0         
3364.4      3388.4      99.0757     0.3216      2.6149      1.0158      2.0349      0.157       0.6002      0.8561      
3364.6      3388.6      99.4389     0.3268      2.5964      1.0138      2.0632      0.3039      0.2122      0.6693      
3364.8      3388.8      99.7446     0.324       2.598       1.0242      2.1958      0.163       0.5942      0.8906      
3365.0      3389.0      99.2827     0.3168      2.6188      1.0444      2.3049      0.0123      0.9135      0.998       
3365.2      3389.2      98.915      0.3151      2.6541      1.0681      2.3348      0.0         0.9228      0.9964      
3365.4      3389.4      100.5959    0.3156      2.6907      1.088       2.337       0.0         0.9401      1.0         
3365.6      3389.6      100.2873    0.316       2.7145      1.0996      2.3465      5.0E-4      0.9571      0.9976      
3365.8      3389.8      98.5636     0.3166      2.7201      1.1026      2.3364      0.0         0.9943      1.0         
3366.0      3390.0      98.2165     0.3176      2.7098      1.1012      2.2943      0.0138      0.9509      0.9984      
3366.2      3390.2      96.9312     0.3196      2.6912      1.0992      2.2676      0.08        0.7268      1.0         
3366.4      3390.4      94.5635     0.3228      2.6774      1.0999      2.2777      0.1054      0.6581      0.999       
3366.6      3390.6      92.2702     0.3223      2.6752      1.1049      2.2977      0.0542      0.7156      1.0         
3366.8      3390.8      91.3552     0.3194      2.6843      1.1127      2.324       0.0048      0.8731      0.9994      
