#----------------------------------------------------------------------------
~VERSION INFORMATION
VERS.            2.0                  :CWLS LOG ASCII STANDARD -VERSION 2.0
WRAP.            NO                   :ONE LINE PER DEPTH STEP
#
#--------------------------------------------------------------------
~WELL INFORMATION
#MNEM .UNIT      DATA                 :DESCRIPTION OF MNEMONIC
#----------      ------------         -------------------------------
STRT  .m         1761.0               :START DEPTH
STEP  .m         0.2                  :STEP DEPTH
STOP  .m         3172.6718            :STOP DEPTH
NULL  .          -999.25              :NULL VALUE
COMP  .          Petrobras            :COMPANY
WELL  .          RO82                 :WELL
LOC   .                               :LOCATION - AREA
FLD   .                               :FIELD
CTRY  .                               :COUNTRY
DATE  .                               :WELL DATE
UWI   .          742810331400         :UWI
ZSTK  .          TVDss                :Z-STICK
XWELL .m         421843.59            :X POS
YWELL .m         7571342              :Y POS
EDF   .          25.0                 :DERRICK FLOOR ELEVATION
#
#----------------------------------------------------------------------------
~CURVE INFORMATION
#MNEM.UNIT                                  : CURVE DESCRIPTION
#----------                                 -------------------------------
DEPT        .m                              : 1      DEPTH
Depth_TVDkb .m                              : 2      Depth
Depth_MD    .m                              : 3      Depth
GR          .API                            : 4      GR
CALIPER     .m                              : 5      Cal
VP          .km/s                           : 6      Vp
VS          .km/s                           : 7      Vs
RHO         .g/cm3                          : 8      Rho
Porosidade  .fract                          : 9      Por
Argilosidade.fract                          : 10     Volume
Saturacao   .fract                          : 11     Sat
#
#----------------------------------------------------------------------------
~A          Depth_TVDkb Depth_MD    GR          CALIPER     VP          VS          RHO         Porosidade  Argilosidade Saturacao   
# ...
3091.2      3116.2      3116.2      101.7513    0.327       2.5979      1.2573      2.2378      0.0797      0.6956      1.0         
3091.4      3116.4      3116.4      102.3445    0.3271      2.5993      1.2611      2.2209      0.1309      0.5896      1.0         
3091.6      3116.6      3116.6      100.1946    0.3268      2.612       1.2648      2.1832      0.1966      0.4239      0.8848      
3091.8      3116.8      3116.8      96.6721     0.3265      2.6156      1.2721      2.13        0.2623      0.2581      0.7695      
3092.0      3117.0      3117.0      94.4951     0.3262      2.6194      1.2848      2.1013      0.328       0.0924      0.6543      
3092.2      3117.2      3117.2      93.788      0.327       2.617       1.2996      2.1193      0.2419      0.3184      0.8271      
3092.4      3117.4      3117.4      93.6124     0.3278      2.6002      1.3077      2.153       0.1557      0.5444      1.0         
3092.6      3117.6      3117.6      93.4681     0.328       2.5952      1.3077      2.1672      0.1501      0.5737      1.0         
3092.8      3117.8      3117.8      92.6049     0.3283      2.5772      1.3063      2.1519      0.1444      0.6031      1.0         
3093.0      3118.0      3118.0      93.455      0.3285      2.58        1.3142      2.1427      0.1388      0.6324      1.0         
3093.2      3118.2      3118.2      100.4963    0.3283      2.6223      1.3281      2.1518      0.0729      0.7874      1.0         
3093.4      3118.4      3118.4      106.7507    0.3281      2.7155      1.3387      2.1767      0.0071      0.9424      1.0         
3093.6      3118.6      3118.6      106.4593    0.3275      2.8126      1.3393      2.2048      0.1025      0.6695      0.9279      
3093.8      3118.8      3118.8      103.3732    0.3269      2.8752      1.3383      2.2162      0.1979      0.3967      0.8558      
3094.0      3119.0      3119.0      101.6614    0.3262      2.9021      1.3413      2.1878      0.2932      0.1239      0.7837      
3094.2      3119.2      3119.2      99.4786     0.3283      2.8725      1.3441      2.1565      0.3065      0.0863      0.7663      
3094.4      3119.4      3119.4      98.0342     0.3303      2.7982      1.3372      2.1459      0.3197      0.0486      0.7488      
3094.6      3119.6      3119.6      98.4479     0.3315      2.7281      1.3199      2.1519      0.3061      0.0764      0.7919      
3094.8      3119.8      3119.8      99.4049     0.3328      2.7         1.3009      2.1739      0.2925      0.1042      0.8351      
3095.0      3120.0      3120.0      99.9153     0.334       2.6895      1.2909      2.1861      0.2789      0.132       0.8782      
3095.2      3120.2      3120.2      99.8126     0.3325      2.6834      1.2928      2.1741      0.2885      0.1284      0.8454      
3095.4      3120.4      3120.4      98.8066     0.3309      2.7051      1.3069      2.1549      0.2981      0.1249      0.8126      
3095.6      3120.6      3120.6      96.4511     0.3296      2.7737      1.3318      2.1488      0.2661      0.1426      0.8751      
3095.8      3120.8      3120.8      93.3819     0.3283      2.8522      1.3645      2.1688      0.2341      0.1604      0.9375      
3096.0      3121.0      3121.0      90.9341     0.327       2.9166      1.4036      2.2203      0.2021      0.1782      1.0         
3096.2      3121.2      3121.2      89.2875     0.3276      2.9798      1.4457      2.2671      0.2284      0.1021      0.9504      
3096.4      3121.4      3121.4      87.9987     0.3281      3.0058      1.4794      2.2765      0.2546      0.0261      0.9009      
3096.6      3121.6      3121.6      86.76       0.3287      2.9902      1.4933      2.2592      0.2561      0.0174      0.8957      
3096.8      3121.8      3121.8      85.1918     0.3292      2.976       1.4845      2.2451      0.2575      0.0087      0.8905      
3097.0      3122.0      3122.0      84.4652     0.3297      2.9735      1.4731      2.2498      0.259       0.0         0.8853      
3097.2      3122.2      3122.2      85.2169     0.3297      2.9804      1.4677      2.2609      0.2593      0.0         0.8896      
3097.4      3122.4      3122.4      86.0655     0.3296      3.0011      1.4656      2.2665      0.2595      0.0         0.8938      
3097.6      3122.6      3122.6      85.7955     0.3294      3.0298      1.4594      2.2621      0.2509      0.0462      0.9115      
3097.8      3122.8      3122.8      84.4274     0.3292      3.0464      1.4484      2.2494      0.2423      0.0925      0.9291      
3098.0      3123.0      3123.0      84.4961     0.329       3.0352      1.4358      2.2394      0.2337      0.1387      0.9467      
3098.2      3123.2      3123.2      89.2323     0.3286      3.002       1.4265      2.2383      0.2507      0.083       0.8998      
3098.4      3123.4      3123.4      93.7764     0.3281      2.9672      1.4207      2.2392      0.2678      0.0273      0.8528      
3098.6      3123.6      3123.6      93.1591     0.328       2.9477      1.4158      2.239       0.2715      0.0206      0.8448      
3098.8      3123.8      3123.8      90.9605     0.3279      2.9437      1.4084      2.2394      0.2753      0.0138      0.8369      
3099.0      3124.0      3124.0      89.4634     0.3277      2.9368      1.4001      2.2369      0.2791      0.0071      0.8289      
3099.2      3124.2      3124.2      86.8175     0.3288      2.9252      1.3942      2.2314      0.2757      0.0036      0.8359      
3099.4      3124.4      3124.4      85.3883     0.3299      2.9182      1.3925      2.2316      0.2723      0.0         0.843       
3099.6      3124.6      3124.6      86.6915     0.3297      2.8986      1.3928      2.2398      0.2716      0.0         0.8447      
3099.8      3124.8      3124.8      89.6017     0.3295      2.8725      1.3924      2.2451      0.2709      0.0         0.8464      
3100.0      3125.0      3125.0      91.2624     0.3293      2.8691      1.3868      2.2425      0.2702      0.0         0.8481      
3100.2      3125.2      3125.2      90.881      0.3287      2.8946      1.3774      2.2442      0.2626      0.0         0.88        
3100.4      3125.4      3125.4      89.9667     0.328       2.9296      1.3694      2.2546      0.2551      0.0         0.9119      
3100.6      3125.6      3125.6      90.3591     0.3279      2.9544      1.3706      2.2685      0.2536      0.0         0.9179      
3100.8      3125.8      3125.8      91.2749     0.3278      2.9778      1.3824      2.2799      0.2521      0.0         0.9239      
3101.0      3126.0      3126.0      91.8024     0.3276      3.0055      1.3963      2.2804      0.2506      0.0         0.9299      
3101.2      3126.2      3126.2      92.1797     0.3282      3.0246      1.4004      2.2709      0.2572      0.0         0.9101      
3101.4      3126.4      3126.4      92.2038     0.3287      3.0316      1.39        2.2598      0.2638      0.0         0.8903      
3101.6      3126.6      3126.6      91.7283     0.329       3.0225      1.3718      2.2521      0.2672      0.0         0.8779      
3101.8      3126.8      3126.8      90.8723     0.3293      3.007       1.3542      2.2481      0.2706      0.0         0.8655      
3102.0      3127.0      3127.0      90.589      0.3295      2.9975      1.3445      2.2432      0.274       0.0         0.8531      
3102.2      3127.2      3127.2      91.5212     0.3298      2.9934      1.3427      2.2421      0.2748      0.0         0.8466      
3102.4      3127.4      3127.4      92.6802     0.33        2.9971      1.3475      2.2414      0.2757      0.0         0.84        
3102.6      3127.6      3127.6      93.0031     0.3296      3.0027      1.3569      2.2355      0.2719      0.0         0.8505      
3102.8      3127.8      3127.8      93.0746     0.3292      2.9979      1.3659      2.2352      0.268       0.0         0.8609      
3103.0      3128.0      3128.0      93.3065     0.3287      2.9887      1.371       2.2443      0.2641      0.0         0.8714      
3103.2      3128.2      3128.2      93.8037     0.3275      2.9834      1.3713      2.2565      0.2517      0.0328      0.9056      
