#----------------------------------------------------------------------------
~VERSION INFORMATION
VERS.            2.0                  :CWLS LOG ASCII STANDARD -VERSION 2.0
WRAP.            NO                   :ONE LINE PER DEPTH STEP
#
#--------------------------------------------------------------------
~WELL INFORMATION
#MNEM .UNIT      DATA                 :DESCRIPTION OF MNEMONIC
#----------      ------------         -------------------------------
STRT  .m         2796.1109            :START DEPTH
STEP  .m         0.2                  :STEP DEPTH
STOP  .m         3026.1109            :STOP DEPTH
NULL  .          -999.25              :NULL VALUE
COMP  .          	              :COMPANY
WELL  .                               :WELL
LOC   .                               :LOCATION - AREA
FLD   .                               :FIELD
CTRY  .                               :COUNTRY
DATE  .                               :WELL DATE
UWI   .          	              :UWI
ZSTK  .          TVDss                :Z-STICK
XWELL .m                              :X POS
YWELL .m                              :Y POS
EDF   .          30.0                 :DERRICK FLOOR ELEVATION
#
#----------------------------------------------------------------------------
~CURVE INFORMATION
#MNEM.UNIT                                  : CURVE DESCRIPTION
#----------                                 -------------------------------
DEPT        .m                              : 1      DEPTH
MD          .m                              : 2      Depth
Depth_TVDkb .m                              : 3      Depth
COTA        .m                              : 4      Depth
GR          .API                            : 5      GR
CALIPER     .m                              : 6      Cal
VP          .km/s                           : 7      Vp
VS          .km/s                           : 8      Vs
RHO         .g/cm3                          : 9      Rho
Porosidade  .fract                          : 10     Por
Argilosidade.fract                          : 11     Volume
Saturacao   .fract                          : 12     Sat
#
#----------------------------------------------------------------------------
~A          MD          Depth_TVDkb COTA        GR          CALIPER     VP          VS          RHO         Porosidade  Argilosidade Saturacao   
# ...
2986.5109   3026.4337   3016.5109   -2996.4337  96.7057     0.3148      2.5758      1.26        2.2556      0.159       0.3516      0.1027      
2986.7109   3026.6088   3016.7109   -2996.6088  97.8783     0.3133      2.5489      1.2351      2.2463      0.169       0.3341      0.1031      
2986.9109   3026.784    3016.9109   -2996.784   97.7454     0.3133      2.5283      1.2134      2.2393      0.1714      0.3382      0.1025      
2987.1109   3026.9592   3017.1109   -2996.9592  95.6152     0.3134      2.5174      1.198       2.2346      0.1736      0.3409      0.1021      
2987.3109   3027.1342   3017.3109   -2997.1342  98.4266     0.3131      2.5092      1.1921      2.2321      0.1769      0.3299      0.1041      
2987.5109   3027.3093   3017.5109   -2997.3093  98.1993     0.313       2.4986      1.193       2.2298      0.182       0.3102      0.1077      
2987.7109   3027.4844   3017.7109   -2997.4844  96.0396     0.3134      2.4857      1.1984      2.2241      0.1954      0.2696      0.1156      
2987.9109   3027.6594   3017.9109   -2997.6594  95.5001     0.3137      2.4731      1.2052      2.2191      0.2012      0.253       0.1187      
2988.1109   3027.8343   3018.1109   -2997.8343  93.5709     0.3137      2.4619      1.2111      2.2191      0.1919      0.2926      0.1068      
2988.3109   3028.0093   3018.3109   -2998.0093  92.4188     0.3137      2.4507      1.2136      2.2227      0.1877      0.3099      0.1017      
2988.5109   3028.1842   3018.5109   -2998.1842  90.9146     0.3135      2.4396      1.2124      2.2311      0.1925      0.2751      0.1122      
2988.7109   3028.3591   3018.7109   -2998.3591  91.2773     0.3132      2.4297      1.2066      2.2325      0.1946      0.2608      0.1164      
2988.9109   3028.534    3018.9109   -2998.534   92.2154     0.3131      2.4261      1.2015      2.2252      0.193       0.2756      0.1116      
2989.1109   3028.7088   3019.1109   -2998.7088  93.2682     0.3131      2.432       1.2013      2.2236      0.1881      0.2995      0.1059      
2989.3109   3028.8837   3019.3109   -2998.8837  95.5283     0.3132      2.4542      1.2042      2.2346      0.1686      0.3413      0.0997      
2989.5109   3029.0584   3019.5109   -2999.0584  95.3966     0.3132      2.481       1.2072      2.2437      0.1628      0.3524      0.0982      
2989.7109   3029.2332   3019.7109   -2999.2332  96.2847     0.3132      2.4913      1.2088      2.2415      0.1691      0.3398      0.1003      
2989.9109   3029.4079   3019.9109   -2999.4079  97.0018     0.3132      2.4781      1.2103      2.2337      0.1818      0.3078      0.1061      
2990.1109   3029.5826   3020.1109   -2999.5826  104.9379    0.3132      2.4532      1.2106      2.2243      0.2086      0.2238      0.1218      
2990.3109   3029.7573   3020.3109   -2999.7573  106.1154    0.3132      2.4553      1.2092      2.2189      0.207       0.2275      0.1212      
2990.5109   3029.9319   3020.5109   -2999.9319  101.5481    0.3134      2.4785      1.2063      2.2259      0.1679      0.3454      0.0998      
2990.7109   3030.1065   3020.7109   -3000.1065  96.1817     0.3135      2.5147      1.2062      2.2473      0.1597      0.3644      0.0968      
2990.9109   3030.2812   3020.9109   -3000.2812  95.1543     0.3134      2.5528      1.2125      2.2553      0.1622      0.3323      0.1041      
2991.1109   3030.4557   3021.1109   -3000.4557  95.0175     0.3135      2.5767      1.2282      2.2569      0.1621      0.3226      0.105       
2991.3109   3030.6302   3021.3109   -3000.6302  99.1991     0.3137      2.588       1.247       2.261       0.16        0.3205      0.1034      
2991.5109   3030.8047   3021.5109   -3000.8047  98.2432     0.3137      2.5902      1.2616      2.2604      0.1661      0.3024      0.1074      
2991.7109   3030.9792   3021.7109   -3000.9792  101.5138    0.3135      2.5931      1.2645      2.2519      0.1859      0.2576      0.1209      
2991.9109   3031.1536   3021.9109   -3001.1536  102.2396    0.3134      2.6069      1.2615      2.242       0.1883      0.2567      0.1219      
2992.1109   3031.328    3022.1109   -3001.328   93.0899     0.3134      2.6108      1.2543      2.2331      0.1873      0.2787      0.1184      
2992.3109   3031.5024   3022.3109   -3001.5024  92.946      0.3132      2.5919      1.2519      2.2344      0.1773      0.3304      0.111       
2992.5109   3031.6768   3022.5109   -3001.6768  92.4545     0.3129      2.5519      1.2506      2.242       0.1534      0.406       0.1006      
2992.7109   3031.8511   3022.7109   -3001.8511  95.6222     0.3125      2.5259      1.2454      2.2427      0.1444      0.4098      0.1031      
2992.9109   3032.0253   3022.9109   -3002.0253  94.0496     0.3123      2.5041      1.2331      2.2489      0.14        0.4056      0.1101      
2993.1109   3032.1996   3023.1109   -3002.1996  92.3117     0.3122      2.4753      1.2204      2.2526      0.1408      0.4209      0.1044      
2993.3109   3032.3739   3023.3109   -3002.3739  96.7216     0.3122      2.4477      1.2139      2.2427      0.1445      0.4502      0.093       
2993.5109   3032.5481   3023.5109   -3002.5481  102.9       0.3122      2.4382      1.2131      2.2335      0.1563      0.412       0.0962      
2993.7109   3032.7222   3023.7109   -3002.7222  101.6675    0.3122      2.4456      1.2145      2.2353      0.1708      0.3407      0.105       
2993.9109   3032.8964   3023.9109   -3002.8964  97.7146     0.3122      2.4719      1.2153      2.2459      0.1691      0.3282      0.1111      
2994.1109   3033.0706   3024.1109   -3003.0706  94.2353     0.312       2.4839      1.2137      2.2579      0.1661      0.32        0.1171      
2994.3109   3033.2447   3024.3109   -3003.2447  91.8138     0.3119      2.4795      1.2068      2.2518      0.1826      0.2824      0.126       
2994.5109   3033.4187   3024.5109   -3003.4187  92.9432     0.3119      2.4646      1.196       2.2252      0.2038      0.245       0.1325      
2994.7109   3033.5927   3024.7109   -3003.5927  96.4042     0.3119      2.4514      1.1841      2.2186      0.2009      0.2492      0.1281      
2994.9109   3033.7668   3024.9109   -3003.7668  95.4533     0.312       2.4403      1.1739      2.2216      0.1976      0.2587      0.1211      
2995.1109   3033.9407   3025.1109   -3003.9407  91.8115     0.3124      2.4291      1.1698      2.2208      0.199       0.2743      0.1166      
2995.3109   3034.1146   3025.3109   -3004.1146  93.9123     0.3128      2.4226      1.171       2.2141      0.2005      0.2849      0.1144      
2995.5109   3034.2886   3025.5109   -3004.2886  89.4715     0.313       2.427       1.1772      2.2135      0.2007      0.2633      0.1198      
2995.7109   3034.4626   3025.7109   -3004.4626  88.8223     0.3131      2.4458      1.1849      2.2205      0.201       0.2434      0.1285      
2995.9109   3034.6364   3025.9109   -3004.6364  93.76       0.3128      2.461       1.1886      2.2228      0.2043      0.2418      0.1382      
2996.1109   3034.8102   3026.1109   -3004.8102  98.8622     0.3124      2.4594      1.188       2.2166      0.2089      0.2415      0.1429      
2996.3109   3034.984    3026.3109   -3004.984   97.4865     0.3119      2.4399      1.184       2.2036      0.2144      0.253       0.139       
2996.5109   3035.1578   3026.5109   -3005.1578  92.9371     0.3115      2.4206      1.1779      2.1931      0.2168      0.2692      0.1351      
2996.7109   3035.3315   3026.7109   -3005.3315  90.7205     0.3114      2.4203      1.1709      2.1916      0.2109      0.2819      0.1339      
2996.9109   3035.5052   3026.9109   -3005.5052  89.0645     0.3116      2.4321      1.1642      2.1994      0.1999      0.3047      0.1317      
2997.1109   3035.679    3027.1109   -3005.679   90.1491     0.3118      2.4397      1.1598      2.2128      0.1749      0.3855      0.1201      
2997.3109   3035.8527   3027.3109   -3005.8527  87.6193     0.3119      2.4387      1.1592      2.2156      0.1658      0.4153      0.1157      
2997.5109   3036.0262   3027.5109   -3006.0262  90.3163     0.3117      2.4384      1.1602      2.2151      0.1941      0.3011      0.1331      
