#----------------------------------------------------------------------------
~VERSION INFORMATION
VERS.            2.0                  :CWLS LOG ASCII STANDARD -VERSION 2.0
WRAP.            NO                   :ONE LINE PER DEPTH STEP
#
#--------------------------------------------------------------------
~WELL INFORMATION
#MNEM .UNIT      DATA                 :DESCRIPTION OF MNEMONIC
#----------      ------------         -------------------------------
STRT  .m         3166.0               :START DEPTH
STEP  .m         0.2                  :STEP DEPTH
STOP  .m         3406.0               :STOP DEPTH
NULL  .          -999.25              :NULL VALUE
COMP  .          	              :COMPANY
WELL  .                               :WELL
LOC   .                               :LOCATION - AREA
FLD   .                               :FIELD
CTRY  .                               :COUNTRY
DATE  .                               :WELL DATE
UWI   .          	              :UWI
ZSTK  .          TVDss                :Z-STICK
XWELL .m         		      :X POS
YWELL .m         	              :Y POS
EDF   .          24.0                 :DERRICK FLOOR ELEVATION
#
#----------------------------------------------------------------------------
~CURVE INFORMATION
#MNEM.UNIT                                  : CURVE DESCRIPTION
#----------                                 -------------------------------
DEPT        .m                              : 1      DEPTH
MD          .m                              : 2      Depth
GR          .API                            : 3      GR
CALIPER     .m                              : 4      Cal
VP          .km/s                           : 5      Vp
VS          .km/s                           : 6      Vs
RHO         .g/cm3                          : 7      Rho
Porosidade  .fract                          : 8      Por
Argilosidade.fract                          : 9      Volume
Saturacao   .fract                          : 10     Sat
#
#----------------------------------------------------------------------------
~A          MD          GR          CALIPER     VP          VS          RHO         Porosidade  Argilosidade Saturacao   
# ...
3367.0      3391.0      92.2593     0.3188      2.7011      1.1213      2.3504      0.0         0.9896      1.0         
3367.2      3391.2      98.7354     0.3189      2.7183      1.1289      2.3474      0.0         1.0         0.9997      
3367.4      3391.4      104.4919    0.319       2.7294      1.1349      2.3297      1.0E-4      0.9569      1.0         
3367.6      3391.6      103.9153    0.3192      2.7326      1.1403      2.3335      0.0         0.9282      1.0         
3367.8      3391.8      103.5204    0.3193      2.7308      1.1472      2.3475      4.0E-4      0.9774      0.9999      
3368.0      3392.0      103.6754    0.3192      2.7291      1.1561      2.3412      6.0E-4      0.9778      1.0         
3368.2      3392.2      100.8915    0.3197      2.7314      1.1657      2.307       0.0354      0.8127      0.9957      
3368.4      3392.4      96.7244     0.321       2.7391      1.1736      2.2501      0.0991      0.674       0.9628      
3368.6      3392.6      94.4499     0.3225      2.7489      1.1773      2.1996      0.1569      0.5621      0.8161      
3368.8      3392.8      95.934      0.3239      2.7559      1.1766      2.1994      0.1835      0.4638      0.7661      
3369.0      3393.0      97.8537     0.3248      2.7575      1.1726      2.2409      0.1398      0.5168      0.9246      
3369.2      3393.2      98.3419     0.3254      2.7535      1.1669      2.274       0.0557      0.7858      0.9962      
3369.4      3393.4      101.6275    0.324       2.7459      1.162       2.2877      0.0049      0.9796      0.9999      
3369.6      3393.6      102.404     0.3225      2.7403      1.1598      2.3048      0.0         1.0         1.0         
3369.8      3393.8      101.0764    0.321       2.7412      1.1607      2.3279      9.0E-4      0.9956      0.9997      
3370.0      3394.0      102.2616    0.3184      2.7524      1.1662      2.3361      0.0         0.9808      1.0         
3370.2      3394.2      102.1795    0.318       2.7725      1.1751      2.3288      0.0019      0.8724      1.0         
3370.4      3394.4      101.9117    0.321       2.7971      1.1867      2.3314      0.0015      0.8813      0.982       
3370.6      3394.6      101.5749    0.3274      2.8207      1.1991      2.3471      0.0044      0.9048      0.9627      
3370.8      3394.8      100.5853    0.331       2.8401      1.211       2.3521      0.0103      0.7788      0.9935      
3371.0      3395.0      100.2136    0.3268      2.8543      1.2213      2.3492      0.0085      0.8223      0.988       
3371.2      3395.2      99.8176     0.3206      2.8628      1.2286      2.3523      0.001       0.9432      0.9738      
3371.4      3395.4      100.8455    0.3189      2.8637      1.2315      2.3413      0.0016      0.9224      0.9953      
3371.6      3395.6      103.2275    0.3192      2.8557      1.2299      2.3068      0.0038      0.906       1.0         
3371.8      3395.8      103.0596    0.3214      2.8382      1.2232      2.2839      0.0415      0.8016      1.0         
3372.0      3396.0      99.2411     0.3237      2.8144      1.2135      2.286       0.0601      0.7326      0.9919      
3372.2      3396.2      96.9049     0.3216      2.7909      1.2032      2.3017      0.0098      0.9555      0.9841      
3372.4      3396.4      100.4319    0.3192      2.775       1.1952      2.3225      0.018       0.885       0.9972      
3372.6      3396.6      106.7156    0.3191      2.7721      1.1911      2.3313      0.0391      0.7533      1.0         
3372.8      3396.8      110.8835    0.319       2.78        1.191       2.3354      0.0065      0.9558      0.9919      
3373.0      3397.0      110.2167    0.3189      2.7944      1.1934      2.355       0.0         1.0         0.9698      
3373.2      3397.2      108.1503    0.3182      2.8054      1.1959      2.3644      2.0E-4      0.9756      0.9734      
3373.4      3397.4      104.4049    0.3172      2.8059      1.197       2.3431      0.0089      0.8346      0.9961      
3373.6      3397.6      101.1263    0.318       2.7945      1.1968      2.3154      0.0427      0.6894      1.0         
3373.8      3397.8      100.2958    0.3182      2.7771      1.1961      2.3074      0.0397      0.7194      1.0         
3374.0      3398.0      99.9721     0.3167      2.7629      1.1958      2.3231      0.0052      0.922       0.9946      
3374.2      3398.2      100.3415    0.316       2.7582      1.1964      2.346       0.0         0.9788      0.9901      
3374.4      3398.4      99.1341     0.3159      2.7621      1.1977      2.3532      3.0E-4      0.8895      0.9982      
3374.6      3398.6      98.1694     0.316       2.7727      1.1986      2.3474      0.0         0.8406      1.0         
3374.8      3398.8      96.792      0.3165      2.7825      1.1982      2.343       2.0E-4      0.8987      0.9833      
3375.0      3399.0      94.0537     0.3168      2.7857      1.1952      2.344       0.0         0.9893      0.9424      
3375.2      3399.2      94.7261     0.3171      2.7826      1.1896      2.3491      2.0E-4      0.9876      0.9515      
3375.4      3399.4      99.635      0.3172      2.7754      1.1829      2.3478      0.0         0.973       0.9935      
3375.6      3399.6      102.3923    0.3169      2.77        1.1773      2.3354      0.0067      0.9271      0.9999      
3375.8      3399.8      100.6739    0.3165      2.7706      1.1737      2.3265      0.0145      0.8197      0.9999      
3376.0      3400.0      98.8373     0.316       2.7774      1.1718      2.3256      0.0072      0.8615      0.9983      
3376.2      3400.2      100.373     0.3158      2.788       1.1706      2.3279      6.0E-4      0.9837      0.9891      
3376.4      3400.4      101.2772    0.3162      2.7968      1.1692      2.3417      1.0E-4      1.0         0.9806      
3376.6      3400.6      97.4508     0.3167      2.7999      1.1676      2.3614      0.0         1.0         0.9754      
3376.8      3400.8      94.8328     0.3168      2.7987      1.1665      2.3653      1.0E-4      0.9998      0.9729      
3377.0      3401.0      98.4045     0.3167      2.7961      1.1667      2.3533      0.0         1.0         0.9745      
3377.2      3401.2      101.7833    0.3182      2.7966      1.1689      2.3446      1.0E-4      0.9996      0.9879      
3377.4      3401.4      102.0191    0.3214      2.8029      1.1734      2.3527      0.0         1.0         0.998       
3377.6      3401.6      103.1588    0.3256      2.8143      1.179       2.3619      2.0E-4      0.9994      0.9945      
3377.8      3401.8      102.6896    0.3303      2.8276      1.1839      2.3457      0.0         1.0         0.9692      
3378.0      3402.0      101.5195    0.3312      2.8399      1.187       2.3316      0.0018      0.9459      0.9672      
3378.2      3402.2      101.9564    0.3305      2.8499      1.1883      2.3487      0.0075      0.8289      0.9949      
3378.4      3402.4      100.3251    0.3302      2.8576      1.1883      2.3526      0.0298      0.767       1.0         
3378.6      3402.6      98.166      0.3265      2.863       1.1874      2.3303      0.0323      0.7528      1.0         
3378.8      3402.8      101.4471    0.3237      2.8659      1.1855      2.3358      0.0048      0.8844      0.9772      
3379.0      3403.0      104.0692    0.3228      2.8653      1.1828      2.3631      0.0         0.991       0.9239      
3379.2      3403.2      100.3306    0.3208      2.8596      1.1789      2.3763      3.0E-4      0.9998      0.92        
3379.4      3403.4      95.3168     0.3192      2.8468      1.1736      2.3848      0.0         1.0         0.9391      
3379.6      3403.6      94.3735     0.3188      2.8272      1.1662      2.389       2.0E-4      0.9999      0.9582      
3379.8      3403.8      97.257      0.3188      2.8019      1.1559      2.3812      0.0         1.0         0.9717      
3380.0      3404.0      99.3456     0.3189      2.7742      1.1433      2.3737      1.0E-4      1.0         0.9871      
3380.2      3404.2      100.0489    0.3189      2.7486      1.1303      2.3677      0.0         0.9999      0.9988      
