#----------------------------------------------------------------------------
~VERSION INFORMATION
VERS.            2.0                  :CWLS LOG ASCII STANDARD -VERSION 2.0
WRAP.            NO                   :ONE LINE PER DEPTH STEP
#
#--------------------------------------------------------------------
~WELL INFORMATION
#MNEM .UNIT      DATA                 :DESCRIPTION OF MNEMONIC
#----------      ------------         -------------------------------
STRT  .m         3166.0               :START DEPTH
STEP  .m         0.2                  :STEP DEPTH
STOP  .m         3406.0               :STOP DEPTH
NULL  .          -999.25              :NULL VALUE
COMP  .          	              :COMPANY
WELL  .                               :WELL
LOC   .                               :LOCATION - AREA
FLD   .                               :FIELD
CTRY  .                               :COUNTRY
DATE  .                               :WELL DATE
UWI   .          	              :UWI
ZSTK  .          TVDss                :Z-STICK
XWELL .m         		      :X POS
YWELL .m         	              :Y POS
EDF   .          24.0                 :DERRICK FLOOR ELEVATION
#
#----------------------------------------------------------------------------
~CURVE INFORMATION
#MNEM.UNIT                                  : CURVE DESCRIPTION
#----------                                 -------------------------------
DEPT        .m                              : 1      DEPTH
MD          .m                              : 2      Depth
GR          .API                            : 3      GR
CALIPER     .m                              : 4      Cal
VP          .km/s                           : 5      Vp
VS          .km/s                           : 6      Vs
RHO         .g/cm3                          : 7      Rho
Porosidade  .fract                          : 8      Por
Argilosidade.fract                          : 9      Volume
Saturacao   .fract                          : 10     Sat
#
#----------------------------------------------------------------------------
~A          MD          GR          CALIPER     VP          VS          RHO         Porosidade  Argilosidade Saturacao   
# ...
3393.8      3417.8      110.9106    0.3158      2.8385      1.1696      2.3741      0.0         1.0         0.9017      
3394.0      3418.0      108.0848    0.3158      2.8338      1.1705      2.3491      0.0         0.9823      0.9233      
3394.2      3418.2      104.0199    0.3158      2.8241      1.1681      2.2978      0.0089      0.916       0.9892      
3394.4      3418.4      103.5713    0.3158      2.8097      1.1633      2.2533      0.0295      0.8651      1.0         
3394.6      3418.6      106.404     0.3153      2.7956      1.1605      2.2598      0.0469      0.7725      0.9996      
3394.8      3418.8      107.8084    0.3138      2.7874      1.1623      2.3086      0.0384      0.7803      1.0         
3395.0      3419.0      106.534     0.3127      2.7889      1.1714      2.3576      0.0056      0.9588      0.9849      
3395.2      3419.2      105.8892    0.3126      2.8004      1.1858      2.3826      0.0         0.999       0.9286      
3395.4      3419.4      106.7209    0.3127      2.8194      1.2017      2.3882      2.0E-4      0.999       0.8865      
3395.6      3419.6      107.1809    0.3126      2.8382      1.2138      2.3907      0.0         1.0         0.8693      
3395.8      3419.8      107.8468    0.3124      2.8503      1.2189      2.39        1.0E-4      1.0         0.8642      
3396.0      3420.0      107.8078    0.3123      2.8536      1.2172      2.3734      0.0         0.9825      0.8899      
3396.2      3420.2      106.0477    0.3125      2.8494      1.2078      2.3489      1.0E-4      0.971       0.9375      
3396.4      3420.4      104.4523    0.3128      2.8385      1.1932      2.3339      0.0         0.9947      0.9506      
3396.6      3420.6      104.4264    0.3126      2.8232      1.1756      2.323       0.0         1.0         0.9614      
3396.8      3420.8      106.7165    0.3124      2.8049      1.1574      2.3097      0.0061      0.9461      0.9831      
3397.0      3421.0      109.072     0.3122      2.7854      1.1412      2.3076      0.0101      0.9222      0.9983      
3397.2      3421.2      111.3014    0.3122      2.7678      1.1286      2.3194      0.002       0.9387      1.0         
3397.4      3421.4      112.9369    0.3122      2.7555      1.1207      2.3285      0.0         0.9201      0.9998      
3397.6      3421.6      113.3901    0.3122      2.7503      1.118       2.332       1.0E-4      0.9512      1.0         
3397.8      3421.8      112.7749    0.3122      2.7509      1.1194      2.3382      0.0         0.9957      0.9999      
3398.0      3422.0      111.0892    0.3123      2.7541      1.1244      2.34        7.0E-4      0.964       1.0         
3398.2      3422.2      110.2524    0.3124      2.7559      1.1324      2.3299      0.0083      0.8538      0.9999      
3398.4      3422.4      111.2798    0.3125      2.7552      1.1426      2.3209      0.0099      0.8704      1.0         
3398.6      3422.6      112.4742    0.3127      2.7543      1.1549      2.3233      0.0017      0.9819      0.9999      
3398.8      3422.8      113.1571    0.3127      2.7568      1.1682      2.3291      0.0         0.9995      1.0         
3399.0      3423.0      112.8271    0.3126      2.7674      1.181       2.3319      0.0         0.9999      0.9999      
3399.2      3423.2      110.5772    0.3126      2.7863      1.1923      2.3344      0.0         0.9956      1.0         
3399.4      3423.4      105.9159    0.3127      2.8088      1.2007      2.3416      0.0         0.9758      0.9971      
3399.6      3423.6      99.7892     0.3127      2.8262      1.2043      2.3564      0.0         0.9761      0.9664      
3399.8      3423.8      98.4372     0.3127      2.8319      1.2029      2.3645      0.0         0.9966      0.9611      
3400.0      3424.0      101.727     0.3126      2.8258      1.1958      2.3522      0.0         0.9999      0.9936      
3400.2      3424.2      101.8032    0.312       2.8094      1.186       2.3336      0.0         1.0         0.9999      
3400.4      3424.4      102.3081    0.3108      2.7911      1.1773      2.3295      0.0         1.0         0.9998      
3400.6      3424.6      104.0058    0.3099      2.7781      1.1728      2.3335      0.0         0.9596      1.0         
3400.8      3424.8      104.0721    0.3097      2.7736      1.1736      2.3398      0.0         0.9463      0.9999      
3401.0      3425.0      105.3095    0.3097      2.7765      1.1794      2.3508      0.0         0.9392      1.0         
3401.2      3425.2      104.3387    0.3096      2.7856      1.189       2.3543      0.0         0.9271      1.0         
3401.4      3425.4      102.0569    0.3097      2.7979      1.1998      2.3474      0.0         0.967       1.0         
3401.6      3425.6      99.0484     0.3097      2.811       1.2087      2.3481      0.0         0.9852      0.9776      
3401.8      3425.8      94.9973     0.3096      2.8229      1.2129      2.3624      0.0         0.9773      0.9659      
3402.0      3426.0      95.626      0.3094      2.8307      1.2113      2.3778      0.0         0.9212      0.993       
3402.2      3426.2      99.3176     0.3093      2.8325      1.2039      2.374       0.0         0.927       0.9999      
3402.4      3426.4      102.0214    0.3093      2.8286      1.1924      2.3443      0.0         0.9897      0.9998      
3402.6      3426.6      102.9717    0.3094      2.8202      1.1806      2.3223      0.0         0.9993      1.0         
3402.8      3426.8      104.051     0.3092      2.8114      1.1722      2.3325      0.0         1.0         0.9999      
3403.0      3427.0      104.0597    0.3089      2.8067      1.1692      2.3498      0.0         0.9997      1.0         
3403.2      3427.2      100.6914    0.3088      2.8074      1.171       2.35        0.0         1.0         0.9974      
3403.4      3427.4      100.57      0.3088      2.8135      1.1773      2.3438      0.0         1.0         0.9846      
3403.6      3427.6      102.6225    0.3088      2.8236      1.1857      2.339       0.0         0.9339      0.9858      
3403.8      3427.8      101.7028    0.3087      2.8355      1.194       2.3385      0.0         0.8984      0.987       
3404.0      3428.0      100.9031    0.3088      2.848       1.2006      2.3488      0.0         0.9787      0.9513      
3404.2      3428.2      100.3472    0.309       2.8599      1.2055      2.3609      0.0         0.9847      0.9437      
3404.4      3428.4      98.5154     0.3092      2.8696      1.209       2.3644      0.0         0.9759      0.9411      
3404.6      3428.6      98.6174     0.3093      2.875       1.2123      2.3675      0.0         0.9955      0.9137      
3404.8      3428.8      98.9262     0.3093      2.8757      1.2158      2.3758      0.0         0.9995      0.9098      
3405.0      3429.0      98.3714     0.3092      2.8724      1.2196      2.3828      0.0         1.0         0.9251      
3405.2      3429.2      100.1628    0.3091      2.8668      1.2232      2.3856      0.0         1.0         0.9331      
3405.4      3429.4      102.1457    0.3091      2.8608      1.2259      2.3849      0.0         0.9659      0.953       
3405.6      3429.6      101.2113    0.3092      2.855       1.2273      2.3824      0.0         0.9087      0.9915      
3405.8      3429.8      100.6719    0.3092      2.8488      1.2273      2.3829      0.0         0.9356      0.9767      
3406.0      3430.0      97.4576     0.3092      2.8416      1.2258      2.3833      0.0         0.9719      0.9593      
