#----------------------------------------------------------------------------
~VERSION INFORMATION
VERS.            2.0                  :CWLS LOG ASCII STANDARD -VERSION 2.0
WRAP.            NO                   :ONE LINE PER DEPTH STEP
#
#--------------------------------------------------------------------
~WELL INFORMATION
#MNEM .UNIT      DATA                 :DESCRIPTION OF MNEMONIC
#----------      ------------         -------------------------------
STRT  .m         2775.191             :START DEPTH
STEP  .m         0.2                  :STEP DEPTH
STOP  .m         3093.191             :STOP DEPTH
NULL  .          -999.25              :NULL VALUE
COMP  .                               :COMPANY
WELL  .                               :WELL
LOC   .                               :LOCATION - AREA
FLD   .                               :FIELD
CTRY  .                               :COUNTRY
DATE  .                               :WELL DATE
UWI   .                               :UWI
ZSTK  .          TVDss                :Z-STICK
XWELL .m         	              :X POS
YWELL .m         	              :Y POS
EDF   .          24.0                 :DERRICK FLOOR ELEVATION
#
#----------------------------------------------------------------------------
~CURVE INFORMATION
#MNEM.UNIT                                  : CURVE DESCRIPTION
#----------                                 -------------------------------
DEPT        .m                              : 1      DEPTH
COTA        .m                              : 2      Depth
Depth_TVDkb .m                              : 3      Depth
TVD         .m                              : 4      Depth
GR          .API                            : 5      GR
CALIPER     .m                              : 6      Cal
VP          .km/s                           : 7      Vp
VS          .km/s                           : 8      Vs
RHO         .g/cm3                          : 9      Rho
Porosidade  .fract                          : 10     Por
Argilosidade.fract                          : 11     Volume
Saturacao   .fract                          : 12     Sat
#
#----------------------------------------------------------------------------
~A          COTA        Depth_TVDkb TVD         GR          CALIPER     VP          VS          RHO         Porosidade  Argilosidade Saturacao   
# ...
3032.791    -3032.9445  3056.791    3056.9445   84.7832     0.3314      2.6364      1.1642      2.3257      0.0         1.0         0.9449      
3032.991    -3033.1454  3056.991    3057.1454   83.6236     0.332       2.6393      1.1509      2.3295      0.0435      0.8849      0.9613      
3033.191    -3033.3464  3057.191    3057.3464   85.5774     0.3321      2.612       1.1095      2.306       0.0929      0.7541      0.9781      
3033.391    -3033.5475  3057.391    3057.5475   104.0305    0.3332      2.5782      1.0553      2.2167      0.1442      0.6184      0.9956      
3033.591    -3033.7485  3057.591    3057.7485   110.2156    0.3356      2.5864      1.0272      2.1489      0.0746      0.8026      0.9582      
3033.791    -3033.9494  3057.791    3057.9494   96.6764     0.3347      2.637       1.0446      2.2278      0.0         0.9999      0.9182      
3033.991    -3034.1504  3057.991    3058.1504   81.3753     0.3312      2.7059      1.0975      2.3281      0.0         1.0         0.9068      
3034.191    -3034.3514  3058.191    3058.3514   77.5615     0.3304      2.7954      1.1864      2.3495      0.0         1.0         0.8955      
3034.391    -3034.5524  3058.391    3058.5524   79.6922     0.3312      2.8423      1.2546      2.344       0.0         1.0         0.8849      
3034.591    -3034.7533  3058.591    3058.7533   81.2936     0.3314      2.858       1.2899      2.3337      0.0         1.0         0.9244      
3034.791    -3034.9542  3058.791    3058.9542   82.3444     0.3316      2.7923      1.2718      2.3277      0.0         1.0         0.9589      
3034.991    -3035.1551  3058.991    3059.1551   84.7654     0.3321      2.7565      1.2546      2.3203      0.0         1.0         0.9507      
3035.191    -3035.3561  3059.191    3059.3561   84.3432     0.3336      2.7236      1.2368      2.302       0.0         1.0         0.943       
3035.391    -3035.557   3059.391    3059.557    82.0388     0.3356      2.7516      1.2414      2.2972      0.0         1.0         0.9364      
3035.591    -3035.7579  3059.591    3059.7579   78.3257     0.3349      2.7557      1.2356      2.3131      0.0         1.0         0.9359      
3035.791    -3035.9588  3059.791    3059.9588   77.9979     0.3323      2.7737      1.2414      2.3361      0.0         1.0         0.9353      
3035.991    -3036.1597  3059.991    3060.1597   83.4304     0.3311      2.7653      1.2397      2.3521      0.0         1.0         0.9329      
3036.191    -3036.3606  3060.191    3060.3606   85.5315     0.3316      2.75        1.2422      2.356       0.0         1.0         0.9304      
3036.391    -3036.5615  3060.391    3060.5615   85.7624     0.3319      2.7217      1.2284      2.3504      0.0         1.0         0.9322      
3036.591    -3036.7623  3060.591    3060.7623   85.9101     0.3319      2.7049      1.2064      2.3432      0.0         1.0         0.9752      
3036.791    -3036.9631  3060.791    3060.9631   95.8908     0.3326      2.6333      1.1861      2.3374      0.0         1.0         1.0         
3036.991    -3037.164   3060.991    3061.164    120.6142    0.334       2.6121      1.1665      2.3186      0.0         1.0         1.0         
3037.191    -3037.3649  3061.191    3061.3649   106.1434    0.3343      2.6254      1.1475      2.2924      0.0         1.0         1.0         
3037.391    -3037.5657  3061.391    3061.5657   85.872      0.333       2.6567      1.1291      2.289       0.0         1.0         1.0         
3037.591    -3037.7665  3061.591    3061.7665   87.0336     0.3317      2.6699      1.1113      2.3037      0.0         1.0         1.0         
3037.791    -3037.9673  3061.791    3061.9673   97.9647     0.3319      2.628       1.0932      2.2987      0.0         1.0         1.0         
3037.991    -3038.1681  3061.991    3062.1681   106.6224    0.3335      2.5853      1.0806      2.2616      0.0         1.0         1.0         
3038.191    -3038.369   3062.191    3062.369    108.0419    0.3349      2.5792      1.0814      2.2571      0.0         1.0         1.0         
3038.391    -3038.5697  3062.391    3062.5697   97.4578     0.3344      2.6234      1.1066      2.2898      0.0         1.0         1.0         
3038.591    -3038.7705  3062.591    3062.7705   91.3025     0.3342      2.7013      1.1503      2.2986      0.0         1.0         1.0         
3038.791    -3038.9713  3062.791    3062.9713   82.0451     0.335       2.7308      1.1811      2.2952      0.0         1.0         0.9996      
3038.991    -3039.1721  3062.991    3063.1721   80.1753     0.3348      2.7317      1.2024      2.291       0.0         1.0         0.9981      
3039.191    -3039.3728  3063.191    3063.3728   85.33       0.3342      2.7295      1.2179      2.2848      0.0         1.0         0.9969      
3039.391    -3039.5736  3063.391    3063.5736   91.6405     0.3342      2.7329      1.2224      2.29        0.0         1.0         0.9674      
3039.591    -3039.7743  3063.591    3063.7743   93.074      0.332       2.7776      1.2319      2.3073      0.0         1.0         0.8801      
3039.791    -3039.9751  3063.791    3063.9751   86.3275     0.3284      2.8655      1.2549      2.3187      0.0         1.0         0.8803      
3039.991    -3040.1758  3063.991    3064.1758   84.668      0.327       2.8659      1.2508      2.3179      0.0         1.0         0.9334      
3040.191    -3040.3765  3064.191    3064.3765   104.5843    0.3274      2.8341      1.2468      2.3007      0.0         1.0         0.9884      
3040.391    -3040.5772  3064.391    3064.5772   104.3009    0.328       2.8322      1.2578      2.3021      0.0         1.0         0.9733      
3040.591    -3040.7779  3064.591    3064.7779   88.0743     0.3285      2.8347      1.2651      2.3327      0.0         1.0         0.9114      
3040.791    -3040.9786  3064.791    3064.9786   84.9941     0.3291      2.8615      1.2795      2.3384      0.0         1.0         0.9153      
3040.991    -3041.1793  3064.991    3065.1793   85.0437     0.3294      2.8618      1.2817      2.3346      0.0         1.0         0.9409      
3041.191    -3041.38    3065.191    3065.38     82.3329     0.3295      2.8293      1.2761      2.3589      0.0         1.0         0.9657      
3041.391    -3041.5807  3065.391    3065.5807   84.4166     0.3294      2.7677      1.2593      2.4062      0.0         0.9623      0.9822      
3041.591    -3041.7813  3065.591    3065.7813   83.5918     0.3293      2.756       1.2553      2.3897      0.0         0.9015      0.9984      
3041.791    -3041.9819  3065.791    3065.9819   83.4813     0.3296      2.7404      1.2402      2.3247      0.0115      0.8539      1.0         
3041.991    -3042.1826  3065.991    3066.1826   87.2927     0.3304      2.6997      1.2075      2.2847      0.0284      0.8087      1.0         
3042.191    -3042.3833  3066.191    3066.3833   89.9283     0.3317      2.6505      1.1744      2.2683      0.0435      0.7663      1.0         
3042.391    -3042.5839  3066.391    3066.5839   88.8803     0.3331      2.6458      1.1681      2.252       0.0878      0.6287      0.9957      
3042.591    -3042.7845  3066.591    3066.7845   92.071      0.3334      2.6228      1.157       2.2416      0.144       0.4524      0.9896      
3042.791    -3042.9851  3066.791    3066.9851   87.8992     0.3336      2.6237      1.1504      2.2243      0.1393      0.4608      0.9924      
3042.991    -3043.1857  3066.991    3067.1857   90.8682     0.3352      2.6634      1.1548      2.2218      0.1311      0.4787      0.9961      
3043.191    -3043.3863  3067.191    3067.3863   92.4443     0.3356      2.6938      1.1541      2.2634      0.1233      0.4953      0.9999      
3043.391    -3043.5869  3067.391    3067.5869   88.7437     0.3353      2.6926      1.1513      2.2427      0.1006      0.6434      1.0         
3043.591    -3043.7875  3067.591    3067.7875   95.6751     0.3367      2.6353      1.133       2.1642      0.0766      0.807       1.0         
3043.791    -3043.9881  3067.791    3067.9881   102.5042    0.3381      2.642       1.146       2.1798      0.051       0.8712      0.9649      
