#----------------------------------------------------------------------------
~VERSION INFORMATION
VERS.            2.0                  :CWLS LOG ASCII STANDARD -VERSION 2.0
WRAP.            NO                   :ONE LINE PER DEPTH STEP
#
#--------------------------------------------------------------------
~WELL INFORMATION
#MNEM .UNIT      DATA                 :DESCRIPTION OF MNEMONIC
#----------      ------------         -------------------------------
STRT  .m         2796.1109            :START DEPTH
STEP  .m         0.2                  :STEP DEPTH
STOP  .m         3026.1109            :STOP DEPTH
NULL  .          -999.25              :NULL VALUE
COMP  .          	              :COMPANY
WELL  .                               :WELL
LOC   .                               :LOCATION - AREA
FLD   .                               :FIELD
CTRY  .                               :COUNTRY
DATE  .                               :WELL DATE
UWI   .          	              :UWI
ZSTK  .          TVDss                :Z-STICK
XWELL .m                              :X POS
YWELL .m                              :Y POS
EDF   .          30.0                 :DERRICK FLOOR ELEVATION
#
#----------------------------------------------------------------------------
~CURVE INFORMATION
#MNEM.UNIT                                  : CURVE DESCRIPTION
#----------                                 -------------------------------
DEPT        .m                              : 1      DEPTH
MD          .m                              : 2      Depth
Depth_TVDkb .m                              : 3      Depth
COTA        .m                              : 4      Depth
GR          .API                            : 5      GR
CALIPER     .m                              : 6      Cal
VP          .km/s                           : 7      Vp
VS          .km/s                           : 8      Vs
RHO         .g/cm3                          : 9      Rho
Porosidade  .fract                          : 10     Por
Argilosidade.fract                          : 11     Volume
Saturacao   .fract                          : 12     Sat
#
#----------------------------------------------------------------------------
~A          MD          Depth_TVDkb COTA        GR          CALIPER     VP          VS          RHO         Porosidade  Argilosidade Saturacao   
# ...
2941.7109   2986.623    2971.7109   -2956.623   105.7879    0.3181      2.453       1.1694      2.1724      0.2555      0.1644      0.1633      
2941.9109   2986.8025   2971.9109   -2956.8025  102.9658    0.3176      2.4228      1.1394      2.1586      0.2643      0.146       0.1652      
2942.1109   2986.982    2972.1109   -2956.982   105.9974    0.3172      2.3943      1.119       2.1589      0.2548      0.1695      0.1576      
2942.3109   2987.1615   2972.3109   -2957.1615  104.0412    0.317       2.3869      1.111       2.1656      0.2454      0.1825      0.1535      
2942.5109   2987.3409   2972.5109   -2957.3409  99.4436     0.317       2.395       1.112       2.1761      0.2402      0.1775      0.158       
2942.7109   2987.5204   2972.7109   -2957.5204  97.6915     0.317       2.4231      1.1212      2.1884      0.2359      0.1769      0.1597      
2942.9109   2987.6998   2972.9109   -2957.6998  98.5181     0.317       2.4484      1.1365      2.1925      0.2315      0.2103      0.1506      
2943.1109   2987.8793   2973.1109   -2957.8793  104.0272    0.317       2.4491      1.1519      2.1878      0.231       0.2223      0.1469      
2943.3109   2988.0587   2973.3109   -2958.0587  105.2903    0.317       2.4308      1.1616      2.1795      0.2424      0.1681      0.1567      
2943.5109   2988.238    2973.5109   -2958.238   106.06      0.317       2.4188      1.1659      2.1847      0.2455      0.1511      0.1597      
2943.7109   2988.4174   2973.7109   -2958.4174  107.3445    0.317       2.4222      1.1705      2.2002      0.221       0.2356      0.1436      
2943.9109   2988.5968   2973.9109   -2958.5968  104.5246    0.317       2.4395      1.18        2.2006      0.2013      0.2955      0.1306      
2944.1109   2988.7762   2974.1109   -2958.7762  111.2032    0.317       2.4608      1.1934      2.1999      0.1896      0.3239      0.1228      
2944.3109   2988.9555   2974.3109   -2958.9555  118.8825    0.317       2.4757      1.2043      2.2087      0.1902      0.3164      0.1232      
2944.5109   2989.1348   2974.5109   -2959.1348  114.3737    0.3169      2.4834      1.2106      2.2109      0.2188      0.2013      0.1431      
2944.7109   2989.3142   2974.7109   -2959.3142  103.5573    0.3169      2.4837      1.2142      2.2075      0.2261      0.1726      0.1476      
2944.9109   2989.4935   2974.9109   -2959.4935  100.513     0.317       2.4753      1.2147      2.2093      0.2079      0.2507      0.1302      
2945.1109   2989.6728   2975.1109   -2959.6728  96.6621     0.3171      2.4547      1.2124      2.208       0.2032      0.2748      0.1256      
2945.3109   2989.852    2975.3109   -2959.852   92.8107     0.3172      2.4336      1.2071      2.1981      0.2098      0.27        0.131       
2945.5109   2990.0313   2975.5109   -2960.0313  92.9227     0.3174      2.4308      1.2026      2.1956      0.2131      0.2637      0.1325      
2945.7109   2990.2105   2975.7109   -2960.2105  100.3144    0.3175      2.4436      1.1978      2.1967      0.2143      0.2552      0.1324      
2945.9109   2990.3898   2975.9109   -2960.3898  102.246     0.3176      2.4708      1.1901      2.1961      0.2123      0.261       0.1309      
2946.1109   2990.569    2976.1109   -2960.569   104.7154    0.3179      2.4928      1.1787      2.1974      0.2012      0.2993      0.1242      
2946.3109   2990.7482   2976.3109   -2960.7482  106.8667    0.3177      2.5004      1.1648      2.1982      0.2035      0.296       0.125       
2946.5109   2990.9274   2976.5109   -2960.9274  102.4709    0.317       2.4943      1.1472      2.192       0.2259      0.2415      0.1358      
2946.7109   2991.1065   2976.7109   -2961.1065  97.1933     0.3167      2.465       1.1256      2.1774      0.2321      0.2364      0.1363      
2946.9109   2991.2858   2976.9109   -2961.2858  93.5023     0.3166      2.4243      1.1044      2.1664      0.2328      0.2622      0.129       
2947.1109   2991.4649   2977.1109   -2961.4649  97.2882     0.3164      2.3908      1.0859      2.1619      0.2395      0.2474      0.1292      
2947.3109   2991.644    2977.3109   -2961.644   94.3031     0.3163      2.3663      1.065       2.1577      0.2586      0.1759      0.1385      
2947.5109   2991.8231   2977.5109   -2961.8231  94.7776     0.3165      2.3469      1.0377      2.1565      0.2436      0.2234      0.163       
2947.7109   2992.0023   2977.7109   -2962.0023  99.3162     0.3167      2.3327      1.0107      2.1655      0.176       0.4547      0.2098      
2947.9109   2992.1814   2977.9109   -2962.1814  104.2773    0.3166      2.3314      0.9982      2.1813      0.1397      0.6091      0.197       
2948.1109   2992.3605   2978.1109   -2962.3605  109.9535    0.3164      2.3472      0.9993      2.1805      0.1185      0.7166      0.1387      
2948.3109   2992.5395   2978.3109   -2962.5395  110.3583    0.3161      2.3852      1.0085      2.1803      0.1276      0.6643      0.1502      
2948.5109   2992.7186   2978.5109   -2962.7186  108.3548    0.3155      2.4172      1.021       2.1901      0.1638      0.4784      0.2021      
2948.7109   2992.8976   2978.7109   -2962.8976  106.0728    0.3151      2.4315      1.0366      2.1908      0.1836      0.4259      0.2074      
2948.9109   2993.0766   2978.9109   -2963.0766  104.9698    0.3151      2.4326      1.0557      2.1781      0.197       0.405       0.2049      
2949.1109   2993.2557   2979.1109   -2963.2557  106.6177    0.3152      2.4259      1.0707      2.1644      0.2126      0.3582      0.1905      
2949.3109   2993.4347   2979.3109   -2963.4347  102.938     0.3154      2.4101      1.0778      2.1583      0.2262      0.2984      0.1595      
2949.5109   2993.6137   2979.5109   -2963.6137  101.0715    0.3155      2.3913      1.0823      2.1615      0.2251      0.2817      0.1466      
2949.7109   2993.7926   2979.7109   -2963.7926  94.3337     0.3155      2.3869      1.0881      2.1752      0.2209      0.2733      0.1398      
2949.9109   2993.9716   2979.9109   -2963.9716  89.8784     0.3156      2.3912      1.0922      2.1845      0.2272      0.2477      0.1393      
2950.1109   2994.1506   2980.1109   -2964.1506  90.2697     0.3158      2.3934      1.0911      2.1825      0.2399      0.2169      0.1392      
2950.3109   2994.3295   2980.3109   -2964.3295  93.6239     0.3157      2.3883      1.0885      2.17        0.2386      0.2191      0.1373      
2950.5109   2994.5084   2980.5109   -2964.5084  90.6826     0.3157      2.3857      1.0897      2.1694      0.2334      0.2294      0.1335      
2950.7109   2994.6874   2980.7109   -2964.6874  91.6599     0.3159      2.3892      1.0967      2.1875      0.2268      0.2435      0.1311      
2950.9109   2994.8663   2980.9109   -2964.8663  91.4146     0.3162      2.3961      1.1068      2.194       0.221       0.2562      0.1296      
2951.1109   2995.0451   2981.1109   -2965.0451  91.0736     0.3165      2.3981      1.1153      2.1895      0.2261      0.237       0.1328      
2951.3109   2995.224    2981.3109   -2965.224   94.5593     0.3169      2.3979      1.1196      2.1838      0.234       0.2078      0.1375      
2951.5109   2995.4029   2981.5109   -2965.4029  92.9015     0.3174      2.396       1.1204      2.1801      0.2218      0.2523      0.127       
2951.7109   2995.5817   2981.7109   -2965.5817  90.989      0.3178      2.3918      1.1207      2.1816      0.205       0.3141      0.1125      
2951.9109   2995.7606   2981.9109   -2965.7606  93.3706     0.3182      2.3871      1.1208      2.1918      0.2097      0.2932      0.1165      
2952.1109   2995.9394   2982.1109   -2965.9394  92.1457     0.3186      2.3861      1.1203      2.1935      0.2186      0.2513      0.1261      
2952.3109   2996.1182   2982.3109   -2966.1182  92.7833     0.3188      2.3858      1.1179      2.1916      0.2255      0.212       0.1416      
2952.5109   2996.297    2982.5109   -2966.297   91.2757     0.319       2.3815      1.1112      2.1948      0.2298      0.187       0.1535      
2952.7109   2996.4757   2982.7109   -2966.4757  93.8809     0.3192      2.3668      1.0993      2.1951      0.23        0.2212      0.1455      
