#----------------------------------------------------------------------------
~VERSION INFORMATION
VERS.            2.0                  :CWLS LOG ASCII STANDARD -VERSION 2.0
WRAP.            NO                   :ONE LINE PER DEPTH STEP
#
#--------------------------------------------------------------------
~WELL INFORMATION
#MNEM .UNIT      DATA                 :DESCRIPTION OF MNEMONIC
#----------      ------------         -------------------------------
STRT  .m         1761.0               :START DEPTH
STEP  .m         0.2                  :STEP DEPTH
STOP  .m         3172.6718            :STOP DEPTH
NULL  .          -999.25              :NULL VALUE
COMP  .          Petrobras            :COMPANY
WELL  .          RO82                 :WELL
LOC   .                               :LOCATION - AREA
FLD   .                               :FIELD
CTRY  .                               :COUNTRY
DATE  .                               :WELL DATE
UWI   .          742810331400         :UWI
ZSTK  .          TVDss                :Z-STICK
XWELL .m         421843.59            :X POS
YWELL .m         7571342              :Y POS
EDF   .          25.0                 :DERRICK FLOOR ELEVATION
#
#----------------------------------------------------------------------------
~CURVE INFORMATION
#MNEM.UNIT                                  : CURVE DESCRIPTION
#----------                                 -------------------------------
DEPT        .m                              : 1      DEPTH
Depth_TVDkb .m                              : 2      Depth
Depth_MD    .m                              : 3      Depth
GR          .API                            : 4      GR
CALIPER     .m                              : 5      Cal
VP          .km/s                           : 6      Vp
VS          .km/s                           : 7      Vs
RHO         .g/cm3                          : 8      Rho
Porosidade  .fract                          : 9      Por
Argilosidade.fract                          : 10     Volume
Saturacao   .fract                          : 11     Sat
#
#----------------------------------------------------------------------------
~A          Depth_TVDkb Depth_MD    GR          CALIPER     VP          VS          RHO         Porosidade  Argilosidade Saturacao   
# ...
3103.4      3128.4      3128.4      94.1652     0.3262      2.9911      1.3715      2.2655      0.2393      0.0655      0.9398      
3103.6      3128.6      3128.6      93.8441     0.328       3.0038      1.3759      2.2637      0.2479      0.0437      0.9094      
3103.8      3128.8      3128.8      93.2856     0.3297      3.001       1.388       2.2572      0.2565      0.0218      0.879       
3104.0      3129.0      3129.0      92.7626     0.3315      2.9805      1.4058      2.256       0.2651      0.0         0.8486      
3104.2      3129.2      3129.2      91.739      0.3331      2.9288      1.4253      2.2524      0.2718      0.0         0.8415      
3104.4      3129.4      3129.4      91.3518     0.3347      2.8858      1.4413      2.2415      0.2786      0.0         0.8345      
3104.6      3129.6      3129.6      92.9972     0.3338      2.8753      1.4475      2.233       0.2672      0.0127      0.8639      
3104.8      3129.8      3129.8      95.494      0.3328      2.9064      1.4375      2.2371      0.2558      0.0254      0.8934      
3105.0      3130.0      3130.0      97.4926     0.3319      2.9834      1.4093      2.2541      0.2444      0.0381      0.9228      
3105.2      3130.2      3130.2      99.4715     0.3301      3.0042      1.3717      2.2688      0.2423      0.0569      0.9168      
3105.4      3130.4      3130.4      101.1421    0.3283      3.0117      1.3364      2.2678      0.2403      0.0758      0.9108      
3105.6      3130.6      3130.6      102.0594    0.3272      3.0137      1.3054      2.2575      0.2461      0.0673      0.8927      
3105.8      3130.8      3130.8      103.225     0.3261      3.0116      1.2812      2.2537      0.252       0.0588      0.8746      
3106.0      3131.0      3131.0      103.4108    0.325       3.0152      1.2653      2.2474      0.2579      0.0503      0.8564      
3106.2      3131.2      3131.2      101.3394    0.3244      3.0308      1.2564      2.2431      0.26        0.0252      0.8561      
3106.4      3131.4      3131.4      99.1363     0.3237      3.0538      1.2495      2.257       0.2621      0.0         0.8558      
3106.6      3131.6      3131.6      99.1216     0.3256      3.055       1.2424      2.2583      0.264       0.0046      0.8475      
3106.8      3131.8      3131.8      100.0658    0.3274      3.0353      1.2379      2.2505      0.266       0.0091      0.8393      
3107.0      3132.0      3132.0      100.2019    0.3293      2.9973      1.2414      2.2453      0.268       0.0137      0.831       
3107.2      3132.2      3132.2      98.3917     0.3297      2.9958      1.2547      2.2449      0.2709      0.0069      0.8229      
3107.4      3132.4      3132.4      96.4891     0.3301      3.0174      1.2752      2.2418      0.2739      0.0         0.8148      
3107.6      3132.6      3132.6      96.4904     0.3301      3.0625      1.2983      2.2402      0.2701      0.0         0.8215      
3107.8      3132.8      3132.8      96.784      0.3302      3.1538      1.32        2.2463      0.2664      0.0         0.8282      
3108.0      3133.0      3133.0      97.3346     0.3302      3.3004      1.3407      2.2536      0.2627      0.0         0.8349      
3108.2      3133.2      3133.2      99.8531     0.3299      3.4351      1.3633      2.2568      0.2604      0.0         0.8187      
3108.4      3133.4      3133.4      101.5756    0.3296      3.4783      1.3875      2.2579      0.2581      0.0         0.8025      
3108.6      3133.6      3133.6      100.1925    0.329       3.4251      1.4106      2.2641      0.2483      0.0         0.8187      
3108.8      3133.8      3133.8      96.8352     0.3283      3.2392      1.432       2.2822      0.2385      0.0         0.835       
3109.0      3134.0      3134.0      95.5957     0.3277      3.2068      1.4501      2.3039      0.2287      0.0         0.8512      
3109.2      3134.2      3134.2      97.405      0.3282      3.1029      1.4601      2.3017      0.2482      0.0         0.8324      
3109.4      3134.4      3134.4      99.8273     0.3287      3.0396      1.4544      2.2714      0.2677      0.0         0.8136      
3109.6      3134.6      3134.6      100.0901    0.3287      3.0323      1.4293      2.2488      0.2549      7.0E-4      0.8378      
3109.8      3134.8      3134.8      98.2599     0.3287      3.0538      1.4081      2.2526      0.2422      0.0014      0.862       
3110.0      3135.0      3135.0      98.9422     0.3288      3.1155      1.409       2.279       0.2294      0.0022      0.8861      
3110.2      3135.2      3135.2      105.6833    0.3283      3.1572      1.4349      2.3076      0.227       0.003       0.8855      
3110.4      3135.4      3135.4      112.1074    0.3279      3.18        1.459       2.3169      0.2245      0.0039      0.8848      
3110.6      3135.6      3135.6      111.613     0.3269      3.1962      1.4566      2.3141      0.21        0.0423      0.9221      
3110.8      3135.8      3135.8      108.5992    0.326       3.1917      1.4274      2.3103      0.1954      0.0808      0.9594      
