#----------------------------------------------------------------------------
~VERSION INFORMATION
VERS.            2.0                  :CWLS LOG ASCII STANDARD -VERSION 2.0
WRAP.            NO                   :ONE LINE PER DEPTH STEP
#
#--------------------------------------------------------------------
~WELL INFORMATION
#MNEM .UNIT      DATA                 :DESCRIPTION OF MNEMONIC
#----------      ------------         -------------------------------
STRT  .m         2910.0               :START DEPTH
STEP  .m         0.2                  :STEP DEPTH
STOP  .m         3110.0               :STOP DEPTH
NULL  .          -999.25              :NULL VALUE
COMP  .                               :COMPANY
WELL  .                               :WELL
LOC   .                               :LOCATION - AREA
FLD   .                               :FIELD
CTRY  .                               :COUNTRY
DATE  .                               :WELL DATE
UWI   .                               :UWI
ZSTK  .          TVDss                :Z-STICK
XWELL .m         	              :X POS
YWELL .m         	              :Y POS
EDF   .          14.0                 :DERRICK FLOOR ELEVATION
#
#----------------------------------------------------------------------------
~CURVE INFORMATION
#MNEM.UNIT                                  : CURVE DESCRIPTION
#----------                                 -------------------------------
DEPT        .m                              : 1      DEPTH
MD          .m                              : 2      Depth
GR          .API                            : 3      GR
CALIPER     .m                              : 4      Cal
VP          .km/s                           : 5      Vp
VS          .km/s                           : 6      Vs
RHO         .g/cm3                          : 7      Rho
Porosidade  .fract                          : 8      Por
Argilosidade.fract                          : 9      Volume
Saturacao   .fract                          : 10     Sat
#
#----------------------------------------------------------------------------
~A          MD          GR          CALIPER     VP          VS          RHO         Porosidade  Argilosidade Saturacao   
# ...
3097.6      3110.5095   82.4393     0.3193      2.5753      1.2269      2.3465      0.0         1.0         1.0         
3097.8      3110.7093   81.2634     0.318       2.6525      1.2888      2.3804      0.0017      0.9953      0.9963      
3098.0      3110.9092   87.1692     0.3173      2.7521      1.3232      2.3865      0.0         1.0         0.9732      
3098.2      3111.109    92.4103     0.3171      2.8205      1.3529      2.3839      4.0E-4      0.9994      0.9688      
3098.4      3111.3088   94.2021     0.317       2.833       1.3828      2.3791      0.0019      0.9948      0.9897      
3098.6      3111.5086   96.0706     0.3173      2.8117      1.3869      2.3568      0.0         1.0         1.0         
3098.8      3111.7085   98.491      0.3189      2.7484      1.331       2.3173      0.0097      0.9799      0.9992      
3099.0      3111.9083   100.3991    0.3215      2.6709      1.3109      2.292       0.0372      0.8909      0.9999      
3099.2      3112.1081   103.9178    0.322       2.6287      1.3187      2.3098      0.0342      0.8688      1.0         
3099.4      3112.3079   106.0659    0.3193      2.623       1.3252      2.3344      0.0085      0.9528      0.9988      
3099.6      3112.5077   104.6251    0.3177      2.6157      1.3111      2.3281      0.0         1.0         1.0         
3099.8      3112.7076   101.9282    0.3183      2.6141      1.2278      2.287       0.0084      0.979       1.0         
3100.0      3112.9074   98.053      0.3193      2.5982      1.2074      2.2395      0.0625      0.844       0.9974      
3100.2      3113.1072   93.8769     0.3222      2.568       1.2235      2.1978      0.1045      0.738       1.0         
3100.4      3113.307    93.5089     0.3277      2.5618      1.2004      2.1666      0.1051      0.7357      0.9951      
3100.6      3113.5069   94.2837     0.3282      2.578       1.1897      2.1844      0.1031      0.7493      0.9575      
3100.8      3113.7067   94.1312     0.3222      2.6435      1.2026      2.2581      0.0809      0.771       0.961       
3101.0      3113.9065   94.2842     0.3192      2.7146      1.2574      2.3349      0.0243      0.8746      1.0         
3101.2      3114.1063   93.2944     0.3202      2.7668      1.2976      2.3691      0.0         0.9771      0.9837      
3101.4      3114.3062   92.2702     0.3208      2.7855      1.3101      2.3697      0.0         1.0         0.9589      
3101.6      3114.506    95.3979     0.3198      2.7619      1.3006      2.3515      0.0032      0.9814      0.9942      
3101.8      3114.7058   98.635      0.3195      2.6847      1.2745      2.2758      0.067       0.8149      0.9654      
3102.0      3114.9057   97.6348     0.3229      2.5919      1.2466      2.1702      0.1444      0.6389      0.8847      
3102.2      3115.1054   93.7354     0.3252      2.5595      1.2193      2.1475      0.1299      0.6767      0.9178      
3102.4      3115.3052   90.1143     0.3223      2.5839      1.2055      2.2341      0.0505      0.8721      0.9997      
3102.6      3115.5051   90.8324     0.3181      2.647       1.2305      2.3168      0.0036      0.9919      1.0         
3102.8      3115.7049   91.4404     0.3172      2.7372      1.2833      2.3502      0.0         1.0         0.9942      
3103.0      3115.9049   87.7821     0.3174      2.7812      1.324       2.3541      0.001       0.9969      1.0         
3103.2      3116.1058   83.5685     0.3176      2.7697      1.3093      2.3546      0.0         1.0         1.0         
3103.4      3116.3069   84.8862     0.3176      2.7614      1.2892      2.3544      0.0         1.0         0.9972      
3103.6      3116.5079   89.3078     0.3175      2.7698      1.282       2.3529      0.0011      0.997       0.9993      
3103.8      3116.7091   94.6115     0.3182      2.7375      1.1985      2.342       0.0         1.0         1.0         
3104.0      3116.9099   97.3407     0.3203      2.6536      1.1641      2.2954      0.0         1.0         0.9934      
3104.2      3117.11     95.8352     0.3219      2.6112      1.1362      2.2454      0.0155      0.9609      0.9997      
3104.4      3117.3097   91.3372     0.3219      2.5881      1.1082      2.2412      0.0575      0.8574      1.0         
3104.6      3117.5096   90.2672     0.3211      2.5365      1.1082      2.2056      0.1497      0.6235      0.8839      
3104.8      3117.7094   92.0935     0.3221      2.512       1.1065      2.1041      0.2754      0.2961      0.6186      
3105.0      3117.9092   91.8681     0.3265      2.5468      1.1071      2.0579      0.3367      0.1305      0.4839      
3105.2      3118.1091   90.1654     0.3277      2.5992      1.1525      2.113       0.2774      0.2666      0.5793      
3105.4      3118.3089   89.6656     0.322       2.6569      1.2236      2.2254      0.1514      0.5573      0.8075      
3105.6      3118.5087   90.7332     0.3168      2.7598      1.2633      2.3111      0.0594      0.7594      0.9832      
3105.8      3118.7085   94.2811     0.3163      2.8297      1.2708      2.321       0.0427      0.8108      1.0         
3106.0      3118.9083   98.108      0.316       2.7671      1.2143      2.2617      0.0895      0.7477      0.9568      
3106.2      3119.1082   99.7499     0.3158      2.652       1.1216      2.1546      0.1675      0.5862      0.8097      
3106.4      3119.308    101.3583    0.3178      2.5451      1.0922      2.0789      0.2307      0.4231      0.6588      
3106.6      3119.5078   103.1573    0.3207      2.5005      1.0955      2.0878      0.2344      0.41        0.6298      
3106.8      3119.7076   105.2637    0.3219      2.5206      1.0973      2.1588      0.1814      0.5526      0.7583      
3107.0      3119.9075   105.7612    0.3212      2.6086      1.1179      2.2382      0.1056      0.7251      0.9366      
3107.2      3120.1073   100.5784    0.3197      2.7506      1.191       2.3139      0.0334      0.8727      1.0         
3107.4      3120.3071   95.5735     0.3181      2.858       1.2934      2.3562      0.0         0.9687      0.9631      
3107.6      3120.5069   97.1433     0.3169      2.8916      1.332       2.3816      7.0E-4      0.9996      0.9366      
3107.8      3120.7068   101.7439    0.3169      2.8432      1.2794      2.3874      0.0         1.0         0.9684      
3108.0      3120.9066   104.4816    0.318       2.7738      1.2563      2.3517      0.0011      0.9781      0.9892      
3108.2      3121.1064   106.4143    0.3184      2.7194      1.2647      2.3186      0.0202      0.8996      1.0         
3108.4      3121.3062   107.8148    0.3177      2.7022      1.2688      2.3247      0.0232      0.868       0.9978      
3108.6      3121.5061   105.5771    0.317       2.7433      1.3265      2.3538      0.0041      0.9383      0.9136      
3108.8      3121.7059   100.6188    0.3169      2.8707      1.4239      2.3858      0.0         1.0         0.8505      
3109.0      3121.9057   94.4681     0.3172      3.0229      1.4949      2.4159      0.002       0.9984      0.8116      
3109.2      3122.1055   89.9465     0.3177      3.1075      1.5567      2.4318      0.0         0.9977      0.7203      
3109.4      3122.3054   90.328      0.3181      3.1324      1.6166      2.4285      0.0         1.0         0.7004      
3109.6      3122.5052   94.8598     0.3183      3.0697      1.6116      2.407       0.0033      0.9921      0.8427      
3109.8      3122.705    98.0293     0.3182      2.8851      1.5297      2.3739      0.0         1.0         0.9926      
3110.0      3122.9048   98.2611     0.3177      2.735       1.4178      2.3271      0.0         1.0         1.0         
