#----------------------------------------------------------------------------
~VERSION INFORMATION
VERS.            2.0                  :CWLS LOG ASCII STANDARD -VERSION 2.0
WRAP.            NO                   :ONE LINE PER DEPTH STEP
#
#--------------------------------------------------------------------
~WELL INFORMATION
#MNEM .UNIT      DATA                 :DESCRIPTION OF MNEMONIC
#----------      ------------         -------------------------------
STRT  .m         2910.0               :START DEPTH
STEP  .m         0.2                  :STEP DEPTH
STOP  .m         3110.0               :STOP DEPTH
NULL  .          -999.25              :NULL VALUE
COMP  .                               :COMPANY
WELL  .                               :WELL
LOC   .                               :LOCATION - AREA
FLD   .                               :FIELD
CTRY  .                               :COUNTRY
DATE  .                               :WELL DATE
UWI   .                               :UWI
ZSTK  .          TVDss                :Z-STICK
XWELL .m         	              :X POS
YWELL .m         	              :Y POS
EDF   .          14.0                 :DERRICK FLOOR ELEVATION
#
#----------------------------------------------------------------------------
~CURVE INFORMATION
#MNEM.UNIT                                  : CURVE DESCRIPTION
#----------                                 -------------------------------
DEPT        .m                              : 1      DEPTH
MD          .m                              : 2      Depth
GR          .API                            : 3      GR
CALIPER     .m                              : 4      Cal
VP          .km/s                           : 5      Vp
VS          .km/s                           : 6      Vs
RHO         .g/cm3                          : 7      Rho
Porosidade  .fract                          : 8      Por
Argilosidade.fract                          : 9      Volume
Saturacao   .fract                          : 10     Sat
#
#----------------------------------------------------------------------------
~A          MD          GR          CALIPER     VP          VS          RHO         Porosidade  Argilosidade Saturacao   
# ...
3070.8      3083.7344   93.8824     0.3222      2.7286      1.2816      2.337       0.0275      0.8159      0.9986      
3071.0      3083.9342   93.8451     0.3211      2.6882      1.2832      2.3239      0.0372      0.8139      0.9999      
3071.2      3084.134    96.1736     0.3198      2.6895      1.2711      2.3268      0.0234      0.8707      1.0         
3071.4      3084.3338   98.524      0.3195      2.6898      1.2636      2.3365      0.009       0.9149      1.0         
3071.6      3084.5336   98.3025     0.3204      2.6899      1.2863      2.3349      0.015       0.8953      0.9985      
3071.8      3084.7334   96.8099     0.321       2.7188      1.3187      2.3339      0.0231      0.8442      1.0         
3072.0      3084.9332   95.6047     0.3198      2.7631      1.3456      2.3484      0.0128      0.8587      1.0         
3072.2      3085.133    94.5736     0.3181      2.8059      1.3696      2.3609      0.0         0.9411      0.9799      
3072.4      3085.3329   94.2977     0.3177      2.8401      1.4128      2.3605      0.0         0.9793      0.9748      
3072.6      3085.5327   95.638      0.3179      2.8366      1.3751      2.3573      6.0E-4      0.9498      0.9957      
3072.8      3085.7325   98.0788     0.318       2.8146      1.3065      2.3486      1.0E-4      0.933       1.0         
3073.0      3085.9323   100.8994    0.3176      2.7881      1.2667      2.3286      0.0099      0.933       0.9981      
3073.2      3086.1321   102.6846    0.3172      2.7603      1.2793      2.3112      0.0259      0.9052      1.0         
3073.4      3086.3319   103.8596    0.3175      2.7373      1.2771      2.3113      0.0328      0.8727      1.0         
3073.6      3086.5317   104.0833    0.3184      2.729       1.271       2.3214      0.0277      0.868       0.9992      
3073.8      3086.7315   104.6317    0.3182      2.7439      1.2892      2.3317      0.0156      0.8982      1.0         
3074.0      3086.9313   108.0671    0.3172      2.7753      1.288       2.3344      0.001       0.9666      1.0         
3074.2      3087.1311   111.1081    0.3173      2.7906      1.2537      2.3272      0.0024      0.9829      0.9997      
3074.4      3087.331    111.5535    0.3181      2.773       1.2368      2.3094      0.0358      0.8674      1.0         
3074.6      3087.5308   111.2223    0.3185      2.7463      1.2758      2.2897      0.0721      0.741       1.0         
3074.8      3087.7306   110.0213    0.3184      2.7252      1.3028      2.2913      0.0668      0.7653      0.9999      
3075.0      3087.9304   108.7846    0.3177      2.6994      1.2784      2.3098      0.0322      0.8819      1.0         
3075.2      3088.1302   108.601     0.3169      2.6688      1.2631      2.3239      0.0072      0.9673      1.0         
3075.4      3088.33     104.9291    0.3169      2.641       1.2584      2.3217      4.0E-4      0.9972      0.9999      
3075.6      3088.5298   97.4598     0.3169      2.6315      1.2792      2.329       0.0         1.0         1.0         
3075.8      3088.7296   90.2054     0.3165      2.6516      1.358       2.3529      0.0         0.9995      1.0         
3076.0      3088.9294   86.5901     0.3162      2.6867      1.3864      2.3682      0.0         0.9996      0.9999      
3076.2      3089.1292   87.8195     0.3162      2.7368      1.3782      2.3688      0.0         1.0         1.0         
3076.4      3089.329    92.8577     0.3164      2.7663      1.3566      2.3647      0.0         0.9996      1.0         
3076.6      3089.5288   95.4748     0.3163      2.7605      1.3062      2.3573      0.0         0.9994      0.9998      
3076.8      3089.7286   95.3707     0.3162      2.7166      1.2819      2.3441      0.0         1.0         1.0         
3077.0      3089.9285   95.6899     0.3164      2.6737      1.3057      2.3316      0.0         0.9988      1.0         
3077.2      3090.1283   94.5093     0.3165      2.6629      1.3524      2.3371      1.0E-4      0.9992      0.9997      
3077.4      3090.3281   89.9167     0.3162      2.667       1.3721      2.358       0.0         1.0         1.0         
3077.6      3090.5279   85.4745     0.3158      2.7036      1.3859      2.37        1.0E-4      0.9958      0.9973      
3077.8      3090.7277   87.3385     0.3157      2.7597      1.3731      2.369       0.0         1.0         0.9904      
3078.0      3090.9275   93.4079     0.3158      2.7858      1.3123      2.3643      0.0         1.0         0.9921      
3078.2      3091.1273   98.1614     0.3162      2.7597      1.273       2.3618      4.0E-4      0.9562      0.9993      
3078.4      3091.3272   100.1903    0.317       2.6968      1.2683      2.3574      1.0E-4      0.9224      1.0         
3078.6      3091.527    101.4899    0.3181      2.6619      1.2789      2.353       0.0         0.9694      0.9995      
3078.8      3091.7268   100.1001    0.3185      2.6673      1.3089      2.3623      8.0E-4      1.0         1.0         
3079.0      3091.9266   93.3438     0.3181      2.6971      1.3307      2.3783      0.0         1.0         1.0         
3079.2      3092.1264   87.5791     0.3177      2.7307      1.3438      2.3825      0.0         0.9962      0.9999      
3079.4      3092.3262   88.3983     0.3178      2.7473      1.3522      2.3808      0.002       0.9992      1.0         
3079.6      3092.526    93.5661     0.3185      2.7366      1.3539      2.3744      0.0         1.0         0.9999      
3079.8      3092.7259   96.6631     0.3189      2.6984      1.3201      2.3537      0.0043      0.9678      1.0         
3080.0      3092.9257   96.6662     0.3192      2.6176      1.2758      2.3081      0.0302      0.8961      0.9999      
3080.2      3093.1254   94.9378     0.3198      2.5535      1.2749      2.2748      0.0281      0.9257      0.9999      
3080.4      3093.3253   93.1087     0.3194      2.5697      1.2953      2.3068      0.0024      0.9975      1.0         
3080.6      3093.5251   90.8559     0.3178      2.65        1.3184      2.3645      0.0         1.0         0.9989      
3080.8      3093.7249   91.5428     0.317       2.7515      1.361       2.3829      0.0021      0.9973      0.9975      
3081.0      3093.9247   97.5384     0.317       2.7914      1.369       2.3804      0.0         0.9823      0.9991      
3081.2      3094.1245   101.7871    0.3171      2.7419      1.3256      2.3673      0.0         0.9547      1.0         
3081.4      3094.3243   100.8954    0.3172      2.6576      1.3         2.3442      8.0E-4      0.9726      0.9999      
3081.6      3094.5242   97.483      0.3172      2.6192      1.3231      2.3341      0.0         1.0         0.9999      
3081.8      3094.724    94.4095     0.3167      2.6238      1.3372      2.354       0.0         1.0         1.0         
3082.0      3094.9238   93.814      0.3163      2.6582      1.3393      2.3775      4.0E-4      0.9978      0.9999      
3082.2      3095.1236   93.5401     0.3162      2.7147      1.3622      2.3859      0.0         1.0         0.9999      
3082.4      3095.3234   92.1367     0.3166      2.7634      1.3996      2.3845      1.0E-4      0.9991      1.0         
3082.6      3095.5232   92.0757     0.3171      2.7806      1.3998      2.38        2.0E-4      0.9999      0.9999      
3082.8      3095.7231   91.3588     0.3171      2.7822      1.4038      2.3723      0.0         0.9998      0.9996      
3083.0      3095.9228   90.801      0.3165      2.787       1.4313      2.3653      2.0E-4      0.9944      0.9995      
3083.2      3096.1226   94.5718     0.3165      2.8027      1.3888      2.3628      2.0E-4      0.9976      0.9998      
3083.4      3096.3225   102.0747    0.3166      2.7888      1.3022      2.3478      0.0         1.0         1.0         
3083.6      3096.5223   108.7743    0.3165      2.712       1.2702      2.3203      0.0018      0.9952      0.9999      
3083.8      3096.7221   109.0555    0.3172      2.6442      1.2537      2.3088      0.0049      0.9876      0.9997      
3084.0      3096.9219   101.4524    0.3186      2.6199      1.2572      2.3202      0.0021      0.9948      1.0         
