#----------------------------------------------------------------------------
~VERSION INFORMATION
VERS.            2.0                  :CWLS LOG ASCII STANDARD -VERSION 2.0
WRAP.            NO                   :ONE LINE PER DEPTH STEP
#
#--------------------------------------------------------------------
~WELL INFORMATION
#MNEM .UNIT      DATA                 :DESCRIPTION OF MNEMONIC
#----------      ------------         -------------------------------
STRT  .m         2796.1109            :START DEPTH
STEP  .m         0.2                  :STEP DEPTH
STOP  .m         3026.1109            :STOP DEPTH
NULL  .          -999.25              :NULL VALUE
COMP  .          	              :COMPANY
WELL  .                               :WELL
LOC   .                               :LOCATION - AREA
FLD   .                               :FIELD
CTRY  .                               :COUNTRY
DATE  .                               :WELL DATE
UWI   .          	              :UWI
ZSTK  .          TVDss                :Z-STICK
XWELL .m                              :X POS
YWELL .m                              :Y POS
EDF   .          30.0                 :DERRICK FLOOR ELEVATION
#
#----------------------------------------------------------------------------
~CURVE INFORMATION
#MNEM.UNIT                                  : CURVE DESCRIPTION
#----------                                 -------------------------------
DEPT        .m                              : 1      DEPTH
MD          .m                              : 2      Depth
Depth_TVDkb .m                              : 3      Depth
COTA        .m                              : 4      Depth
GR          .API                            : 5      GR
CALIPER     .m                              : 6      Cal
VP          .km/s                           : 7      Vp
VS          .km/s                           : 8      Vs
RHO         .g/cm3                          : 9      Rho
Porosidade  .fract                          : 10     Por
Argilosidade.fract                          : 11     Volume
Saturacao   .fract                          : 12     Sat
#
#----------------------------------------------------------------------------
~A          MD          Depth_TVDkb COTA        GR          CALIPER     VP          VS          RHO         Porosidade  Argilosidade Saturacao   
# ...
3008.9109   3045.9542   3038.9109   -3015.9542  100.9464    0.311       2.4323      1.1386      2.2966      0.0158      0.8687      0.0645      
3009.1109   3046.1294   3039.1109   -3016.1294  102.3665    0.3112      2.4242      1.1108      2.299       0.0432      0.7876      0.0801      
3009.3109   3046.3046   3039.3109   -3016.3046  104.8216    0.3122      2.4283      1.0961      2.2354      0.171       0.4086      0.1349      
3009.5109   3046.4798   3039.5109   -3016.4798  104.2336    0.3125      2.4429      1.0869      2.1978      0.2033      0.3171      0.1352      
3009.7109   3046.6551   3039.7109   -3016.6551  97.7475     0.3124      2.4486      1.081       2.1944      0.215       0.2851      0.1218      
3009.9109   3046.8304   3039.9109   -3016.8304  94.5202     0.3135      2.4382      1.0832      2.1847      0.2332      0.2116      0.1246      
3010.1109   3047.0058   3040.1109   -3017.0058  91.1208     0.3148      2.4286      1.1047      2.181       0.2501      0.1296      0.1326      
3010.3109   3047.1812   3040.3109   -3017.1812  88.8781     0.3142      2.4444      1.1526      2.2114      0.203       0.2534      0.1091      
3010.5109   3047.3566   3040.5109   -3017.3566  87.7259     0.3129      2.503       1.215       2.2655      0.1159      0.486       0.0656      
3010.7109   3047.5321   3040.7109   -3017.5321  91.6998     0.3127      2.5663      1.269       2.2661      0.1577      0.3831      0.0805      
3010.9109   3047.7077   3040.9109   -3017.7077  92.6088     0.3127      2.604       1.3055      2.2145      0.2287      0.2068      0.1067      
3011.1109   3047.8832   3041.1109   -3017.8832  86.4329     0.3127      2.627       1.3306      2.1927      0.1802      0.3303      0.0838      
3011.3109   3048.0588   3041.3109   -3018.0588  88.7691     0.3126      2.6591      1.3497      2.2205      0.1115      0.5049      0.0517      
3011.5109   3048.2344   3041.5109   -3018.2344  87.72       0.3115      2.6735      1.3511      2.2698      0.1273      0.4666      0.0557      
3011.7109   3048.4102   3041.7109   -3018.4102  88.574      0.3104      2.6455      1.3332      2.2625      0.1587      0.3858      0.0646      
3011.9109   3048.5858   3041.9109   -3018.5858  93.8942     0.3102      2.5713      1.3039      2.216       0.1903      0.2878      0.077       
3012.1109   3048.7616   3042.1109   -3018.7616  90.4442     0.31        2.5365      1.2972      2.2049      0.2093      0.2251      0.0853      
3012.3109   3048.9374   3042.3109   -3018.9374  89.4351     0.3098      2.5337      1.3073      2.2201      0.1947      0.2562      0.0793      
3012.5109   3049.1133   3042.5109   -3019.1133  90.6198     0.3099      2.5464      1.3378      2.2355      0.182       0.2836      0.074       
3012.7109   3049.2891   3042.7109   -3019.2891  89.8505     0.309       2.5714      1.3663      2.229       0.1978      0.2671      0.0763      
3012.9109   3049.465    3042.9109   -3019.465   90.7705     0.3085      2.5733      1.3763      2.2089      0.2099      0.2547      0.0803      
3013.1109   3049.641    3043.1109   -3019.641   87.9362     0.31        2.555       1.3741      2.205       0.2086      0.2655      0.0847      
3013.3109   3049.817    3043.3109   -3019.817   90.3716     0.3116      2.5368      1.36        2.204       0.2084      0.2701      0.0932      
3013.5109   3049.993    3043.5109   -3019.993   97.2321     0.3122      2.5268      1.3381      2.2007      0.227       0.1888      0.1313      
3013.7109   3050.169    3043.7109   -3020.169   98.1674     0.313       2.5255      1.3216      2.2007      0.2371      0.1443      0.151       
3013.9109   3050.3452   3043.9109   -3020.3452  94.5091     0.3141      2.536       1.3189      2.2026      0.2214      0.2008      0.1485      
3014.1109   3050.5214   3044.1109   -3020.5214  94.3403     0.3149      2.5447      1.315       2.2143      0.184       0.3358      0.159       
3014.3109   3050.6975   3044.3109   -3020.6975  103.0962    0.3152      2.5197      1.2948      2.2432      0.0539      0.8082      0.3233      
3014.5109   3050.8737   3044.5109   -3020.8737  107.9855    0.3152      2.4206      1.2458      2.259       0.0013      0.9974      0.424       
3014.7109   3051.05     3044.7109   -3021.05    114.1035    0.3153      2.3109      1.1558      2.2656      2.0E-4      0.9996      0.4544      
3014.9109   3051.2264   3044.9109   -3021.2264  116.2776    0.3144      2.2697      1.0502      2.2727      0.0         1.0         0.4597      
3015.1109   3051.4027   3045.1109   -3021.4027  111.7109    0.312       2.2835      0.9731      2.2797      0.0         1.0         0.4503      
3015.3109   3051.579    3045.3109   -3021.579   115.3318    0.3119      2.347       0.9411      2.2903      0.0         1.0         0.4479      
3015.5109   3051.7555   3045.5109   -3021.7555  113.5157    0.3143      2.4066      0.9369      2.2928      0.0         1.0         0.4531      
3015.7109   3051.932    3045.7109   -3021.932   113.7162    0.3156      2.4353      0.9396      2.2803      0.0029      0.9943      0.4627      
3015.9109   3052.1084   3045.9109   -3022.1084  115.7713    0.3152      2.4519      0.9408      2.2565      0.017       0.9659      0.4803      
3016.1109   3052.285    3046.1109   -3022.285   114.3319    0.3136      2.4596      0.9371      2.2434      0.0168      0.9665      0.4832      
3016.3109   3052.4616   3046.3109   -3022.4616  110.4563    0.3107      2.4482      0.9336      2.2438      0.0026      0.9948      0.4809      
3016.5109   3052.6382   3046.5109   -3022.6382  108.8742    0.3098      2.4305      0.936       2.2532      0.0122      0.9569      0.4913      
3016.7109   3052.8148   3046.7109   -3022.8148  115.3695    0.3109      2.4376      0.9496      2.2554      0.0544      0.8077      0.5286      
3016.9109   3052.9916   3046.9109   -3022.9916  116.9639    0.3117      2.4692      0.9694      2.2526      0.0465      0.8355      0.508       
3017.1109   3053.1683   3047.1109   -3023.1683  116.3202    0.312       2.5025      0.9775      2.2506      0.0049      0.9829      0.4309      
3017.3109   3053.3451   3047.3109   -3023.3451  120.2055    0.3126      2.5139      0.974       2.2466      0.0018      0.9857      0.4262      
3017.5109   3053.5219   3047.5109   -3023.5219  116.8109    0.313       2.5077      0.9649      2.2494      0.0065      0.9497      0.437       
3017.7109   3053.6988   3047.7109   -3023.6988  115.2746    0.3132      2.4884      0.9635      2.2666      0.0048      0.9568      0.4286      
3017.9109   3053.8757   3047.9109   -3023.8757  114.0569    0.3134      2.4892      0.9678      2.2723      3.0E-4      0.9801      0.4066      
3018.1109   3054.0526   3048.1109   -3024.0526  113.7029    0.3134      2.5061      0.9768      2.2735      0.0         0.9842      0.4008      
3018.3109   3054.2296   3048.3109   -3024.2296  107.9694    0.3135      2.5104      0.9853      2.2814      0.0         0.986       0.3985      
3018.5109   3054.4066   3048.5109   -3024.4066  108.3663    0.3131      2.5111      0.9891      2.2899      0.0         0.9925      0.3984      
3018.7109   3054.5837   3048.7109   -3024.5837  118.4758    0.3128      2.5172      0.9878      2.2872      0.0         0.9998      0.3984      
3018.9109   3054.7607   3048.9109   -3024.7607  124.4703    0.3138      2.5267      0.9844      2.2751      0.0023      0.9609      0.4034      
3019.1109   3054.9378   3049.1109   -3024.9378  114.7568    0.3154      2.5353      0.9856      2.2749      0.0077      0.8915      0.4156      
3019.3109   3055.115    3049.3109   -3025.115   111.8895    0.3158      2.5454      0.9941      2.2888      0.0144      0.8577      0.4346      
3019.5109   3055.2923   3049.5109   -3025.2923  108.7945    0.3161      2.5504      1.0064      2.2939      0.0192      0.8406      0.4493      
3019.7109   3055.4695   3049.7109   -3025.4695  108.3547    0.3172      2.5507      1.0183      2.295       0.0097      0.8635      0.4388      
3019.9109   3055.6468   3049.9109   -3025.6468  113.474     0.3182      2.5515      1.0297      2.3045      0.0         0.907       0.4176      
