#----------------------------------------------------------------------------
~VERSION INFORMATION
VERS.            2.0                  :CWLS LOG ASCII STANDARD -VERSION 2.0
WRAP.            NO                   :ONE LINE PER DEPTH STEP
#
#--------------------------------------------------------------------
~WELL INFORMATION
#MNEM .UNIT      DATA                 :DESCRIPTION OF MNEMONIC
#----------      ------------         -------------------------------
STRT  .m         2775.191             :START DEPTH
STEP  .m         0.2                  :STEP DEPTH
STOP  .m         3093.191             :STOP DEPTH
NULL  .          -999.25              :NULL VALUE
COMP  .                               :COMPANY
WELL  .                               :WELL
LOC   .                               :LOCATION - AREA
FLD   .                               :FIELD
CTRY  .                               :COUNTRY
DATE  .                               :WELL DATE
UWI   .                               :UWI
ZSTK  .          TVDss                :Z-STICK
XWELL .m         	              :X POS
YWELL .m         	              :Y POS
EDF   .          24.0                 :DERRICK FLOOR ELEVATION
#
#----------------------------------------------------------------------------
~CURVE INFORMATION
#MNEM.UNIT                                  : CURVE DESCRIPTION
#----------                                 -------------------------------
DEPT        .m                              : 1      DEPTH
COTA        .m                              : 2      Depth
Depth_TVDkb .m                              : 3      Depth
TVD         .m                              : 4      Depth
GR          .API                            : 5      GR
CALIPER     .m                              : 6      Cal
VP          .km/s                           : 7      Vp
VS          .km/s                           : 8      Vs
RHO         .g/cm3                          : 9      Rho
Porosidade  .fract                          : 10     Por
Argilosidade.fract                          : 11     Volume
Saturacao   .fract                          : 12     Sat
#
#----------------------------------------------------------------------------
~A          COTA        Depth_TVDkb TVD         GR          CALIPER     VP          VS          RHO         Porosidade  Argilosidade Saturacao   
# ...
2999.191    -2999.0922  3023.191    3023.0922   73.1834     0.3164      2.8828      1.383       2.2719      0.2312      0.0227      0.1594      
2999.391    -2999.2935  3023.391    3023.2935   72.242      0.3158      2.8763      1.3822      2.2635      0.2393      0.0         0.1614      
2999.591    -2999.4949  3023.591    3023.4949   72.1919     0.3155      2.8774      1.3904      2.2617      0.2391      0.0         0.1629      
2999.791    -2999.6963  3023.791    3023.6963   72.1621     0.3159      2.8578      1.3895      2.2658      0.2389      0.0         0.1645      
2999.991    -2999.8977  3023.991    3023.8977   70.7492     0.3157      2.8476      1.3956      2.2637      0.2387      1.0E-4      0.1661      
3000.191    -3000.0991  3024.191    3024.0991   71.3692     0.3152      2.8271      1.3921      2.2625      0.2315      0.0049      0.1722      
3000.391    -3000.3005  3024.391    3024.3005   71.8856     0.3151      2.8184      1.3887      2.2723      0.2258      0.0087      0.1774      
3000.591    -3000.5019  3024.591    3024.5019   73.1709     0.3148      2.8316      1.3911      2.2828      0.2307      0.0055      0.1757      
3000.791    -3000.7034  3024.791    3024.7034   74.2202     0.3148      2.8459      1.3947      2.2804      0.2352      0.0025      0.1742      
3000.991    -3000.9049  3024.991    3024.9049   73.814      0.3155      2.8297      1.3857      2.269       0.2394      0.0         0.1731      
3001.191    -3001.1063  3025.191    3025.1063   71.6032     0.3163      2.837       1.3928      2.2591      0.2408      0.0         0.1755      
3001.391    -3001.3077  3025.391    3025.3077   69.5689     0.3163      2.837       1.3965      2.2541      0.241       0.0019      0.1784      
3001.591    -3001.5092  3025.591    3025.5092   69.241      0.3151      2.8327      1.395       2.2536      0.2229      0.0394      0.1886      
3001.791    -3001.7107  3025.791    3025.7107   70.5272     0.3147      2.8562      1.4007      2.2576      0.2062      0.0736      0.1984      
3001.991    -3001.9122  3025.991    3025.9122   70.9821     0.3165      2.8822      1.4037      2.2795      0.1936      0.1013      0.2053      
3002.191    -3002.1137  3026.191    3026.1137   70.8651     0.3182      2.8969      1.4017      2.2964      0.1925      0.1082      0.2026      
3002.391    -3002.3151  3026.391    3026.3151   71.0761     0.318       2.9018      1.4         2.2983      0.1919      0.1131      0.1999      
3002.591    -3002.5166  3026.591    3026.5166   69.2127     0.3175      2.8982      1.398       2.2899      0.1957      0.1098      0.1962      
3002.791    -3002.7182  3026.791    3026.7182   68.0208     0.318       2.8942      1.3969      2.2767      0.1992      0.1067      0.1923      
3002.991    -3002.92    3026.991    3026.92     68.0851     0.3195      2.8982      1.3965      2.2749      0.202       0.1054      0.1903      
3003.191    -3003.1224  3027.191    3027.1224   68.925      0.3201      2.9156      1.4023      2.2807      0.2035      0.1111      0.1936      
3003.391    -3003.3249  3027.391    3027.3249   68.4644     0.3185      2.9124      1.3998      2.278       0.2071      0.1078      0.196       
3003.591    -3003.5273  3027.591    3027.5273   69.1521     0.3168      2.8895      1.3924      2.2681      0.2196      0.0636      0.1977      
3003.791    -3003.7298  3027.791    3027.7298   71.5888     0.3166      2.8687      1.3829      2.26        0.2318      0.0221      0.1995      
3003.991    -3003.9319  3027.991    3027.9319   71.0035     0.3164      2.8796      1.3842      2.2592      0.2318      0.0197      0.1994      
3004.191    -3004.1335  3028.191    3028.1335   69.5662     0.3154      2.922       1.3944      2.2709      0.1933      0.138       0.193       
3004.391    -3004.335   3028.391    3028.335    69.2866     0.3143      2.9388      1.3982      2.2818      0.1811      0.1743      0.1916      
3004.591    -3004.5367  3028.591    3028.5367   69.4955     0.3142      2.9295      1.3962      2.2844      0.2037      0.101       0.1984      
3004.791    -3004.7383  3028.791    3028.7383   69.4113     0.3157      2.9148      1.3962      2.2811      0.2253      0.0306      0.2044      
3004.991    -3004.9399  3028.991    3028.9399   69.0293     0.317       2.9061      1.399       2.2727      0.2303      0.0111      0.2097      
3005.191    -3005.1416  3029.191    3029.1416   70.4811     0.3162      2.899       1.3967      2.2713      0.2129      0.0553      0.2143      
3005.391    -3005.3432  3029.391    3029.3432   71.1731     0.315       2.9107      1.3995      2.2806      0.1978      0.0977      0.2141      
3005.591    -3005.5448  3029.591    3029.5448   71.9226     0.3152      2.9319      1.4026      2.2921      0.1829      0.1449      0.2066      
3005.791    -3005.7465  3029.791    3029.7465   72.1583     0.3162      2.9429      1.402       2.2944      0.1661      0.1971      0.1994      
3005.991    -3005.9482  3029.991    3029.9482   71.0684     0.3169      2.944       1.4012      2.2968      0.1607      0.2156      0.1958      
3006.191    -3006.1498  3030.191    3030.1498   69.1774     0.3158      2.9256      1.3945      2.3013      0.1615      0.2165      0.1942      
3006.391    -3006.3515  3030.391    3030.3515   68.7837     0.3143      2.9144      1.3943      2.2996      0.1646      0.2107      0.1961      
3006.591    -3006.5532  3030.591    3030.5532   70.6457     0.3158      2.9056      1.3993      2.2924      0.1711      0.1945      0.2025      
3006.791    -3006.755   3030.791    3030.755    71.0727     0.3196      2.8894      1.4025      2.2862      0.1767      0.1808      0.2082      
3006.991    -3006.9567  3030.991    3030.9567   70.7545     0.321       2.8746      1.4055      2.2857      0.1861      0.1541      0.2139      
3007.191    -3007.1584  3031.191    3031.1584   72.163      0.3183      2.882       1.4162      2.2864      0.2004      0.1104      0.2196      
3007.391    -3007.3602  3031.391    3031.3602   74.1915     0.3151      2.8953      1.4249      2.2816      0.1993      0.1055      0.2261      
3007.591    -3007.5619  3031.591    3031.5619   75.478      0.3148      2.9035      1.4283      2.2773      0.1902      0.1148      0.2331      
3007.791    -3007.7637  3031.791    3031.7637   77.0974     0.3156      2.9275      1.4383      2.2862      0.1816      0.1227      0.241       
3007.991    -3007.9655  3031.991    3031.9655   77.7451     0.3155      2.9414      1.441       2.3054      0.1758      0.1419      0.2432      
3008.191    -3008.1673  3032.191    3032.1673   76.2791     0.3152      2.951       1.4413      2.3096      0.1704      0.1721      0.2438      
3008.391    -3008.369   3032.391    3032.369    74.6419     0.3147      2.9778      1.4483      2.3046      0.1815      0.1393      0.251       
3008.591    -3008.5709  3032.591    3032.5709   74.6966     0.3147      2.9826      1.4482      2.2931      0.202       0.0757      0.2623      
3008.791    -3008.7727  3032.791    3032.7727   75.7603     0.3157      2.9627      1.4354      2.2889      0.2238      0.0075      0.2735      
3008.991    -3008.9745  3032.991    3032.9745   76.5151     0.3163      2.9522      1.4329      2.2856      0.2191      0.0271      0.2814      
3009.191    -3009.1764  3033.191    3033.1764   75.5357     0.3158      2.9199      1.419       2.2799      0.2083      0.0692      0.2884      
3009.391    -3009.3782  3033.391    3033.3782   76.6116     0.3161      2.9134      1.4148      2.2839      0.1956      0.1033      0.297       
3009.591    -3009.5801  3033.591    3033.5801   77.4033     0.3175      2.9196      1.4093      2.2902      0.1823      0.1361      0.306       
3009.791    -3009.782   3033.791    3033.782    76.7492     0.3184      2.9693      1.4181      2.2936      0.1681      0.1719      0.3147      
3009.991    -3009.9838  3033.991    3033.9838   78.2362     0.3181      2.9996      1.4121      2.3044      0.165       0.1792      0.331       
3010.191    -3010.1857  3034.191    3034.1857   78.5253     0.3175      3.0374      1.4097      2.3157      0.1629      0.1839      0.3497      
