#----------------------------------------------------------------------------
~VERSION INFORMATION
VERS.            2.0                  :CWLS LOG ASCII STANDARD -VERSION 2.0
WRAP.            NO                   :ONE LINE PER DEPTH STEP
#
#--------------------------------------------------------------------
~WELL INFORMATION
#MNEM .UNIT      DATA                 :DESCRIPTION OF MNEMONIC
#----------      ------------         -------------------------------
STRT  .m         3166.1892            :START DEPTH
STEP  .m         0.2                  :STEP DEPTH
STOP  .m         3426.1892            :STOP DEPTH
NULL  .          -999.25              :NULL VALUE
COMP  .                               :COMPANY
WELL  .                               :WELL
LOC   .                               :LOCATION - AREA
FLD   .          	              :FIELD
CTRY  .                               :COUNTRY
DATE  .                               :WELL DATE
UWI   .            	              :UWI
ZSTK  .          TVDss                :Z-STICK
XWELL .m         	              :X POS
YWELL .m         	              :Y POS
EDF   .          14.0                 :DERRICK FLOOR ELEVATION
#
#----------------------------------------------------------------------------
~CURVE INFORMATION
#MNEM.UNIT                                              : CURVE DESCRIPTION
#----------                                             -------------------------------
DEPT                    .m                              : 1      DEPTH
MD                      .m                              : 2      Depth
GR                      .API                            : 3      GR
CALIPER                 .m                              : 4      Cal
VP                      .km/s                           : 5      Vp
Vs_calculado_de_VPVS    .km/s                           : 6      Vs
RHO                     .g/cm3                          : 7      Rho
Porosidade              .fract                          : 8      Por
Argilosidade            .fract                          : 9      Volume
Saturacao               .fract                          : 10     Sat
#
#----------------------------------------------------------------------------
~A                      MD                      GR                      CALIPER                 VP                      Vs_calculado_de_VPVS    RHO                     Porosidade              Argilosidade            Saturacao               
# ...
3383.7892               3397.7892               82.0563                 0.3163                  2.8791                  1.175                   2.2006                  0.2339                  0.2297                  0.2289                  
3383.9892               3397.9892               83.4573                 0.3161                  2.8759                  1.1773                  2.1998                  0.2399                  0.2117                  0.226                   
3384.1892               3398.1892               79.9301                 0.3155                  2.8732                  1.1785                  2.1993                  0.2426                  0.1979                  0.2246                  
3384.3892               3398.3892               77.1677                 0.3138                  2.8703                  1.1809                  2.1991                  0.2415                  0.1887                  0.2251                  
3384.5892               3398.5892               77.4367                 0.3132                  2.8664                  1.1847                  2.1991                  0.2402                  0.1791                  0.2257                  
3384.7892               3398.7892               80.1415                 0.3138                  2.8608                  1.187                   2.1991                  0.2404                  0.1852                  0.224                   
3384.9892               3398.9892               81.9452                 0.3154                  2.8529                  1.1853                  2.1988                  0.2407                  0.1925                  0.2221                  
3385.1892               3399.1892               82.4529                 0.3166                  2.8426                  1.1805                  2.1985                  0.2404                  0.1974                  0.2217                  
3385.3892               3399.3892               82.2076                 0.3152                  2.8298                  1.1756                  2.1985                  0.2397                  0.1999                  0.2228                  
3385.5892               3399.5892               81.146                  0.3144                  2.8152                  1.1733                  2.2007                  0.2388                  0.2024                  0.2243                  
3385.7892               3399.7892               80.1483                 0.3146                  2.8                     1.1739                  2.2083                  0.2425                  0.1832                  0.2203                  
3385.9892               3399.9892               81.1853                 0.3139                  2.7859                  1.1759                  2.2234                  0.2471                  0.1595                  0.2154                  
3386.1892               3400.1892               80.9318                 0.3144                  2.7749                  1.1767                  2.2455                  0.2206                  0.17                    0.2423                  
3386.3892               3400.3892               79.387                  0.3153                  2.769                   1.1751                  2.2716                  0.1571                  0.2147                  0.3073                  
3386.5892               3400.5892               78.0103                 0.3153                  2.7694                  1.1728                  2.2965                  0.0851                  0.262                   0.3809                  
3386.7892               3400.7892               79.0647                 0.3153                  2.7763                  1.1703                  2.3134                  0.0911                  0.3334                  0.3513                  
3386.9892               3400.9892               80.9678                 0.3147                  2.7886                  1.1657                  2.3163                  0.0991                  0.4131                  0.3157                  
3387.1892               3401.1892               83.6416                 0.3133                  2.804                   1.1563                  2.3039                  0.1289                  0.3999                  0.2841                  
3387.3892               3401.3892               86.3236                 0.314                   2.8199                  1.1431                  2.2806                  0.1843                  0.2998                  0.2568                  
3387.5892               3401.5892               86.1452                 0.3176                  2.8337                  1.1317                  2.2537                  0.2464                  0.1811                  0.2275                  
3387.7892               3401.7892               84.7463                 0.3193                  2.8438                  1.1263                  2.2295                  0.2433                  0.186                   0.2317                  
3387.9892               3401.9892               82.4521                 0.3177                  2.8503                  1.1258                  2.212                   0.2381                  0.1948                  0.237                   
3388.1892               3402.1892               80.5003                 0.3158                  2.8545                  1.1263                  2.2033                  0.244                   0.1643                  0.2418                  
3388.3892               3402.3892               78.5726                 0.3146                  2.8578                  1.1246                  2.2024                  0.2617                  0.088                   0.2463                  
3388.5892               3402.5892               79.5606                 0.3157                  2.8605                  1.1201                  2.2063                  0.2821                  0.0016                  0.2503                  
3388.7892               3402.7892               80.1106                 0.3172                  2.8614                  1.1164                  2.2119                  0.2452                  0.0931                  0.2817                  
3388.9892               3402.9892               79.5293                 0.317                   2.858                   1.1162                  2.217                   0.2003                  0.2032                  0.3185                  
3389.1892               3403.1892               77.0129                 0.3168                  2.848                   1.1204                  2.2196                  0.1916                  0.2443                  0.3256                  
3389.3892               3403.3892               78.3102                 0.3161                  2.8302                  1.1279                  2.2181                  0.2165                  0.2142                  0.3052                  
3389.5892               3403.5892               78.5389                 0.3147                  2.8056                  1.1376                  2.2125                  0.2472                  0.1767                  0.2812                  
3389.7892               3403.7892               77.0448                 0.313                   2.7771                  1.1477                  2.2042                  0.2437                  0.2013                  0.2677                  
3389.9892               3403.9892               73.6829                 0.3131                  2.7485                  1.1547                  2.195                   0.2389                  0.2323                  0.2546                  
3390.1892               3404.1892               74.4403                 0.3147                  2.7226                  1.1543                  2.1859                  0.243                   0.2267                  0.2421                  
3390.3892               3404.3892               75.8502                 0.3155                  2.7                     1.1466                  2.1777                  0.2564                  0.1872                  0.2305                  
