#----------------------------------------------------------------------------
~VERSION INFORMATION
VERS.            2.0                  :CWLS LOG ASCII STANDARD -VERSION 2.0
WRAP.            NO                   :ONE LINE PER DEPTH STEP
#
#--------------------------------------------------------------------
~WELL INFORMATION
#MNEM .UNIT      DATA                 :DESCRIPTION OF MNEMONIC
#----------      ------------         -------------------------------
STRT  .m         3166.0               :START DEPTH
STEP  .m         0.2                  :STEP DEPTH
STOP  .m         3406.0               :STOP DEPTH
NULL  .          -999.25              :NULL VALUE
COMP  .          	              :COMPANY
WELL  .                               :WELL
LOC   .                               :LOCATION - AREA
FLD   .                               :FIELD
CTRY  .                               :COUNTRY
DATE  .                               :WELL DATE
UWI   .          	              :UWI
ZSTK  .          TVDss                :Z-STICK
XWELL .m         		      :X POS
YWELL .m         	              :Y POS
EDF   .          24.0                 :DERRICK FLOOR ELEVATION
#
#----------------------------------------------------------------------------
~CURVE INFORMATION
#MNEM.UNIT                                  : CURVE DESCRIPTION
#----------                                 -------------------------------
DEPT        .m                              : 1      DEPTH
MD          .m                              : 2      Depth
GR          .API                            : 3      GR
CALIPER     .m                              : 4      Cal
VP          .km/s                           : 5      Vp
VS          .km/s                           : 6      Vs
RHO         .g/cm3                          : 7      Rho
Porosidade  .fract                          : 8      Por
Argilosidade.fract                          : 9      Volume
Saturacao   .fract                          : 10     Sat
#
#----------------------------------------------------------------------------
~A          MD          GR          CALIPER     VP          VS          RHO         Porosidade  Argilosidade Saturacao   
# ...
3233.0      3257.0      93.6292     0.3275      2.662       1.0443      2.3215      0.0066      0.948       0.9694      
3233.2      3257.2      92.396      0.3287      2.6616      1.0424      2.3012      0.0392      0.7841      0.9995      
3233.4      3257.4      91.1364     0.3288      2.6627      1.0426      2.3013      0.0158      0.8769      0.9964      
3233.6      3257.6      94.251      0.3282      2.6671      1.0462      2.3213      0.0         0.9942      0.9896      
3233.8      3257.8      95.4246     0.3294      2.6762      1.054       2.3373      0.0013      0.9975      0.9796      
3234.0      3258.0      94.0695     0.3293      2.6902      1.0661      2.3346      0.0         0.9542      1.0         
3234.2      3258.2      94.4259     0.3286      2.7077      1.0808      2.3283      9.0E-4      0.9326      0.9861      
3234.4      3258.4      94.4318     0.3288      2.727       1.0964      2.3342      0.0         0.9724      0.9394      
3234.6      3258.6      94.8569     0.3282      2.747       1.1114      2.3478      6.0E-4      0.9334      0.9686      
3234.8      3258.8      95.9602     0.3279      2.7667      1.1232      2.3616      0.0         0.9791      0.9085      
3235.0      3259.0      94.6245     0.328       2.7836      1.1289      2.3736      4.0E-4      0.9823      0.8665      
3235.2      3259.2      92.2141     0.3283      2.7941      1.1268      2.3807      0.0         0.99        0.8442      
3235.4      3259.4      91.6385     0.3285      2.7948      1.1144      2.3788      3.0E-4      1.0         0.8426      
3235.6      3259.6      93.5244     0.3289      2.7834      1.0942      2.3642      0.0         0.9893      0.9         
3235.8      3259.8      94.7505     0.3294      2.7588      1.0708      2.3419      2.0E-4      0.9587      0.9622      
3236.0      3260.0      94.1577     0.3292      2.7266      1.0491      2.3243      0.0         0.9874      0.9565      
3236.2      3260.2      96.0136     0.3285      2.6947      1.0331      2.3122      1.0E-4      1.0         0.9571      
3236.4      3260.4      98.1418     0.3281      2.6716      1.0245      2.304       0.0         0.9967      0.9853      
3236.6      3260.6      100.0059    0.3276      2.662       1.0227      2.3098      1.0E-4      1.0         0.9916      
3236.8      3260.8      101.3157    0.3278      2.6642      1.0259      2.3291      0.0         0.9974      0.9892      
3237.0      3261.0      99.7305     0.3286      2.6752      1.0343      2.341       0.0         1.0         0.9595      
3237.2      3261.2      97.5643     0.3289      2.6911      1.0469      2.3386      0.0         0.9978      0.9463      
3237.4      3261.4      96.4055     0.3292      2.7091      1.0628      2.3326      0.0         1.0         0.9358      
3237.6      3261.6      96.7228     0.3294      2.7294      1.0811      2.3311      1.0E-4      0.9978      0.9358      
3237.8      3261.8      96.5865     0.3297      2.7534      1.1005      2.3421      0.0         1.0         0.9273      
3238.0      3262.0      95.6044     0.3293      2.7808      1.119       2.3705      1.0E-4      0.9974      0.9185      
3238.2      3262.2      93.2661     0.3282      2.8082      1.1345      2.3979      0.0         1.0         0.881       
3238.4      3262.4      92.9265     0.3279      2.829       1.1442      2.405       2.0E-4      0.9967      0.8335      
3238.6      3262.6      92.4487     0.3279      2.8359      1.1459      2.3985      0.0         1.0         0.795       
3238.8      3262.8      92.0873     0.328       2.8284      1.1393      2.3823      7.0E-4      0.9821      0.8326      
3239.0      3263.0      93.1992     0.3294      2.8049      1.1246      2.3493      0.0039      0.854       0.9771      
3239.2      3263.2      94.7878     0.3309      2.7713      1.1061      2.3127      0.001       0.9213      0.9998      
3239.4      3263.4      96.9248     0.3305      2.737       1.0888      2.2965      1.0E-4      0.987       0.9791      
3239.6      3263.6      95.3106     0.329       2.71        1.0769      2.3039      0.0077      0.9043      0.9965      
3239.8      3263.8      92.8738     0.3272      2.6951      1.0727      2.3247      0.0133      0.8158      1.0         
3240.0      3264.0      93.659      0.3266      2.6944      1.0752      2.343       0.0052      0.8246      0.9946      
3240.2      3264.2      96.4899     0.3264      2.7046      1.0833      2.3476      1.0E-4      0.9729      0.9344      
3240.4      3264.4      99.0115     0.3264      2.7235      1.094       2.3497      1.0E-4      1.0         0.9181      
3240.6      3264.6      98.9881     0.3267      2.7458      1.1041      2.3633      0.0         0.9979      0.9032      
3240.8      3264.8      96.4816     0.3269      2.767       1.1115      2.377       0.0         1.0         0.8719      
3241.0      3265.0      93.7704     0.327       2.7833      1.1148      2.3754      1.0E-4      0.9954      0.8623      
3241.2      3265.2      93.1321     0.3269      2.7902      1.1138      2.3639      0.0         0.9755      0.8833      
3241.4      3265.4      95.0016     0.3273      2.7864      1.1072      2.3525      2.0E-4      0.994       0.8663      
3241.6      3265.6      96.9567     0.328       2.7704      1.0952      2.3393      0.0         0.9953      0.8862      
3241.8      3265.8      97.4451     0.3286      2.7448      1.0804      2.3214      0.005       0.9236      0.9844      
3242.0      3266.0      99.3369     0.3289      2.7171      1.0662      2.3063      0.0146      0.9245      1.0         
3242.2      3266.2      101.1268    0.3279      2.6946      1.0556      2.3015      0.0071      0.9597      0.9988      
3242.4      3266.4      102.3713    0.3267      2.6823      1.0505      2.3071      1.0E-4      0.9979      1.0         
3242.6      3266.6      102.3069    0.3262      2.6817      1.0507      2.323       3.0E-4      0.9977      0.9978      
3242.8      3266.8      98.3035     0.3257      2.6889      1.0545      2.341       0.0         1.0         0.9746      
3243.0      3267.0      96.769      0.3258      2.7         1.0601      2.3466      3.0E-4      0.9959      0.9449      
3243.2      3267.2      100.8713    0.3263      2.7097      1.0647      2.3404      0.0         1.0         0.9435      
3243.4      3267.4      102.6514    0.3267      2.7152      1.0672      2.3326      7.0E-4      0.9817      0.9676      
3243.6      3267.6      101.5592    0.3271      2.7166      1.0678      2.3296      0.0033      0.8899      0.9972      
3243.8      3267.8      101.6952    0.3277      2.7151      1.0672      2.338       9.0E-4      0.9709      1.0         
3244.0      3268.0      100.5891    0.3275      2.7112      1.0656      2.3596      0.0         1.0         0.9988      
3244.2      3268.2      99.1914     0.3272      2.7064      1.0631      2.3761      3.0E-4      0.9958      0.9771      
3244.4      3268.4      98.4221     0.3276      2.7011      1.0598      2.3674      0.0         1.0         0.947       
3244.6      3268.6      99.5316     0.3278      2.6945      1.0558      2.3407      3.0E-4      0.9969      0.9506      
3244.8      3268.8      103.1689    0.3274      2.6859      1.0517      2.3294      0.0         1.0         0.9821      
3245.0      3269.0      103.2736    0.3262      2.6764      1.0486      2.3405      3.0E-4      0.9976      0.9961      
3245.2      3269.2      101.8822    0.3246      2.6692      1.0481      2.3441      0.0         0.9997      0.9977      
3245.4      3269.4      101.2036    0.3245      2.6684      1.0509      2.33        4.0E-4      0.9587      0.9993      
3245.6      3269.6      100.5719    0.325       2.6774      1.0579      2.3234      0.0         0.9603      1.0         
3245.8      3269.8      102.5876    0.3249      2.6963      1.0674      2.3341      6.0E-4      0.9918      0.9996      
3246.0      3270.0      106.5377    0.3252      2.7219      1.0772      2.3478      0.0         1.0         1.0         
3246.2      3270.2      107.9972    0.3267      2.7491      1.0851      2.3589      8.0E-4      0.9965      0.9986      
