#----------------------------------------------------------------------------
~VERSION INFORMATION
VERS.            2.0                  :CWLS LOG ASCII STANDARD -VERSION 2.0
WRAP.            NO                   :ONE LINE PER DEPTH STEP
#
#--------------------------------------------------------------------
~WELL INFORMATION
#MNEM .UNIT      DATA                 :DESCRIPTION OF MNEMONIC
#----------      ------------         -------------------------------
STRT  .m         3166.1892            :START DEPTH
STEP  .m         0.2                  :STEP DEPTH
STOP  .m         3426.1892            :STOP DEPTH
NULL  .          -999.25              :NULL VALUE
COMP  .                               :COMPANY
WELL  .                               :WELL
LOC   .                               :LOCATION - AREA
FLD   .          	              :FIELD
CTRY  .                               :COUNTRY
DATE  .                               :WELL DATE
UWI   .            	              :UWI
ZSTK  .          TVDss                :Z-STICK
XWELL .m         	              :X POS
YWELL .m         	              :Y POS
EDF   .          14.0                 :DERRICK FLOOR ELEVATION
#
#----------------------------------------------------------------------------
~CURVE INFORMATION
#MNEM.UNIT                                              : CURVE DESCRIPTION
#----------                                             -------------------------------
DEPT                    .m                              : 1      DEPTH
MD                      .m                              : 2      Depth
GR                      .API                            : 3      GR
CALIPER                 .m                              : 4      Cal
VP                      .km/s                           : 5      Vp
Vs_calculado_de_VPVS    .km/s                           : 6      Vs
RHO                     .g/cm3                          : 7      Rho
Porosidade              .fract                          : 8      Por
Argilosidade            .fract                          : 9      Volume
Saturacao               .fract                          : 10     Sat
#
#----------------------------------------------------------------------------
~A                      MD                      GR                      CALIPER                 VP                      Vs_calculado_de_VPVS    RHO                     Porosidade              Argilosidade            Saturacao               
3166.1892               3180.1892               89.8463                 0.3446                  2.5045                  0.9184                  2.2011                  0.0855                  0.7861                  1.0                     
3166.3892               3180.3892               91.017                  0.3444                  2.5183                  0.9154                  2.207                   0.0554                  0.8616                  1.0                     
3166.5892               3180.5892               92.1391                 0.3404                  2.536                   0.9104                  2.2195                  0.012                   0.9703                  1.0                     
3166.7892               3180.7892               95.6296                 0.3368                  2.5529                  0.9061                  2.2359                  0.0153                  0.9619                  1.0                     
3166.9892               3180.9892               99.7152                 0.3402                  2.5643                  0.905                   2.2515                  0.0294                  0.9265                  1.0                     
3167.1892               3181.1892               100.8748                0.3449                  2.5666                  0.908                   2.2608                  0.0334                  0.9165                  1.0                     
3167.3892               3181.3892               97.3062                 0.3463                  2.5592                  0.9145                  2.2612                  0.0282                  0.9295                  1.0                     
3167.5892               3181.5892               94.5086                 0.3509                  2.5445                  0.9194                  2.2535                  0.0185                  0.9537                  1.0                     
3167.7892               3181.7892               94.6523                 0.359                   2.5273                  0.9219                  2.2398                  0.0648                  0.8381                  0.9585                  
3167.9892               3181.9892               97.3495                 0.3544                  2.5133                  0.924                   2.2248                  0.1493                  0.6269                  0.884                   
3168.1892               3182.1892               101.7649                0.3406                  2.5068                  0.9255                  2.2148                  0.1593                  0.6016                  0.8759                  
3168.3892               3182.3892               100.613                 0.3355                  2.5098                  0.9258                  2.2145                  0.113                   0.7174                  0.9175                  
3168.5892               3182.5892               95.3673                 0.3342                  2.5211                  0.9222                  2.2237                  0.0301                  0.9247                  0.9919                  
3168.7892               3182.7892               91.2871                 0.3354                  2.5372                  0.9173                  2.2385                  0.0316                  0.9209                  1.0                     
3168.9892               3182.9892               95.2991                 0.3382                  2.5538                  0.9173                  2.2544                  0.0484                  0.879                   1.0                     
3169.1892               3183.1892               102.9298                0.3367                  2.5674                  0.9228                  2.2687                  0.062                   0.8451                  1.0                     
3169.3892               3183.3892               104.4732                0.3354                  2.5765                  0.93                    2.2806                  0.0721                  0.8197                  1.0                     
3169.5892               3183.5892               103.6561                0.3357                  2.5812                  0.9356                  2.29                    0.083                   0.7925                  1.0                     
3169.7892               3183.7892               102.3183                0.335                   2.582                   0.9375                  2.2973                  0.0616                  0.846                   1.0                     
3169.9892               3183.9892               100.9895                0.3335                  2.5796                  0.9358                  2.3028                  0.0218                  0.9455                  1.0                     
3170.1892               3184.1892               100.9407                0.3317                  2.5745                  0.9329                  2.3063                  0.0148                  0.963                   1.0                     
3170.3892               3184.3892               101.7388                0.3322                  2.5673                  0.9312                  2.3071                  0.0342                  0.9146                  1.0                     
3170.5892               3184.5892               103.2544                0.3358                  2.5597                  0.9319                  2.3046                  0.0692                  0.8271                  1.0                     
3170.7892               3184.7892               102.0138                0.3398                  2.5542                  0.9351                  2.3006                  0.0685                  0.8287                  1.0                     
3170.9892               3184.9892               99.4668                 0.3407                  2.5539                  0.9403                  2.2984                  0.0619                  0.8454                  1.0                     
3171.1892               3185.1892               96.9577                 0.3409                  2.561                   0.9426                  2.2999                  0.0498                  0.8756                  1.0                     
3171.3892               3185.3892               94.6277                 0.3404                  2.5759                  0.9395                  2.3051                  0.0289                  0.9276                  1.0                     
3171.5892               3185.5892               92.2559                 0.3372                  2.5968                  0.9332                  2.3125                  0.0029                  0.9927                  1.0                     
3171.7892               3185.7892               92.1108                 0.3344                  2.6204                  0.9294                  2.3201                  0.0                     1.0                     1.0                     
3171.9892               3185.9892               92.2022                 0.3318                  2.6434                  0.9307                  2.3262                  0.0                     1.0                     1.0                     
3172.1892               3186.1892               92.1827                 0.3281                  2.6631                  0.9347                  2.3308                  0.0                     0.9984                  1.0                     
3172.3892               3186.3892               93.985                  0.3273                  2.6786                  0.9382                  2.3342                  1.0E-4                  0.9937                  1.0                     
3172.5892               3186.5892               97.1245                 0.3286                  2.6892                  0.9403                  2.3366                  1.0E-4                  0.9889                  1.0                     
3172.7892               3186.7892               97.5025                 0.3304                  2.6948                  0.941                   2.3379                  0.0056                  0.9643                  1.0                     
