#----------------------------------------------------------------------------
~VERSION INFORMATION
VERS.            2.0                  :CWLS LOG ASCII STANDARD -VERSION 2.0
WRAP.            NO                   :ONE LINE PER DEPTH STEP
#
#--------------------------------------------------------------------
~WELL INFORMATION
#MNEM .UNIT      DATA                 :DESCRIPTION OF MNEMONIC
#----------      ------------         -------------------------------
STRT  .m         2910.0               :START DEPTH
STEP  .m         0.2                  :STEP DEPTH
STOP  .m         3110.0               :STOP DEPTH
NULL  .          -999.25              :NULL VALUE
COMP  .                               :COMPANY
WELL  .                               :WELL
LOC   .                               :LOCATION - AREA
FLD   .                               :FIELD
CTRY  .                               :COUNTRY
DATE  .                               :WELL DATE
UWI   .                               :UWI
ZSTK  .          TVDss                :Z-STICK
XWELL .m         	              :X POS
YWELL .m         	              :Y POS
EDF   .          14.0                 :DERRICK FLOOR ELEVATION
#
#----------------------------------------------------------------------------
~CURVE INFORMATION
#MNEM.UNIT                                  : CURVE DESCRIPTION
#----------                                 -------------------------------
DEPT        .m                              : 1      DEPTH
MD          .m                              : 2      Depth
GR          .API                            : 3      GR
CALIPER     .m                              : 4      Cal
VP          .km/s                           : 5      Vp
VS          .km/s                           : 6      Vs
RHO         .g/cm3                          : 7      Rho
Porosidade  .fract                          : 8      Por
Argilosidade.fract                          : 9      Volume
Saturacao   .fract                          : 10     Sat
#
#----------------------------------------------------------------------------
~A          MD          GR          CALIPER     VP          VS          RHO         Porosidade  Argilosidade Saturacao   
# ...
3057.4      3070.3475   98.1782     0.3096      2.7069      1.2231      2.1223      0.3217      0.0292      0.2551      
3057.6      3070.5473   98.9999     0.3099      2.7156      1.2139      2.1256      0.3203      0.026       0.2727      
3057.8      3070.7472   103.2911    0.3099      2.7119      1.1932      2.1323      0.3091      0.0611      0.3157      
3058.0      3070.947    115.4979    0.3097      2.714       1.1883      2.144       0.2813      0.1579      0.3879      
3058.2      3071.1467   126.8262    0.3098      2.7319      1.2162      2.1741      0.2295      0.3229      0.4856      
3058.4      3071.3465   132.2184    0.3101      2.7421      1.2075      2.2124      0.1686      0.5111      0.6226      
3058.6      3071.5463   133.6956    0.3103      2.7359      1.2382      2.2377      0.1218      0.6649      0.7607      
3058.8      3071.7461   130.4972    0.3105      2.7134      1.3013      2.2443      0.0969      0.7565      0.8239      
3059.0      3071.9459   123.8685    0.3106      2.6842      1.2738      2.2432      0.1004      0.7461      0.79        
3059.2      3072.1457   118.3639    0.3108      2.6616      1.2371      2.2296      0.1367      0.6161      0.6781      
3059.4      3072.3455   115.3512    0.3109      2.6472      1.2381      2.2047      0.1815      0.4638      0.5618      
3059.6      3072.5453   114.3105    0.311       2.6455      1.255       2.2081      0.1732      0.4874      0.6033      
3059.8      3072.7451   113.4871    0.3118      2.6711      1.2815      2.2614      0.1001      0.6913      0.8119      
3060.0      3072.9449   112.9642    0.3128      2.7223      1.29        2.3156      0.0424      0.8285      0.9515      
3060.2      3073.1447   114.672     0.3131      2.7621      1.2774      2.3007      0.0682      0.7445      0.8786      
3060.4      3073.3445   117.2039    0.3125      2.768       1.2685      2.2522      0.1222      0.606       0.7479      
3060.6      3073.5443   118.2555    0.312       2.77        1.2688      2.2459      0.1189      0.6338      0.7788      
3060.8      3073.7441   118.6121    0.3123      2.7698      1.2732      2.2887      0.0719      0.759       0.9376      
3061.0      3073.944    118.6661    0.3131      2.8261      1.2855      2.3223      0.0466      0.7777      0.9934      
3061.2      3074.1438   119.557     0.3131      2.8847      1.3389      2.3253      0.0707      0.6442      0.902       
3061.4      3074.3436   120.5931    0.3128      2.928       1.3977      2.3277      0.0933      0.5294      0.888       
3061.6      3074.5434   119.4379    0.3128      2.995       1.4289      2.3455      0.0577      0.6222      0.9716      
3061.8      3074.7432   114.532     0.3133      3.0456      1.4351      2.3694      0.0084      0.8503      0.9038      
3062.0      3074.943    110.819     0.3135      3.055       1.2728      2.3856      0.0         0.9942      0.7632      
3062.2      3075.1428   109.3986    0.3132      2.9687      1.1122      2.3868      0.0         0.9871      0.8296      
3062.4      3075.3426   109.1039    0.3139      2.7775      1.0889      2.3441      0.0208      0.8775      0.9859      
3062.6      3075.5424   110.704     0.3172      2.6533      1.1371      2.2579      0.0853      0.7552      1.0         
3062.8      3075.7422   112.4657    0.3195      2.5909      1.2321      2.22        0.0778      0.8091      0.9558      
3063.0      3075.942    107.5943    0.3186      2.5715      1.2732      2.2491      0.0154      0.9633      0.8648      
3063.2      3076.1418   96.6217     0.315       2.5926      1.2642      2.2604      0.0482      0.8772      0.689       
3063.4      3076.3416   86.1941     0.3118      2.6321      1.2367      2.2264      0.1458      0.5828      0.5047      
3063.6      3076.5414   81.0859     0.31        2.658       1.2915      2.2051      0.2025      0.3567      0.4039      
3063.8      3076.7412   77.4933     0.3098      2.7931      1.4195      2.2013      0.2402      0.1942      0.3752      
3064.0      3076.941    72.5225     0.3102      3.1616      1.4887      2.2032      0.2634      0.0403      0.3682      
3064.2      3077.1408   70.6749     0.3103      3.6294      1.4998      2.2504      0.2329      0.0         0.3634      
3064.4      3077.3406   75.8832     0.31        3.9149      1.4316      2.3596      0.1681      0.0113      0.4761      
3064.6      3077.5404   86.7484     0.3101      3.9895      1.4287      2.4455      0.1129      0.0978      0.7705      
3064.8      3077.7402   99.4757     0.3114      3.7489      1.4196      2.4379      0.0936      0.1998      0.9993      
3065.0      3077.94     104.8539    0.3133      3.3186      1.3555      2.3798      0.0965      0.3408      1.0         
3065.2      3078.1398   101.7451    0.3143      3.0135      1.2793      2.3366      0.0774      0.5787      0.9849      
3065.4      3078.3396   101.2052    0.314       2.8291      1.1975      2.3098      0.0543      0.7791      1.0         
3065.6      3078.5394   105.1818    0.3139      2.7136      1.1417      2.2694      0.0859      0.7472      0.9967      
3065.8      3078.7392   106.7403    0.3155      2.6671      1.151       2.2158      0.1478      0.5919      0.9204      
3066.0      3078.939    106.2585    0.3173      2.6474      1.1893      2.2132      0.154       0.5615      0.9138      
3066.2      3079.1388   109.4951    0.3175      2.6469      1.2098      2.2648      0.1         0.6936      0.9863      
3066.4      3079.3386   112.9809    0.3196      2.6777      1.2017      2.2899      0.0585      0.8155      1.0         
3066.6      3079.5384   112.4044    0.3236      2.7429      1.223       2.2938      0.055       0.8151      0.9916      
3066.8      3079.7382   108.5352    0.3235      2.7665      1.2989      2.3195      0.0458      0.7837      1.0         
3067.0      3079.9381   107.209     0.3189      2.7771      1.4063      2.3401      0.0352      0.7858      1.0         
3067.2      3080.1379   108.1109    0.3149      2.8089      1.4313      2.3167      0.0534      0.7642      0.991       
3067.4      3080.3377   107.7781    0.3139      2.8701      1.4444      2.2875      0.0823      0.6888      1.0         
3067.6      3080.5375   106.256     0.3146      2.9114      1.4319      2.2733      0.1186      0.5863      0.9741      
3067.8      3080.7373   106.9358    0.3201      2.8797      1.3168      2.1995      0.1921      0.4588      0.8202      
3068.0      3080.9371   109.1642    0.347       2.8076      1.2233      2.044       0.2779      0.3081      0.6844      
3068.2      3081.1369   110.155     0.3844      2.7307      1.1573      1.905       0.3119      0.2234      0.6371      
3068.4      3081.3367   108.923     0.3822      2.6697      1.1349      1.9292      0.2577      0.3496      0.718       
3068.6      3081.5365   105.774     0.3462      2.6754      1.16        2.1081      0.1286      0.6824      0.9126      
3068.8      3081.7363   104.3566    0.323       2.7467      1.2183      2.2941      0.0236      0.9381      1.0         
3069.0      3081.9361   104.3334    0.3209      2.8092      1.2828      2.338       0.0073      0.9383      0.9975      
3069.2      3082.1359   103.7342    0.3189      2.8628      1.3331      2.3289      0.0158      0.9006      0.9956      
3069.4      3082.3357   102.0565    0.3161      2.856       1.3267      2.3286      0.0047      0.9637      1.0         
3069.6      3082.5355   99.675      0.3171      2.8492      1.322       2.3441      0.0         1.0         0.9934      
3069.8      3082.7353   97.9173     0.3195      2.8435      1.3394      2.3555      7.0E-4      0.9966      0.994       
3070.0      3082.9351   97.5721     0.3199      2.8318      1.3454      2.3559      1.0E-4      0.9981      0.9862      
3070.2      3083.135    97.6271     0.3185      2.8283      1.3241      2.3521      0.0         1.0         0.9823      
3070.4      3083.3348   96.7734     0.319       2.8055      1.289       2.3522      0.0         0.9724      0.9974      
3070.6      3083.5346   95.3574     0.3216      2.7709      1.2836      2.351       0.0067      0.8921      1.0         
