#----------------------------------------------------------------------------
~VERSION INFORMATION
VERS.            2.0                  :CWLS LOG ASCII STANDARD -VERSION 2.0
WRAP.            NO                   :ONE LINE PER DEPTH STEP
#
#--------------------------------------------------------------------
~WELL INFORMATION
#MNEM .UNIT      DATA                 :DESCRIPTION OF MNEMONIC
#----------      ------------         -------------------------------
STRT  .m         1761.0               :START DEPTH
STEP  .m         0.2                  :STEP DEPTH
STOP  .m         3172.6718            :STOP DEPTH
NULL  .          -999.25              :NULL VALUE
COMP  .          Petrobras            :COMPANY
WELL  .          RO82                 :WELL
LOC   .                               :LOCATION - AREA
FLD   .                               :FIELD
CTRY  .                               :COUNTRY
DATE  .                               :WELL DATE
UWI   .          742810331400         :UWI
ZSTK  .          TVDss                :Z-STICK
XWELL .m         421843.59            :X POS
YWELL .m         7571342              :Y POS
EDF   .          25.0                 :DERRICK FLOOR ELEVATION
#
#----------------------------------------------------------------------------
~CURVE INFORMATION
#MNEM.UNIT                                  : CURVE DESCRIPTION
#----------                                 -------------------------------
DEPT        .m                              : 1      DEPTH
Depth_TVDkb .m                              : 2      Depth
Depth_MD    .m                              : 3      Depth
GR          .API                            : 4      GR
CALIPER     .m                              : 5      Cal
VP          .km/s                           : 6      Vp
VS          .km/s                           : 7      Vs
RHO         .g/cm3                          : 8      Rho
Porosidade  .fract                          : 9      Por
Argilosidade.fract                          : 10     Volume
Saturacao   .fract                          : 11     Sat
#
#----------------------------------------------------------------------------
~A          Depth_TVDkb Depth_MD    GR          CALIPER     VP          VS          RHO         Porosidade  Argilosidade Saturacao   
# ...
2847.2      2872.2      2872.2      117.6714    0.321       2.6078      1.0444      2.2496      0.0303      0.7763      1.0         
2847.4      2872.4      2872.4      121.4038    0.3206      2.5872      1.0519      2.2462      0.026       0.7961      1.0         
2847.6      2872.6      2872.6      121.4373    0.3207      2.5759      1.0535      2.2441      0.0173      0.8641      0.9427      
2847.8      2872.8      2872.8      120.2119    0.3209      2.5693      1.0511      2.2444      0.0087      0.932       0.8854      
2848.0      2873.0      2873.0      120.0756    0.321       2.5456      1.0484      2.2404      0.0         1.0         0.8281      
2848.2      2873.2      2873.2      121.3066    0.3208      2.5398      1.0461      2.2254      0.0108      0.9388      0.8716      
2848.4      2873.4      2873.4      125.4583    0.3206      2.5472      1.0407      2.2103      0.0216      0.8776      0.9151      
2848.6      2873.6      2873.6      134.1327    0.3206      2.5456      1.0301      2.2131      0.02        0.9044      0.9131      
2848.8      2873.8      2873.8      147.1364    0.3206      2.5359      1.0169      2.221       0.0184      0.9312      0.911       
2849.0      2874.0      2874.0      152.4334    0.3207      2.526       1.0068      2.2065      0.0168      0.9581      0.9089      
2849.2      2874.2      2874.2      141.5484    0.3205      2.5277      1.001       2.1818      0.0084      0.9756      0.9046      
2849.4      2874.4      2874.4      126.3524    0.3203      2.5412      0.9976      2.1892      0.0         0.9931      0.9004      
2849.6      2874.6      2874.6      120.3833    0.3203      2.5626      0.9933      2.2266      0.0         0.9954      0.8942      
2849.8      2874.8      2874.8      116.7968    0.3204      2.5761      0.9869      2.2517      0.0         0.9977      0.888       
2850.0      2875.0      2875.0      111.9124    0.3204      2.5681      0.9814      2.257       0.0         1.0         0.8818      
2850.2      2875.2      2875.2      108.1063    0.3205      2.5461      0.9807      2.2556      0.0         1.0         0.8931      
2850.4      2875.4      2875.4      105.128     0.3206      2.5107      0.9859      2.2539      0.0         1.0         0.9043      
2850.6      2875.6      2875.6      104.0186    0.3205      2.5186      0.9958      2.2576      0.0         1.0         0.8988      
2850.8      2875.8      2875.8      104.173     0.3204      2.5533      1.0101      2.2602      0.0         1.0         0.8932      
2851.0      2876.0      2876.0      104.1211    0.3203      2.5937      1.0271      2.2559      0.0         1.0         0.8877      
2851.2      2876.2      2876.2      104.6896    0.3204      2.6115      1.0418      2.2521      0.0         1.0         0.8848      
2851.4      2876.4      2876.4      105.9603    0.3205      2.6155      1.0502      2.2551      0.0         1.0         0.8818      
2851.6      2876.6      2876.6      107.2219    0.3204      2.615       1.0507      2.2558      0.0         1.0         0.8786      
2851.8      2876.8      2876.8      109.1724    0.3203      2.6089      1.0484      2.2529      0.0         1.0         0.8753      
2852.0      2877.0      2877.0      110.2398    0.3202      2.5885      1.0465      2.2582      0.0         1.0         0.8721      
2852.2      2877.2      2877.2      108.6763    0.3201      2.5795      1.0466      2.263       0.0111      0.8839      0.936       
2852.4      2877.4      2877.4      107.385     0.32        2.5697      1.0471      2.2602      0.0222      0.7677      1.0         
2852.6      2877.6      2877.6      108.7539    0.3201      2.5637      1.0474      2.2629      0.0148      0.8419      0.9531      
2852.8      2877.8      2877.8      111.1788    0.3202      2.562       1.0497      2.2712      0.0074      0.9161      0.9063      
2853.0      2878.0      2878.0      112.8966    0.3203      2.5666      1.0567      2.2693      0.0         0.9902      0.8594      
2853.2      2878.2      2878.2      113.9745    0.3203      2.5763      1.068       2.2604      0.0         0.9951      0.8486      
2853.4      2878.4      2878.4      113.564     0.3204      2.5839      1.0817      2.2554      0.0         1.0         0.8379      
2853.6      2878.6      2878.6      110.2558    0.3204      2.5987      1.0937      2.2641      0.0         1.0         0.8288      
2853.8      2878.8      2878.8      105.2354    0.3204      2.6304      1.0995      2.2919      0.0         1.0         0.8197      
2854.0      2879.0      2879.0      102.5796    0.3204      2.6506      1.0981      2.3242      0.0         1.0         0.8105      
2854.2      2879.2      2879.2      104.0121    0.3203      2.6431      1.0928      2.33        0.0         1.0         0.8198      
2854.4      2879.4      2879.4      107.3134    0.3202      2.6166      1.0867      2.3055      0.0         1.0         0.8291      
2854.6      2879.6      2879.6      109.5609    0.3204      2.5872      1.0782      2.2828      0.0         0.9766      0.8561      
2854.8      2879.8      2879.8      112.1567    0.3206      2.5767      1.0667      2.2779      0.0         0.9532      0.8831      
2855.0      2880.0      2880.0      113.8058    0.3208      2.5738      1.057       2.275       0.0         0.9297      0.9102      
2855.2      2880.2      2880.2      112.6985    0.3208      2.5649      1.0529      2.2629      0.0         0.9649      0.8691      
2855.4      2880.4      2880.4      110.3726    0.3208      2.5576      1.0598      2.2523      0.0         1.0         0.8281      
2855.6      2880.6      2880.6      108.1012    0.3208      2.5747      1.075       2.2505      0.0         0.9812      0.8252      
2855.8      2880.8      2880.8      105.4637    0.3209      2.6112      1.0942      2.2589      0.0         0.9624      0.8223      
2856.0      2881.0      2881.0      103.1325    0.3209      2.6489      1.112       2.2739      0.0         0.9436      0.8193      
2856.2      2881.2      2881.2      101.4391    0.3207      2.6838      1.1267      2.28        0.0108      0.8415      0.9097      
2856.4      2881.4      2881.4      99.8814     0.3205      2.7067      1.1389      2.2783      0.0216      0.7395      1.0         
2856.6      2881.6      2881.6      98.2358     0.3206      2.721       1.1477      2.2768      0.0144      0.8263      0.9251      
2856.8      2881.8      2881.8      96.2909     0.3206      2.7257      1.1525      2.2753      0.0072      0.9132      0.8503      
2857.0      2882.0      2882.0      94.9585     0.3207      2.7301      1.1545      2.2763      0.0         1.0         0.7754      
2857.2      2882.2      2882.2      95.3458     0.3208      2.7245      1.1548      2.2774      0.0         0.9673      0.7988      
2857.4      2882.4      2882.4      96.5412     0.3208      2.7071      1.1541      2.2748      0.0         0.9346      0.8223      
2857.6      2882.6      2882.6      97.5554     0.3209      2.693       1.1527      2.2723      0.0         0.9564      0.8063      
2857.8      2882.8      2882.8      98.9207     0.3209      2.6917      1.1497      2.2741      0.0         0.9782      0.7904      
2858.0      2883.0      2883.0      99.7781     0.321       2.6829      1.1449      2.2761      0.0         1.0         0.7744      
2858.2      2883.2      2883.2      99.3376     0.3206      2.6797      1.14        2.2754      0.0         0.9466      0.8203      
2858.4      2883.4      2883.4      98.9755     0.3202      2.6787      1.1342      2.2716      0.0         0.8932      0.8662      
2858.6      2883.6      2883.6      100.1435    0.3203      2.6641      1.1261      2.2652      0.0         0.9288      0.8382      
2858.8      2883.8      2883.8      101.9015    0.3205      2.6376      1.1195      2.2626      0.0         0.9644      0.8102      
2859.0      2884.0      2884.0      103.1769    0.3206      2.6122      1.1162      2.2684      0.0         1.0         0.7822      
2859.2      2884.2      2884.2      103.7564    0.3206      2.6178      1.1143      2.276       0.0         0.9798      0.7993      
